timestamp,drone_x,drone_y,drone_z,drone_roll,drone_pitch,drone_yaw,target_x,target_y,target_z,drone_vx,drone_vy,drone_vz,target_vx,target_vy,target_vz,predicted_target_vx,predicted_target_vy,predicted_target_vz,thrust_output,distance_error,velocity_error
0.0126016,-0.0590124,-0.0164439,1.19742,0.000438682,0.00387212,-0.000494293,1,0,1.2,0.0539276,0.0259013,-0.000424155,0,0,0,0,0,0,0.52,1.05914,0.0598268
0.0437597,-0.0578745,-0.015893,1.19748,0.000582815,0.003867,-0.000571228,1,0,1.2,0.0538059,0.025584,0.000810001,0,0,0,0,0,0,0.52,1.058,0.0595842
0.0801647,-0.0579085,-0.015533,1.19781,0.000246647,0.00384868,-0.000646059,1,0,1.2,0.0548006,0.025387,0.00187098,0,0,0,0,0,0,0.52,1.05802,0.0604244
0.113745,-0.0589537,-0.0153436,1.19879,9.28245e-05,0.00383245,-0.000754926,1,0,1.2,0.0541107,0.0243462,0.0178027,0,0,0,0,0,0,0.52,1.05907,0.0619487
0.149064,-0.0596587,-0.0150929,1.20035,0.000268124,0.00380575,-0.000661534,1,0,1.2,0.0554568,0.0227905,0.0400826,0,0,0,0,0,0,0.52,1.05977,0.0721213
0.181111,-0.0602097,-0.0147154,1.20297,0.000282456,0.00376926,-0.000700034,1,0,1.2,0.0546852,0.0226716,0.0539084,0,0,0,0,0,0,0.52,1.06032,0.0800661
0.212872,-0.0603996,-0.0143791,1.20563,5.11246e-05,0.00384007,-0.000681333,1,0,1.2,0.0545499,0.0214698,0.0734334,0,0,0,0,0,0,0.52,1.06051,0.0939634
0.245495,-0.0603589,-0.0140318,1.20877,6.90247e-05,0.00373243,-0.000776892,1,0,1.2,0.0555088,0.0200661,0.0885077,0,0,0,0,0,0,0.52,1.06049,0.106384
0.281064,-0.060117,-0.013682,1.21298,4.3694e-05,0.00350564,-0.000875231,1,0,1.2,0.0558934,0.0182101,0.111214,0,0,0,0,0,0,0.52,1.06028,0.125795
0.312878,-0.0596812,-0.0133033,1.21848,0.000289699,0.00359731,-0.00104506,1,0,1.2,0.0567897,0.0174969,0.150548,0,0,0,0,0,0,0.52,1.05993,0.161852
0.344658,-0.0590408,-0.0128968,1.22528,0.000449625,0.00368926,-0.0012629,1,0,1.2,0.057523,0.0174158,0.190567,0,0,0,0,0,0,0.52,1.05942,0.19982
0.380493,-0.0579852,-0.0123186,1.2356,0.000303663,0.00371154,-0.00130127,1,0,1.2,0.0588172,0.0174297,0.231295,0,0,0,0,0,0,0.52,1.05866,0.239292
0.412291,-0.0569847,-0.0117985,1.24527,0.000295671,0.00337703,-0.00147464,1,0,1.2,0.059863,0.0177292,0.280192,0,0,0,0,0,0,0.52,1.05802,0.287063
0.44414,-0.0558488,-0.0112079,1.25613,0.000426364,0.00339661,-0.00129133,1,0,1.2,0.059903,0.019005,0.318127,0,0,0,0,0,0,0.52,1.0574,0.324275
0.47997,-0.0554598,-0.0108644,1.26758,0.000408832,0.00367054,-0.00124098,1,0,1.2,0.0610724,0.0202484,0.357053,0,0,0,0,0,0,0.52,1.05768,0.362804
0.51184,-0.0557318,-0.0107737,1.27972,0.000393013,0.00339903,-0.00150735,1,0,1.2,0.0605963,0.0207138,0.396998,0,0,0,0,0,0,0.52,1.05879,0.40213
0.543718,-0.0557954,-0.0106373,1.29324,0.000324254,0.00344295,-0.0012872,1,0,1.2,0.0596426,0.0209905,0.43612,0,0,0,0,0,0,0.52,1.05996,0.44068
0.579574,-0.0556062,-0.0104038,1.31186,0.000404708,0.00348813,-0.0013136,1,0,1.2,0.0592153,0.0188763,0.471658,0,0,0,0,0,0,0.52,1.06157,0.475735
0.611523,-0.0552885,-0.0101527,1.32803,0.000240721,0.00334191,-0.00122843,1,0,1.2,0.0578567,0.0181491,0.514472,0,0,0,0,0,0,0.10326,1.06308,0.518033
0.643397,-0.0548226,-0.00981642,1.34537,0.000264845,0.00320553,-0.00118964,1,0,1.2,0.0567069,0.019428,0.547948,0,0,0,0.104507,-0.056009,-0.0378073,-0.0805984,1.06484,0.551217
0.679294,-0.0541705,-0.00946425,1.36221,0.00101468,0.00474258,-0.00137706,1,0,1.2,0.0564837,0.0190433,0.572741,0,0,0,0.0558588,-0.0317098,0.0216041,0.0935365,1.06662,0.575835
0.711655,-0.0533347,-0.0091039,1.37549,0.00265953,0.0104005,-0.00147903,1,0,1.2,0.0578019,0.017654,0.498634,0,0,0,0.202937,-0.0155851,-9.79709e-05,0.194221,1.06789,0.502284
0.743649,-0.0521903,-0.00878649,1.3851,0.00381259,0.0142722,-0.00155857,1,0,1.2,0.0606758,0.0167419,0.364705,0,0,0,0.217,0.0735788,-0.0519375,0.177474,1.06838,0.370097
0.779452,-0.0503205,-0.00856491,1.39386,0.0127104,0.0285762,-0.00166421,1,0,1.2,0.0676337,0.0125407,0.276512,0,0,0,0.3114,0.136817,-0.107088,0.283323,1.0681,0.28494
0.811361,-0.0484555,-0.00854189,1.39838,0.0260771,0.0443322,-0.00224434,1,0,1.2,0.0749358,0.00688589,0.183845,0,0,0,0.327691,0.269027,-0.101295,0.228516,1.06709,0.198649
0.8433,-0.0461755,-0.00868983,1.40112,0.032926,0.0509524,-0.00236015,1,0,1.2,0.0842027,0.000408253,0.120317,0,0,0,0.250855,0.316646,-0.0394307,0.200454,1.06537,0.146855
0.879201,-0.0444282,-0.00947032,1.40292,0.0434446,0.05876,-0.00262928,1,0,1.2,0.0953274,-0.00503336,0.0694522,0,0,0,0.0477965,0.311562,0.100933,0.00145205,1.064,0.118052
0.911235,-0.0431787,-0.0108258,1.40292,0.047909,0.0582401,-0.00312938,1,0,1.2,0.105124,-0.0116566,0.00770278,0,0,0,0.0380752,0.22055,0.133718,0.201089,1.06279,0.106048
0.943144,-0.0414391,-0.0123278,1.39932,0.047715,0.0544782,-0.00372448,1,0,1.2,0.112741,-0.0186401,-0.0912344,0,0,0,0.0115406,0.225887,0.10309,0.185837,1.06041,0.146225
0.979069,-0.0386435,-0.0144774,1.39066,0.0436842,0.0465772,-0.00456051,1,0,1.2,0.120685,-0.0267295,-0.195671,0,0,0,-0.00618404,0.254114,0.108446,0.204187,1.0561,0.231444
1.01267,-0.036023,-0.0164277,1.38074,0.0373902,0.0347394,-0.00585604,1,0,1.2,0.128115,-0.038497,-0.297852,0,0,0,0.0169034,0.176743,0.161075,0.0844205,1.0518,0.326513
1.04509,-0.0331093,-0.0185282,1.36807,0.0336346,0.0275723,-0.00649305,1,0,1.2,0.132374,-0.0459744,-0.377478,0,0,0,0.0453898,0.145429,0.186294,0.146679,1.04686,0.402649
1.08087,-0.0299515,-0.020699,1.35229,0.0253174,0.0129434,-0.00755732,1,0,1.2,0.135483,-0.0521795,-0.465385,0,0,0,0.142161,0.0817127,0.149777,0.0887077,1.04136,0.487505
1.11368,-0.0266126,-0.0229229,1.33331,0.0168586,-0.00110429,-0.008111,1,0,1.2,0.13863,-0.0563088,-0.565816,0,0,0,0.232471,0.0432834,0.0813558,0.257191,1.03549,0.585266
1.14546,-0.0231563,-0.0251541,1.31131,0.0121846,-0.00793552,-0.00814322,1,0,1.2,0.137683,-0.0590701,-0.663054,0,0,0,0.231092,0.0142959,0.106065,0.468797,1.0295,0.679769
1.18117,-0.0187156,-0.0279897,1.28107,0.00650686,-0.0145995,-0.00763158,1,0,1.2,0.138093,-0.0617814,-0.742838,0,0,0,0.226101,0.00681955,0.159258,0.604772,1.02232,0.758086
1.21312,-0.0152223,-0.0302151,1.25748,0.00368298,-0.0167964,-0.00676221,1,0,1.2,0.134568,-0.0638145,-0.777459,0,0,0,0.207407,-0.0456805,0.235823,0.697448,1.0173,0.791595
1.24493,-0.011934,-0.0323993,1.23596,0.00246481,-0.0169056,-0.00604848,1,0,1.2,0.125913,-0.0657611,-0.721879,0,0,0,0.189032,-0.0877513,0.263458,0.718303,1.01309,0.735723
1.28072,-0.00900941,-0.0346392,1.21893,0.000661551,-0.0154625,-0.00454894,1,0,1.2,0.117872,-0.0639084,-0.647022,0,0,0,0.167759,-0.166391,0.320303,0.664794,1.00978,0.660769
1.31253,-0.00641365,-0.0369017,1.20694,0.000218962,-0.0120362,-0.00279528,1,0,1.2,0.110213,-0.0622463,-0.535915,0,0,0,0.150324,-0.216276,0.348023,0.62448,1.00711,0.55066
1.34481,-0.00389184,-0.0390806,1.19803,0.000508818,-0.00996687,-0.00159663,1,0,1.2,0.102509,-0.0600831,-0.421923,0,0,0,0.162028,-0.22605,0.372449,0.613377,1.00465,0.438335
1.38061,-0.000740626,-0.0416474,1.19061,0.00139774,-0.00536319,0.00134327,1,0,1.2,0.0978505,-0.0592672,-0.323576,0,0,0,0.124914,-0.218033,0.367975,0.533437,1.00165,0.343204
1.41236,0.0018114,-0.04358,1.18723,0.00278162,-9.94735e-05,0.00484828,1,0,1.2,0.0949838,-0.0565941,-0.215205,0,0,0,0.100583,-0.238433,0.318139,0.430716,0.999221,0.241947
1.445,0.00442022,-0.0454406,1.1853,0.0036337,0.00246671,0.00676714,1,0,1.2,0.0937588,-0.0547299,-0.147839,0,0,0,0.106359,-0.235205,0.299741,0.400132,0.996725,0.183419
1.48068,0.00703124,-0.0472759,1.18411,0.00516567,0.00711802,0.0113089,1,0,1.2,0.0926155,-0.0536741,-0.106323,0,0,0,0.0791978,-0.182441,0.29163,0.377491,0.99422,0.150875
1.51251,0.00968879,-0.0491333,1.18283,0.0059289,0.0105207,0.0163143,1,0,1.2,0.0908052,-0.0543432,-0.0888116,0,0,0,-0.0034124,-0.152753,0.246086,0.321157,0.991678,0.138153
1.5444,0.0124167,-0.0509745,1.18097,0.00604316,0.0113152,0.0190895,1,0,1.2,0.0903441,-0.0555638,-0.0985192,0,0,0,-0.0190505,-0.140088,0.251921,0.351999,0.989081,0.14476
1.58014,0.0159367,-0.0533411,1.17746,0.00598619,0.0107623,0.0248941,1,0,1.2,0.0919158,-0.056121,-0.114209,0,0,0,-0.0762078,-0.137954,0.200545,0.313692,0.985766,0.156977
1.6125,0.018804,-0.0552536,1.17361,0.00614123,0.00727144,0.0315809,1,0,1.2,0.0919495,-0.0591661,-0.143714,0,0,0,-0.0867752,-0.118781,0.178598,0.36581,0.983105,0.180579
1.64477,0.0216882,-0.0571068,1.16876,0.0064678,0.00552005,0.0345628,1,0,1.2,0.0916819,-0.0590427,-0.170116,0,0,0,-0.0853392,-0.113435,0.175433,0.376359,0.980475,0.202067
1.68055,0.0243584,-0.0592453,1.16296,0.00668594,0.00180764,0.0402058,1,0,1.2,0.0922241,-0.0592747,-0.196388,0,0,0,-0.0620957,-0.104759,0.180755,0.405819,0.97814,0.224916
1.71243,0.0268294,-0.0616649,1.15656,0.00672152,-0.00195086,0.0468565,1,0,1.2,0.0921452,-0.0603321,-0.214731,0,0,0,-0.0531747,-0.10889,0.188077,0.429043,0.97609,0.24133
1.74474,0.0293445,-0.0640168,1.14993,0.00648936,-0.00357374,0.0507919,1,0,1.2,0.0914616,-0.060688,-0.220088,0,0,0,-0.0597033,-0.114147,0.184002,0.432802,0.974052,0.245941
1.78161,0.032455,-0.0669596,1.14151,0.00589908,-0.00588827,0.0575826,1,0,1.2,0.0894595,-0.0617523,-0.225354,0,0,0,-0.049174,-0.111753,0.187399,0.465481,0.971621,0.250202
1.81343,0.0348506,-0.0693323,1.13498,0.00573457,-0.0074395,0.064658,1,0,1.2,0.0844274,-0.0642113,-0.220961,0,0,0,-0.0439682,-0.108759,0.192439,0.486721,0.969819,0.245102
1.8452,0.0371804,-0.071699,1.12897,0.00559418,-0.0078633,0.0674534,1,0,1.2,0.080001,-0.0663789,-0.206607,0,0,0,-0.0471435,-0.105986,0.187202,0.481357,0.968095,0.231285
1.88098,0.0394475,-0.0740209,1.12366,0.00576001,-0.00789804,0.0749036,1,0,1.2,0.0770107,-0.0661549,-0.18693,0,0,0,-0.0332007,-0.088406,0.199325,0.493007,0.96642,0.21272
1.91357,0.0416314,-0.0763344,1.11914,0.0057483,-0.00727567,0.082303,1,0,1.2,0.0731828,-0.0669987,-0.162362,0,0,0,-0.0310866,-0.0772659,0.201277,0.477194,0.964798,0.190279
1.94542,0.0437341,-0.0786055,1.11551,0.00576322,-0.00690118,0.0859735,1,0,1.2,0.0705345,-0.0667533,-0.135255,0,0,0,-0.0278154,-0.0687955,0.201276,0.465535,0.963204,0.166509
1.98114,0.0462691,-0.0814514,1.11206,0.006139,-0.00569561,0.0934131,1,0,1.2,0.0670507,-0.0672138,-0.108218,0,0,0,-0.0221812,-0.052656,0.20462,0.449451,0.961234,0.14396
2.01292,0.0482079,-0.0837532,1.10999,0.00655314,-0.00523672,0.100587,1,0,1.2,0.0634253,-0.0687934,-0.0793558,0,0,0,-0.0210162,-0.0361402,0.200206,0.430765,0.959701,0.122689
2.04473,0.050099,-0.0860816,1.10837,0.00682307,-0.00486745,0.104153,1,0,1.2,0.0595338,-0.0704725,-0.0614037,0,0,0,-0.0177508,-0.0263864,0.194942,0.41753,0.958185,0.11082
2.081,0.0516847,-0.0890718,1.10654,0.00731846,-0.00441965,0.11123,1,0,1.2,0.0568956,-0.0722452,-0.0493517,0,0,0,-0.00918494,-0.0086412,0.188521,0.408514,0.957064,0.104365
2.11283,0.0529862,-0.0926131,1.10437,0.00756642,-0.00404818,0.117755,1,0,1.2,0.0551713,-0.0734518,-0.0442332,0,0,0,-0.00703306,0.00612497,0.177052,0.398832,0.956325,0.101959
2.14473,0.0542271,-0.0960864,1.10223,0.00777706,-0.00394139,0.120999,1,0,1.2,0.0517632,-0.0752358,-0.044177,0,0,0,-0.00447846,0.0110069,0.172883,0.396118,0.955655,0.101447
2.18041,0.0557708,-0.100339,1.09946,0.00821264,-0.00385613,0.126908,1,0,1.2,0.0475795,-0.0769138,-0.0458016,0,0,0,-0.00373082,0.0202438,0.157602,0.406207,0.954854,0.101377
2.21229,0.0570324,-0.10373,1.09705,0.00846796,-0.00333356,0.132452,1,0,1.2,0.0458472,-0.0800186,-0.0537981,0,0,0,-0.012364,0.0273042,0.14071,0.416629,0.954226,0.106767
2.24429,0.0582853,-0.107079,1.09457,0.00854059,-0.00340013,0.135544,1,0,1.2,0.0448928,-0.0820283,-0.0586199,0,0,0,-0.0179627,0.0285909,0.133711,0.424857,0.953628,0.110364
2.28006,0.0595527,-0.110362,1.09222,0.00827115,-0.00304182,0.140832,1,0,1.2,0.043533,-0.0816703,-0.060191,0,0,0,-0.0304207,0.0312066,0.117804,0.437191,0.953014,0.1104
2.31267,0.0607614,-0.113658,1.09003,0.00809036,-0.00320018,0.146021,1,0,1.2,0.0407697,-0.0841294,-0.0578306,0,0,0,-0.0423434,0.0323131,0.103868,0.443288,0.952461,0.109929
2.34451,0.0618827,-0.116922,1.08804,0.00777531,-0.00295599,0.148437,1,0,1.2,0.03732,-0.0854316,-0.0521253,0,0,0,-0.0495138,0.0311905,0.0957759,0.445217,0.951982,0.10681
2.38031,0.0633576,-0.121005,1.08612,0.00739837,-0.00291218,0.153372,1,0,1.2,0.0349888,-0.0871189,-0.0447473,0,0,0,-0.0564344,0.0299272,0.0874296,0.451718,0.951267,0.104001
2.41223,0.0645323,-0.124231,1.08505,0.00703449,-0.00254106,0.158211,1,0,1.2,0.0356284,-0.0885379,-0.0288046,0,0,0,-0.0662735,0.0273195,0.0800019,0.44126,0.950656,0.0996897
2.44413,0.065679,-0.127412,1.08447,0.00656452,-0.00215793,0.160759,1,0,1.2,0.0340544,-0.0885529,-0.0166242,0,0,0,-0.0691278,0.0270946,0.0764603,0.438367,0.950019,0.0963207
2.48014,0.0666405,-0.131253,1.08408,0.00632888,-0.00191055,0.165534,1,0,1.2,0.032281,-0.0896708,-0.00260816,0,0,0,-0.071311,0.0241621,0.0755973,0.429467,0.949645,0.09534
2.51394,0.0674577,-0.135629,1.0838,0.00608833,-0.00203842,0.16993,1,0,1.2,0.030457,-0.0902227,0.0073144,0,0,0,-0.0731169,0.0213286,0.0729378,0.425298,0.949491,0.0955053
2.54606,0.0682764,-0.139902,1.08383,0.00615456,-0.00196974,0.172279,1,0,1.2,0.0307299,-0.0916501,0.0174035,0,0,0,-0.0734154,0.0194445,0.0699684,0.416795,0.949303,0.0982189
2.58173,0.0692472,-0.145109,1.0842,0.00613335,-0.00219975,0.17725,1,0,1.2,0.0277815,-0.0932035,0.0256013,0,0,0,-0.0723267,0.01545,0.0694608,0.413074,0.949088,0.100569
2.61356,0.0700409,-0.149194,1.08459,0.0054789,-0.00227933,0.181263,1,0,1.2,0.0256684,-0.0955919,0.0302606,0,0,0,-0.0715661,0.0125551,0.0657056,0.410017,0.948895,0.103501
2.64525,0.0708258,-0.153181,1.08511,0.00540031,-0.00240753,0.183528,1,0,1.2,0.0252735,-0.0955785,0.0321245,0,0,0,-0.071585,0.0110471,0.0634386,0.407049,0.948698,0.103952
2.68113,0.0716888,-0.157095,1.08563,0.00513718,-0.00262874,0.188075,1,0,1.2,0.0251911,-0.0963118,0.0311571,0,0,0,-0.0720345,0.00773604,0.0613042,0.407592,0.948431,0.104314
2.71317,0.0725541,-0.160962,1.08618,0.00465566,-0.00271825,0.192332,1,0,1.2,0.0261738,-0.096504,0.0312439,0,0,0,-0.0737518,0.00514873,0.0574847,0.406383,0.948166,0.104758
2.74602,0.0734029,-0.164778,1.0867,0.00439521,-0.00271602,0.194524,1,0,1.2,0.0245663,-0.0982886,0.0305652,0,0,0,-0.0750018,0.00359923,0.0556184,0.405905,0.94793,0.105822
2.78188,0.0744413,-0.169491,1.08725,0.00421892,-0.00279289,0.199186,1,0,1.2,0.0230779,-0.0990754,0.025998,0,0,0,-0.0754105,0.00031235,0.0512534,0.413903,0.947681,0.104997
2.81378,0.0752652,-0.173192,1.08765,0.00384783,-0.00266614,0.203599,1,0,1.2,0.0222264,-0.0995686,0.0227226,0,0,0,-0.0790916,-0.00345375,0.0464548,0.415036,0.947499,0.104519
2.84587,0.0760519,-0.176785,1.08804,0.00338592,-0.00263475,0.205981,1,0,1.2,0.0205293,-0.0983504,0.0208946,0,0,0,-0.0813154,-0.00505548,0.0436397,0.416849,0.947348,0.10262
2.88178,0.0771701,-0.18123,1.08835,0.00324006,-0.00263952,0.211119,1,0,1.2,0.0187167,-0.0971835,0.0206768,0,0,0,-0.0805536,-0.00834893,0.0409953,0.421172,0.947062,0.101106
2.91358,0.078557,-0.186438,1.08868,0.00328764,-0.00242522,0.216245,1,0,1.2,0.0174291,-0.0974077,0.0211794,0,0,0,-0.0823232,-0.0110499,0.0372998,0.421459,0.946682,0.101196
2.94554,0.0798179,-0.191443,1.08914,0.00293439,-0.00236277,0.218734,1,0,1.2,0.0158744,-0.0994787,0.0228826,0,0,0,-0.0843982,-0.0123354,0.0358573,0.419901,0.946401,0.103304
2.98149,0.0813029,-0.197424,1.0899,0.00225298,-0.00218876,0.224562,1,0,1.2,0.0146391,-0.0997596,0.0263498,0,0,0,-0.0873023,-0.0166012,0.0343121,0.418609,0.946098,0.104214
3.01392,0.0824229,-0.201995,1.09052,0.00223001,-0.00227094,0.229019,1,0,1.2,0.013823,-0.0982967,0.0313115,0,0,0,-0.0895693,-0.0198193,0.0339069,0.412992,0.945905,0.104085
3.04513,0.0834596,-0.206456,1.09116,0.00233712,-0.00229592,0.231406,1,5.23986e-05,1.2,0.0132235,-0.0991636,0.0327065,-1.3723e-07,0.00523792,0,-0.0912863,-0.0213334,0.0339933,0.410959,0.945801,0.110201
3.08081,0.0843665,-0.210757,1.09186,0.0022491,-0.0020727,0.236385,1,0.000471113,1.2,0.0106542,-0.0982107,0.0319382,-3.69962e-06,0.0157059,0,-0.0923787,-0.0250319,0.0349286,0.415025,0.945884,0.118788
3.11266,0.0851885,-0.214907,1.09253,0.00210388,-0.00204459,0.241329,1,0.00130888,1.2,0.00908639,-0.0985625,0.030083,-1.71325e-05,0.0261788,0,-0.0959433,-0.0285954,0.0346223,0.414925,0.946139,0.12864
3.14493,0.0859784,-0.218882,1.09326,0.0021006,-0.00207566,0.243934,0.999999,0.0018847,1.2,0.00878026,-0.0959065,0.0305453,-2.96028e-05,0.0314138,0,-0.0978674,-0.0305114,0.0337247,0.412831,0.946343,0.131229
3.18073,0.0869198,-0.223699,1.09421,0.00204821,-0.00219732,0.249642,0.999997,0.00335084,1.2,0.00778644,-0.0955974,0.0316334,-7.01779e-05,0.0418867,0,-0.099187,-0.0354532,0.0358999,0.411452,0.946812,0.141295
3.21266,0.0876147,-0.227441,1.095,0.00220118,-0.00186481,0.254409,0.999993,0.0052358,1.2,0.00738583,-0.0944266,0.0308035,-0.00013707,0.0523588,0,-0.102078,-0.0406716,0.0358592,0.412105,0.947416,0.150171
3.2445,0.0882523,-0.231111,1.09586,0.00204768,-0.00188116,0.257022,0.99999,0.00633522,1.2,0.0066274,-0.0956047,0.0317562,-0.000182437,0.0575941,0,-0.104652,-0.0435189,0.0354395,0.409187,0.947888,0.156604
3.28109,0.089603,-0.236233,1.09671,0.00171236,-0.00195878,0.26261,0.99998,0.00884821,1.2,0.00427254,-0.0943398,0.0323327,-0.00030113,0.068065,0,-0.106821,-0.0510089,0.0359825,0.412355,0.948431,0.165655
3.31347,0.0905812,-0.239486,1.09714,0.00180468,-0.00231407,0.268383,0.999965,0.0117791,1.2,0.00168112,-0.0960147,0.0306019,-0.000462526,0.0785323,0,-0.111354,-0.060246,0.0352356,0.415396,0.949049,0.177222
3.3452,0.0918053,-0.243683,1.09769,0.00149048,-0.00221795,0.271321,0.999955,0.0134035,1.2,0.00236942,-0.0970834,0.0292027,-0.000561435,0.0837723,0,-0.115471,-0.0647212,0.0342159,0.415571,0.949367,0.183222
3.38094,0.0932188,-0.248701,1.09842,0.00126824,-0.00188622,0.277344,0.999928,0.0169639,1.2,0.00257408,-0.0950482,0.0282261,-0.000799394,0.094243,0,-0.122164,-0.0755476,0.0352168,0.416635,0.950273,0.191414
3.41279,0.0942323,-0.252573,1.09903,0.00093345,-0.00165928,0.284126,0.99989,0.0209432,1.2,0.00129102,-0.0945829,0.0285678,-0.00109658,0.104713,0,-0.128555,-0.0872229,0.0367852,0.419438,0.951432,0.201347
3.44467,0.0951778,-0.256304,1.0997,0.000799712,-0.00176387,0.2867,0.999867,0.0230895,1.2,0.00106387,-0.0929903,0.029367,-0.0012694,0.109947,0,-0.132308,-0.093227,0.0359539,0.419592,0.952146,0.205064
3.48048,0.0960401,-0.25995,1.10049,0.000271501,-0.00169073,0.293423,0.999808,0.0276966,1.2,0.000440265,-0.0925127,0.0299839,-0.00166769,0.120414,0,-0.137629,-0.10726,0.038757,0.421472,0.953645,0.215038
3.51235,0.0968151,-0.263472,1.10141,-9.7348e-05,-0.00139884,0.300505,0.999732,0.0327225,1.2,0.000458936,-0.0925236,0.0326163,-0.00214165,0.13088,0,-0.142779,-0.12249,0.0399836,0.421017,0.955359,0.225787
3.54423,0.0975035,-0.26687,1.10248,-0.000387988,-0.00160977,0.305162,0.999687,0.0353934,1.2,-0.00058116,-0.0905514,0.0364563,-0.00240915,0.136114,0,-0.144744,-0.130803,0.0392516,0.417815,0.956456,0.229586
3.5803,0.0982854,-0.270979,1.10403,-0.00125991,-0.00131597,0.312656,0.999579,0.0410462,1.2,-0.00230693,-0.08912,0.0406472,-0.0030088,0.146575,0,-0.144104,-0.144908,0.0435365,0.42085,0.958592,0.239175
3.61216,0.0988688,-0.274159,1.10538,-0.00129299,-0.000910323,0.320423,0.999445,0.0471342,1.2,-0.00112949,-0.0874166,0.0452072,-0.00370249,0.157061,0,-0.146699,-0.15951,0.0456085,0.416683,0.960843,0.248635
3.64418,0.0993978,-0.277214,1.10681,-0.00127938,-0.000661413,0.323698,0.999367,0.0503114,1.2,-0.00226319,-0.0861362,0.0464058,-0.00408312,0.162262,0,-0.146867,-0.166955,0.0451462,0.414614,0.962238,0.252703
3.68045,0.101222,-0.281641,1.10864,-0.00148066,-0.000493064,0.332151,0.999187,0.0570109,1.2,-0.000695951,-0.0837182,0.0489149,-0.00492533,0.172715,0,-0.143893,-0.179418,0.0488077,0.412062,0.964039,0.261091
3.71217,0.10265,-0.284487,1.10974,-0.00191834,-0.000229462,0.341137,0.998972,0.0641291,1.2,-0.00360654,-0.0800758,0.051766,-0.0058761,0.183164,0,-0.138044,-0.192119,0.0529531,0.417605,0.965956,0.268291
3.7441,0.104802,-0.289029,1.1116,-0.00238079,-7.91448e-05,0.345744,0.998849,0.0678442,1.2,-0.00386308,-0.0797476,0.0526787,-0.00639411,0.188385,0,-0.136184,-0.200447,0.050969,0.411764,0.966692,0.273271
3.78001,0.10634,-0.292468,1.1131,-0.00242103,0.000235332,0.355629,0.998571,0.0755876,1.2,-0.00417234,-0.0780785,0.0516174,-0.00751964,0.198823,0,-0.13101,-0.212666,0.0538989,0.413106,0.969069,0.281691
3.81188,0.107757,-0.295728,1.11472,-0.00276741,0.000516404,0.365649,0.998245,0.0837611,1.2,-0.00426193,-0.0762847,0.0525491,-0.00877196,0.209268,0,-0.123051,-0.225049,0.0538568,0.414265,0.971728,0.290383
3.84382,0.109078,-0.298828,1.11633,-0.0029853,0.000775418,0.370821,0.998064,0.0879876,1.2,-0.00358448,-0.0739809,0.0521492,-0.00944434,0.214466,0,-0.119932,-0.231682,0.0513101,0.411365,0.973099,0.293182
3.87987,0.110214,-0.30174,1.11804,-0.00305554,0.00110557,0.38207,0.997657,0.0967737,1.2,-0.00377689,-0.0716582,0.0533589,-0.0108941,0.224882,0,-0.114603,-0.241194,0.0526193,0.411906,0.976261,0.301386
3.91175,0.111161,-0.304512,1.11975,-0.00352738,0.00129329,0.393412,0.99719,0.105978,1.2,-0.00633233,-0.0686206,0.0538548,-0.0124851,0.235287,0,-0.104375,-0.251418,0.0531929,0.419808,0.979791,0.308703
3.94369,0.112025,-0.307113,1.12143,-0.00388371,0.00148314,0.399131,0.996932,0.110731,1.2,-0.00754411,-0.0663046,0.0539849,-0.0133348,0.24048,0,-0.101463,-0.258532,0.047503,0.413557,0.981747,0.311552
3.97957,0.112949,-0.310152,1.1236,-0.00444591,0.00228921,0.412471,0.996363,0.120562,1.2,-0.00778826,-0.063921,0.0549697,-0.0151502,0.250868,0,-0.0906874,-0.265826,0.0466308,0.41706,0.985785,0.319638
4.01358,0.113566,-0.312411,1.12537,-0.00481858,0.00276435,0.423333,0.995718,0.130805,1.2,-0.0090983,-0.0597558,0.0571424,-0.0171223,0.261238,0,-0.0800395,-0.271474,0.0452581,0.4232,0.990051,0.326139
4.04543,0.114113,-0.31453,1.12723,-0.00494078,0.00329175,0.429644,0.994991,0.141462,1.2,-0.00888768,-0.0579909,0.0613431,-0.0181691,0.266415,0,-0.0763756,-0.276408,0.0383726,0.412614,0.99457,0.330285
4.08113,0.115332,-0.316776,1.12881,-0.00520075,0.00464023,0.442752,0.994594,0.146946,1.2,-0.0101884,-0.0542619,0.0638142,-0.0203893,0.276757,0,-0.0637987,-0.28206,0.038301,0.415227,0.996598,0.337268
4.11294,0.1172,-0.319137,1.13016,-0.00547523,0.00571814,0.455957,0.993732,0.158223,1.2,-0.00829963,-0.0508389,0.0639133,-0.0227825,0.287077,0,-0.0561087,-0.287908,0.033205,0.412002,1.00053,0.344211
4.14484,0.118907,-0.321302,1.13156,-0.00554394,0.0064117,0.462784,0.993264,0.164014,1.2,-0.00749352,-0.0479922,0.0639357,-0.0240455,0.292226,0,-0.0522513,-0.289369,0.0311058,0.415268,1.00235,0.346569
4.18064,0.120843,-0.323713,1.13348,-0.00546668,0.00754842,0.477697,0.992249,0.175909,1.2,-0.00564077,-0.0442274,0.0645208,-0.0267105,0.302509,0,-0.0466472,-0.295773,0.0285464,0.408509,1.00668,0.353317
4.21254,0.122246,-0.325409,1.13513,-0.00574657,0.00841608,0.490638,0.991124,0.188214,1.2,-0.00559689,-0.0392047,0.0666462,-0.0295644,0.312763,0,-0.0384772,-0.300657,0.0257768,0.411743,1.01142,0.359023
4.24454,0.123556,-0.326935,1.13684,-0.00577127,0.00878544,0.498885,0.990518,0.194523,1.2,-0.00322306,-0.0359177,0.0660921,-0.0310648,0.317881,0,-0.0343787,-0.302182,0.022694,0.413245,1.01367,0.360994
4.28041,0.12481,-0.328296,1.13852,-0.00546077,0.00923947,0.511301,0.989189,0.207668,1.2,-0.00218095,-0.0322865,0.0645704,-0.0342701,0.328263,0,-0.0281934,-0.307399,0.019915,0.410372,1.01892,0.367689
4.31234,0.125987,-0.329471,1.1402,-0.00566707,0.00977782,0.525481,0.987778,0.220767,1.2,-0.000532507,-0.0289117,0.0625158,-0.0375675,0.338257,0,-0.0203634,-0.312914,0.0148008,0.415747,1.02422,0.37429
4.3445,0.127125,-0.330445,1.14185,-0.00568176,0.0104836,0.534177,0.987009,0.227585,1.2,0.00157082,-0.0244184,0.0603803,-0.0393237,0.34333,0,-0.0173857,-0.31458,0.011144,0.41993,1.02673,0.374909
4.38108,0.128454,-0.331434,1.14401,-0.00571237,0.0114041,0.548575,0.985364,0.241519,1.2,0.00236088,-0.0196678,0.0611969,-0.0429958,0.35344,0,-0.010727,-0.319586,0.00888663,0.415896,1.03233,0.380804
4.41231,0.129465,-0.332004,1.14578,-0.00595539,0.0120952,0.561839,0.983566,0.255859,1.2,0.00349627,-0.0157115,0.0622718,-0.0468886,0.363507,0,-0.00144592,-0.323833,0.00408306,0.4213,1.03827,0.387586
4.44422,0.130467,-0.332375,1.14758,-0.00589594,0.0123269,0.56923,0.982609,0.263173,1.2,0.0054952,-0.00949275,0.0641674,-0.0489172,0.368517,0,0.00217051,-0.325288,-0.000367068,0.42264,1.04095,0.387259
4.4801,0.131684,-0.333348,1.14975,-0.00571258,0.0128393,0.584081,0.980568,0.27812,1.2,0.00666502,-0.00510207,0.0668016,-0.0531524,0.378512,0,0.00737912,-0.330493,-0.00403457,0.417098,1.04739,0.393955
4.51245,0.133064,-0.334847,1.15228,-0.00600716,0.0135555,0.599159,0.978354,0.293457,1.2,0.00705787,8.55815e-05,0.0698029,-0.0576199,0.388446,0,0.0169263,-0.335078,-0.00987757,0.423863,1.0543,0.39985
4.54456,0.134764,-0.336307,1.15549,-0.00617111,0.0137803,0.60815,0.977177,0.30128,1.2,0.00864087,0.00290519,0.0728384,-0.0599451,0.393395,0,0.0200809,-0.336991,-0.0157331,0.422979,1.05743,0.403102
4.58015,0.136187,-0.337181,1.15817,-0.00635427,0.0142697,0.621761,0.974684,0.31721,1.2,0.0139693,0.00834065,0.0754352,-0.0647752,0.403236,0,0.0251259,-0.34275,-0.0206031,0.41438,1.06445,0.409675
4.61266,0.137583,-0.337775,1.16101,-0.00641179,0.0157069,0.637088,0.971992,0.333535,1.2,0.0176172,0.0119005,0.0804258,-0.0698553,0.413012,0,0.034738,-0.349468,-0.0263528,0.421521,1.07164,0.418342
4.64446,0.13891,-0.33814,1.16388,-0.00663016,0.0158907,0.644907,0.970569,0.341845,1.2,0.018225,0.0167564,0.0837784,-0.0724908,0.417873,0,0.0401962,-0.351851,-0.0312393,0.422577,1.07487,0.419694
4.68027,0.140171,-0.33827,1.16684,-0.00696589,0.0166461,0.660555,0.967561,0.358752,1.2,0.0182522,0.0201622,0.0866631,-0.0779542,0.427537,0,0.0487988,-0.359385,-0.0335605,0.422687,1.08236,0.427458
4.71227,0.141398,-0.338159,1.16995,-0.00731194,0.0179096,0.6761,0.964329,0.376046,1.2,0.0181464,0.0252379,0.0919904,-0.083681,0.43712,0,0.0625434,-0.366034,-0.0417627,0.428165,1.09005,0.43414
4.74425,0.142664,-0.337839,1.17307,-0.0077805,0.0185885,0.685822,0.962626,0.384836,1.2,0.0205084,0.0289231,0.0940108,-0.0866445,0.441879,0,0.0707013,-0.366869,-0.0465402,0.432961,1.09331,0.436866
4.78136,0.144237,-0.337107,1.17715,-0.00863041,0.0201849,0.701786,0.959039,0.402699,1.2,0.0229153,0.0336196,0.0968791,-0.0927748,0.451328,0,0.0789859,-0.371566,-0.052407,0.426683,1.10079,0.444128
4.81332,0.145447,-0.336293,1.18066,-0.00890837,0.0219334,0.716373,0.9552,0.420943,1.2,0.0240063,0.0395772,0.106001,-0.0991823,0.460683,0,0.0934833,-0.374194,-0.0576022,0.429621,1.10882,0.451377
4.84505,0.146696,-0.33527,1.18439,-0.00895394,0.0229797,0.724364,0.953184,0.430201,1.2,0.0252123,0.0424563,0.11198,-0.10249,0.46532,0,0.103021,-0.377146,-0.0641794,0.428115,1.11203,0.455699
4.88089,0.149502,-0.334746,1.18796,-0.00923771,0.025528,0.740632,0.948949,0.448997,1.2,0.0281536,0.0475877,0.11755,-0.109318,0.474515,0,0.107782,-0.380147,-0.0699702,0.425555,1.1196,0.463663
4.91269,0.153679,-0.334572,1.19141,-0.00985744,0.0277227,0.756719,0.944434,0.468161,1.2,0.0337734,0.0552252,0.121571,-0.116436,0.483598,0,0.122174,-0.385858,-0.0715594,0.423324,1.12683,0.469942
4.94508,0.157758,-0.334005,1.19498,-0.0101011,0.0283898,0.764778,0.942069,0.477877,1.2,0.0367604,0.0617264,0.124577,-0.120103,0.488094,0,0.1349,-0.389594,-0.0745782,0.42134,1.12886,0.471078
4.98088,0.162759,-0.33268,1.19965,-0.0107116,0.0302102,0.783107,0.937115,0.497581,1.2,0.04316,0.0701911,0.126258,-0.127661,0.496992,0,0.125776,-0.394341,-0.0784218,0.410082,1.13532,0.476739
5.01278,0.16668,-0.3312,1.20355,-0.0112064,0.0318695,0.798441,0.931852,0.517635,1.2,0.0496625,0.0799901,0.131235,-0.135516,0.505756,0,0.138547,-0.402894,-0.0781813,0.408022,1.14281,0.482484
5.04469,0.170536,-0.329353,1.20755,-0.0114633,0.0328355,0.807043,0.929101,0.527795,1.2,0.0543746,0.0869737,0.133394,-0.139558,0.510087,0,0.150265,-0.408427,-0.081897,0.403145,1.14463,0.484179
5.08062,0.174295,-0.327179,1.21039,-0.0122714,0.0336722,0.824467,0.923354,0.548369,1.2,0.0574323,0.0943285,0.125431,-0.147869,0.518638,0,0.144298,-0.416233,-0.0852041,0.397732,1.15229,0.48777
5.11244,0.177983,-0.324692,1.21057,-0.0128558,0.034018,0.841653,0.917267,0.569287,1.2,0.0610131,0.101219,0.0577202,-0.156491,0.527037,0,0.158333,-0.422434,-0.0865186,0.454938,1.16011,0.481623
5.14483,0.181563,-0.321919,1.20764,-0.0132591,0.0341428,0.850224,0.914095,0.579864,1.2,0.0636288,0.107821,-0.0360886,-0.160916,0.531173,0,0.174631,-0.424764,-0.0822135,0.52529,1.16184,0.480572
5.18068,0.185925,-0.318022,1.19986,-0.0142498,0.0348357,0.867434,0.907477,0.601276,1.2,0.064779,0.113876,-0.132002,-0.170006,0.539325,0,0.174311,-0.428295,-0.0895604,0.620897,1.16865,0.503543
5.21346,0.189316,-0.314582,1.19107,-0.0153976,0.0355725,0.884845,0.90049,0.623008,1.2,0.0663402,0.122122,-0.238331,-0.179413,0.5473,0,0.214052,-0.438382,-0.0886572,0.724503,1.17683,0.545869
5.24554,0.192692,-0.310777,1.18085,-0.0160351,0.0358795,0.893664,0.893119,0.645059,1.2,0.0685495,0.130548,-0.29265,-0.189141,0.555091,0,0.228466,-0.443509,-0.0914926,0.764413,1.18515,0.576442
5.285,0.196844,-0.307391,1.17059,-0.017029,0.037938,0.9112,0.889287,0.656198,1.2,0.0727488,0.139238,-0.328182,-0.194125,0.558913,0,0.23583,-0.440723,-0.0876832,0.826338,1.18695,0.595862
5.31295,0.20167,-0.30429,1.16086,-0.017766,0.0403302,0.92926,0.881319,0.678704,1.2,0.0746712,0.147746,-0.342464,-0.204336,0.566406,0,0.271163,-0.438967,-0.0849879,0.870565,1.19571,0.608608
5.34484,0.206347,-0.300665,1.15146,-0.0179021,0.0416255,0.938509,0.87718,0.69007,1.2,0.0771207,0.157727,-0.335458,-0.209565,0.570075,0,0.298147,-0.442797,-0.0877995,0.880275,1.19747,0.603946
5.38076,0.212004,-0.295385,1.14075,-0.0180497,0.0444573,0.956708,0.868584,0.713016,1.2,0.0793331,0.169061,-0.315991,-0.220267,0.577248,0,0.304342,-0.439639,-0.0729231,0.901358,1.20477,0.596847
5.41277,0.2164,-0.290463,1.13324,-0.0177151,0.0483018,0.97508,0.859554,0.736247,1.2,0.08226,0.185866,-0.277599,-0.231299,0.584195,0,0.343307,-0.44979,-0.0709573,0.902127,1.21336,0.577967
5.4445,0.220748,-0.28496,1.12686,-0.0174847,0.0499146,0.984375,0.854882,0.74794,1.2,0.0846243,0.200937,-0.240797,-0.236926,0.587573,0,0.385645,-0.449884,-0.0703259,0.900746,1.21423,0.557553
5.48048,0.225119,-0.278839,1.12173,-0.0165548,0.0538737,1.00327,0.845165,0.771599,1.2,0.0891574,0.214918,-0.200767,-0.248465,0.594166,0,0.413363,-0.452479,-0.0602385,0.898563,1.22229,0.546008
5.51239,0.229458,-0.272128,1.11783,-0.0156928,0.0585961,1.02238,0.834991,0.795493,1.2,0.0941836,0.231456,-0.158435,-0.260324,0.600498,0,0.457954,-0.457005,-0.0498973,0.894854,1.23014,0.535695
5.54438,0.233838,-0.264798,1.11526,-0.0151982,0.0609543,1.03194,0.829724,0.807534,1.2,0.0973189,0.246334,-0.117662,-0.266378,0.603564,0,0.497938,-0.454354,-0.0432101,0.887498,1.2297,0.523196
5.58031,0.239395,-0.254737,1.11383,-0.0143051,0.0655428,1.05167,0.818822,0.831798,1.2,0.103976,0.263258,-0.0765685,-0.278738,0.609492,0,0.505882,-0.457891,-0.0435089,0.884636,1.23439,0.521738
5.61221,0.243901,-0.245898,1.11407,-0.0131053,0.0702188,1.0715,0.80742,0.85629,1.2,0.109966,0.285558,-0.0262829,-0.291429,0.615135,0,0.513134,-0.463797,-0.0516607,0.881431,1.24087,0.520028
5.64502,0.248492,-0.236322,1.11548,-0.0125822,0.0725296,1.08146,0.801528,0.868618,1.2,0.114793,0.305378,0.0123969,-0.297898,0.617845,0,0.527206,-0.464593,-0.0558325,0.879047,1.2385,0.517787
5.68088,0.253761,-0.226869,1.11716,-0.0117921,0.0760263,1.10153,0.789349,0.893438,1.2,0.121426,0.327315,0.0496614,-0.311088,0.623038,0,0.508696,-0.464211,-0.0742248,0.851265,1.24451,0.526295
5.71329,0.259596,-0.21744,1.11917,-0.0107542,0.0777519,1.12212,0.776635,0.91846,1.2,0.126986,0.347709,0.0859133,-0.32461,0.627914,0,0.519182,-0.456319,-0.070864,0.835773,1.25065,0.538363
5.74509,0.265434,-0.207163,1.12216,-0.0100953,0.0777297,1.13237,0.770075,0.931039,1.2,0.132508,0.367912,0.117754,-0.331493,0.630229,0,0.536294,-0.453445,-0.0745035,0.835082,1.24749,0.545869
5.78093,0.272795,-0.193171,1.12698,-0.00918499,0.0767425,1.15297,0.756535,0.956338,1.2,0.137215,0.388676,0.142809,-0.345508,0.634606,0,0.530703,-0.452627,-0.0838491,0.798278,1.24928,0.560265
5.81291,0.278717,-0.181192,1.13159,-0.00887403,0.0756524,1.17363,0.742429,0.981804,1.2,0.146372,0.4113,0.167547,-0.359849,0.638633,0,0.547175,-0.446268,-0.075719,0.784574,1.2539,0.579666
5.84485,0.284631,-0.168528,1.13657,-0.00856776,0.0745774,1.18388,0.73516,0.994595,1.2,0.148869,0.428829,0.181895,-0.367141,0.640511,0,0.560612,-0.441852,-0.0724721,0.789697,1.24894,0.586652
5.88069,0.290535,-0.15518,1.14185,-0.00851368,0.072031,1.20427,0.720179,1.02029,1.2,0.15221,0.445715,0.189924,-0.381967,0.643987,0,0.565025,-0.436864,-0.0673305,0.754553,1.25287,0.600606
5.91253,0.296436,-0.141182,1.14716,-0.00875951,0.0697432,1.22463,0.704598,1.04611,1.2,0.156207,0.462852,0.193484,-0.397112,0.64708,0,0.587701,-0.429117,-0.0545794,0.74837,1.2566,0.614441
5.94448,0.302296,-0.126599,1.15247,-0.00917627,0.0680758,1.23473,0.696578,1.05907,1.2,0.158052,0.479256,0.193484,-0.404804,0.648478,0,0.603574,-0.427701,-0.0504363,0.762825,1.25041,0.618772
5.98036,0.309595,-0.107552,1.15887,-0.00960513,0.0648305,1.25495,0.680075,1.08506,1.2,0.159665,0.492711,0.188246,-0.420419,0.650966,0,0.609567,-0.423923,-0.0425493,0.73445,1.2495,0.630062
6.01238,0.315444,-0.0916563,1.16388,-0.0112391,0.0620822,1.27658,0.662942,1.11114,1.2,0.163248,0.513025,0.181805,-0.436341,0.653034,0,0.617022,-0.416332,-0.0222404,0.716432,1.25251,0.641999
6.04437,0.321194,-0.0753003,1.1687,-0.0118372,0.0608429,1.28428,0.654163,1.12416,1.2,0.164392,0.526639,0.175606,-0.441458,0.649588,0,0.623301,-0.414289,-0.0138309,0.721263,1.24522,0.642657
6.08014,0.327574,-0.0588758,1.17273,-0.0132112,0.0575831,1.30371,0.636301,1.15001,1.2,0.162654,0.537204,0.165583,-0.451607,0.642574,0,0.620658,-0.409188,-0.00314513,0.682614,1.24798,0.644855
6.11219,0.336148,-0.0381704,1.17664,-0.0147371,0.0538166,1.32285,0.618036,1.17557,1.2,0.159999,0.547437,0.151462,-0.461645,0.635401,0,0.624601,-0.403656,0.0196115,0.680627,1.24626,0.645848
6.14415,0.341078,-0.0254618,1.17856,-0.0156607,0.0513061,1.33439,0.608754,1.18824,1.2,0.155533,0.558783,0.128096,-0.46662,0.631756,0,0.631278,-0.407115,0.0241682,0.702665,1.24305,0.639381
6.18007,0.349011,-0.0038852,1.18091,-0.0173257,0.0470765,1.35311,0.589891,1.21336,1.2,0.154155,0.564169,0.1107,-0.476486,0.624349,0,0.6303,-0.409875,0.0330842,0.689153,1.241,0.643104
6.21211,0.355059,0.0136536,1.1821,-0.019257,0.0444592,1.37014,0.570636,1.23818,1.2,0.150762,0.571707,0.0800889,-0.486234,0.616787,0,0.639326,-0.412733,0.0457839,0.71475,1.24349,0.643592
6.24457,0.360767,0.0314574,1.18271,-0.0203115,0.0429319,1.37954,0.560862,1.25048,1.2,0.145078,0.575426,0.0590286,-0.491064,0.612949,0,0.647159,-0.416165,0.0453538,0.738247,1.23546,0.639975
6.28071,0.366157,0.0495079,1.18286,-0.0219873,0.0406962,1.39834,0.541029,1.27484,1.2,0.139221,0.581723,0.0387284,-0.50063,0.605161,0,0.654393,-0.42324,0.0449183,0.746426,1.23787,0.641451
6.31314,0.371196,0.0678272,1.1828,-0.0240261,0.0398897,1.41723,0.520814,1.29889,1.2,0.131482,0.587148,0.0248303,-0.510074,0.597222,0,0.663276,-0.429306,0.0456562,0.758208,1.24024,0.642116
6.34467,0.375854,0.0864152,1.18265,-0.0253494,0.0393731,1.4285,0.510566,1.3108,1.2,0.123205,0.593245,0.0169878,-0.514749,0.593198,0,0.673148,-0.432661,0.0422283,0.776887,1.23189,0.63818
6.38127,0.381115,0.110013,1.1824,-0.0271224,0.0393075,1.44593,0.48979,1.33436,1.2,0.113882,0.599665,0.0124101,-0.524003,0.585039,0,0.672984,-0.437556,0.0400773,0.770985,1.22929,0.638174
6.41324,0.384893,0.129157,1.18231,-0.0294016,0.0407637,1.46771,0.468647,1.3576,1.2,0.102666,0.60712,0.0116502,-0.533128,0.576736,0,0.669468,-0.439318,0.0353102,0.753002,1.23142,0.636626
6.4453,0.388308,0.148527,1.18231,-0.0299768,0.0413965,1.47552,0.457941,1.36909,1.2,0.0925228,0.611923,0.0147923,-0.537641,0.572532,0,0.672401,-0.43989,0.0331699,0.757924,1.22268,0.631567
6.48134,0.392538,0.168544,1.18219,-0.0310958,0.0422778,1.49526,0.436253,1.39183,1.2,0.0837525,0.617835,0.0141651,-0.546568,0.564015,0,0.655873,-0.447257,0.0303364,0.734242,1.22419,0.632773
6.51326,0.39746,0.189078,1.18192,-0.0319968,0.042286,1.51534,0.414218,1.41421,1.2,0.0734481,0.623185,0.00997807,-0.555359,0.555362,0,0.645897,-0.451647,0.0266908,0.727368,1.22538,0.632533
6.54507,0.401837,0.209735,1.1814,-0.0322545,0.0418328,1.52766,0.403068,1.42527,1.2,0.0653753,0.627456,0.00342942,-0.559703,0.550983,0,0.652212,-0.452779,0.0238478,0.738623,1.21568,0.629748
6.58087,0.406565,0.235706,1.18042,-0.0328041,0.0404188,1.54779,0.380505,1.44714,1.2,0.056462,0.632052,-0.0060918,-0.56829,0.542123,0,0.640362,-0.461237,0.0152504,0.723257,1.21187,0.63122
6.61299,0.409779,0.256627,1.17938,-0.0336555,0.0391688,1.56855,0.357606,1.46864,1.2,0.0446368,0.637803,-0.0174774,-0.576734,0.53313,0,0.635909,-0.46656,0.0132821,0.717818,1.21331,0.630368
6.64502,0.412452,0.277605,1.17804,-0.0339813,0.0383553,1.57681,0.346029,1.47926,1.2,0.0339139,0.6413,-0.0276427,-0.580903,0.528584,0,0.647517,-0.467,0.0143805,0.739863,1.20369,0.625675
6.68133,0.414627,0.298666,1.17624,-0.0345663,0.0358185,1.59795,0.322628,1.50022,1.2,0.022769,0.643488,-0.0384143,-0.589134,0.519395,0,0.638979,-0.477326,0.00826782,0.720216,1.2053,0.62554
6.7132,0.41627,0.319815,1.17416,-0.0351485,0.0333826,1.61917,0.298901,1.52081,1.2,0.010845,0.648108,-0.0501026,-0.59722,0.510077,0,0.652324,-0.478308,0.00659137,0.739869,1.20699,0.625544
6.74506,0.417436,0.341007,1.17184,-0.0351476,0.0321603,1.63018,0.286915,1.53096,1.2,-0.000437393,0.650642,-0.060188,-0.601208,0.50537,0,0.664233,-0.477159,0.000948466,0.757419,1.19742,0.621009
6.78093,0.418226,0.367529,1.16864,-0.0358813,0.029971,1.65428,0.262711,1.55099,1.2,-0.010488,0.652094,-0.070275,-0.609071,0.495865,0,0.667873,-0.478933,-0.00885843,0.751703,1.19404,0.622614
6.81285,0.418253,0.388697,1.16589,-0.0365718,0.0289444,1.67414,0.238192,1.57063,1.2,-0.025236,0.652038,-0.0794123,-0.616785,0.486237,0,0.678969,-0.474083,-0.00843155,0.767805,1.19606,0.619457
6.84465,0.417745,0.409835,1.16309,-0.0367648,0.0286671,1.6853,0.225819,1.58031,1.2,-0.0388677,0.651322,-0.0822116,-0.620585,0.481378,0,0.688067,-0.471514,-0.0123377,0.78069,1.18668,0.611584
6.88064,0.417826,0.431942,1.16006,-0.0371572,0.0286493,1.70769,0.200846,1.59937,1.2,-0.0516,0.649994,-0.0835652,-0.628069,0.471571,0,0.681927,-0.469921,-0.00853075,0.770517,1.18809,0.609208
6.91321,0.418532,0.460601,1.15616,-0.0372693,0.0286661,1.73011,0.175575,1.61803,1.2,-0.0618587,0.648215,-0.0812209,-0.635399,0.461647,0,0.686402,-0.46126,-0.00531435,0.778981,1.18347,0.608566
6.94509,0.418505,0.477649,1.15396,-0.0372527,0.0284627,1.74123,0.162831,1.62721,1.2,-0.0731451,0.646111,-0.0776299,-0.639005,0.456643,0,0.692208,-0.45872,-0.0065314,0.787972,1.17855,0.601766
6.98083,0.417723,0.505796,1.15057,-0.03744,0.0281574,1.76392,0.137129,1.64528,1.2,-0.0819547,0.646472,-0.0757775,-0.646099,0.44655,0,0.676372,-0.45999,-0.00691853,0.765626,1.17456,0.603299
7.01334,0.416456,0.528079,1.14804,-0.0376658,0.0281916,1.787,0.111144,1.66294,1.2,-0.0955174,0.643275,-0.0684271,-0.653034,0.436345,0,0.68037,-0.457998,-0.00445068,0.771716,1.17636,0.598604
7.04537,0.414616,0.550211,1.1456,-0.0376822,0.0281491,1.7986,0.0980398,1.67162,1.2,-0.108083,0.64238,-0.0658463,-0.656443,0.431199,0,0.682492,-0.458505,-0.00527733,0.775876,1.16651,0.591296
7.08119,0.412217,0.572174,1.14322,-0.0376656,0.0278868,1.8216,0.0716573,1.68865,1.2,-0.119857,0.642002,-0.0634742,-0.663133,0.420839,0,0.663218,-0.462181,-0.00419404,0.750234,1.16864,0.589993
7.11304,0.409255,0.593913,1.14081,-0.0377082,0.027184,1.84507,0.0450006,1.70528,1.2,-0.131659,0.638756,-0.0614882,-0.669661,0.410371,0,0.665971,-0.458367,0.00224621,0.762751,1.17103,0.587696
7.14501,0.405769,0.61543,1.13849,-0.0375568,0.0259902,1.85904,0.0315716,1.71344,1.2,-0.144595,0.635327,-0.0600447,-0.672864,0.405097,0,0.669638,-0.456255,0.0011201,0.770543,1.16165,0.579379
7.18217,0.400669,0.642014,1.13556,-0.0373864,0.0247481,1.87972,0.00453638,1.72942,1.2,-0.155839,0.631666,-0.0630401,-0.679143,0.394481,0,0.658113,-0.453593,0.00421254,0.760941,1.15911,0.577995
7.21275,0.39601,0.663029,1.13327,-0.0373987,0.0242235,1.9035,-0.0227545,1.74499,1.2,-0.17161,0.627263,-0.0629583,-0.685256,0.383763,0,0.659149,-0.446679,0.0076214,0.77134,1.16209,0.571917
7.24474,0.390867,0.683816,1.13104,-0.0373048,0.0238042,1.91539,-0.0364969,1.75262,1.2,-0.184273,0.621704,-0.0630713,-0.688251,0.378367,0,0.66052,-0.44336,0.00556172,0.777603,1.15314,0.563191
7.2806,0.38669,0.705568,1.12869,-0.0371006,0.0229435,1.93895,-0.0641337,1.76753,1.2,-0.194538,0.617531,-0.0620913,-0.694107,0.367514,0,0.651291,-0.437263,0.0123761,0.768517,1.15589,0.562079
7.31252,0.38331,0.728141,1.12631,-0.0370233,0.0226415,1.9624,-0.092015,1.78201,1.2,-0.204479,0.612658,-0.0585406,-0.699794,0.356565,0,0.6564,-0.428403,0.0140775,0.779853,1.15845,0.560668
7.34449,0.379272,0.750322,1.12405,-0.0369405,0.0221145,1.97626,-0.106039,1.78909,1.2,-0.21517,0.608344,-0.057134,-0.702573,0.351057,0,0.659777,-0.424552,0.0101006,0.787556,1.14906,0.554096
7.38041,0.373415,0.77752,1.12137,-0.0363248,0.0218712,1.99948,-0.13425,1.80291,1.2,-0.224852,0.60453,-0.0553265,-0.708,0.339979,0,0.649076,-0.422727,0.0121736,0.773124,1.14688,0.553607
7.41234,0.368132,0.798827,1.11948,-0.0359892,0.0218188,2.02042,-0.162676,1.81628,1.2,-0.236267,0.597684,-0.0487805,-0.713253,0.328816,0,0.652373,-0.419077,0.0125102,0.780244,1.15042,0.549714
7.44453,0.362354,0.819769,1.11777,-0.0358051,0.0217109,2.03216,-0.176981,1.82281,1.2,-0.244583,0.592775,-0.044502,-0.715816,0.323199,0,0.654892,-0.417297,0.00945196,0.785699,1.14181,0.544713
7.48045,0.356099,0.840346,1.11624,-0.035373,0.021498,2.05526,-0.205699,1.83551,1.2,-0.253137,0.585971,-0.0411845,-0.720802,0.311921,0,0.647186,-0.418804,0.011558,0.77507,1.14585,0.543609
7.51238,0.349353,0.860564,1.1149,-0.0351748,0.0213109,2.07817,-0.23463,1.84776,1.2,-0.262009,0.580469,-0.0358067,-0.725613,0.30056,0,0.653103,-0.418008,0.0118249,0.785531,1.15014,0.542733
7.54443,0.342071,0.880454,1.11368,-0.0351627,0.0212014,2.08952,-0.249166,1.85371,1.2,-0.27172,0.573409,-0.0320756,-0.727951,0.294852,0,0.65653,-0.417247,0.0077912,0.791957,1.14204,0.535509
7.58045,0.332279,0.904805,1.11237,-0.035463,0.0215845,2.1121,-0.278375,1.86528,1.2,-0.284445,0.567929,-0.0287585,-0.732492,0.283382,0,0.650091,-0.421428,0.0127248,0.780183,1.14153,0.531546
7.61243,0.323947,0.923901,1.11166,-0.0357726,0.0223034,2.13491,-0.307763,1.87638,1.2,-0.295528,0.55867,-0.0202361,-0.736853,0.271841,0,0.653167,-0.421169,0.0164961,0.783208,1.14633,0.526734
7.64447,0.315167,0.94263,1.11115,-0.0359445,0.0225415,2.14655,-0.322519,1.88176,1.2,-0.305434,0.552393,-0.011512,-0.738965,0.266046,0,0.656794,-0.419567,0.0131203,0.78827,1.13864,0.519689
7.68098,0.306518,0.962591,1.11044,-0.0358533,0.0234492,2.16947,-0.352162,1.89217,1.2,-0.314129,0.542792,-0.00462337,-0.743053,0.254405,0,0.648424,-0.420636,0.0199866,0.769353,1.1428,0.516879
7.71391,0.297986,0.983669,1.10962,-0.0356031,0.0239065,2.19221,-0.381961,1.90211,1.2,-0.323209,0.536101,0.00148547,-0.746957,0.242703,0,0.653443,-0.415543,0.0204565,0.776497,1.14631,0.51541
7.74511,0.288961,1.00422,1.10898,-0.0354075,0.0245108,2.20593,-0.396921,1.90691,1.2,-0.330724,0.531664,0.0050637,-0.748841,0.236828,0,0.657858,-0.411888,0.0176472,0.783797,1.13735,0.51164
7.78091,0.277077,1.02914,1.10858,-0.0353105,0.0254403,2.22629,-0.426946,1.91614,1.2,-0.340218,0.524833,0.0110948,-0.752468,0.225038,0,0.645684,-0.413432,0.0165455,0.760668,1.13613,0.509853
7.81292,0.267138,1.04852,1.10852,-0.0346885,0.0267134,2.25175,-0.457116,1.92491,1.2,-0.348816,0.515683,0.0185116,-0.75591,0.21319,0,0.649146,-0.411985,0.015734,0.765932,1.1406,0.507514
7.84493,0.256809,1.06745,1.10858,-0.0344248,0.026829,2.26075,-0.472249,1.92911,1.2,-0.356851,0.510077,0.0199618,-0.757561,0.207247,0,0.65205,-0.409656,0.0120395,0.772964,1.13241,0.502665
7.88075,0.246115,1.08595,1.1087,-0.0341318,0.0269475,2.28369,-0.502614,1.93716,1.2,-0.363688,0.50355,0.0215609,-0.760723,0.195323,0,0.637884,-0.412351,0.0117129,0.752631,1.13732,0.503096
7.91273,0.235041,1.10407,1.10895,-0.0339313,0.0273793,2.30629,-0.533109,1.94474,1.2,-0.371584,0.498337,0.0219011,-0.763698,0.183347,0,0.643212,-0.408505,0.0112093,0.766196,1.1424,0.50344
7.94511,0.223592,1.12177,1.10919,-0.0335212,0.0273526,2.31971,-0.548394,1.94835,1.2,-0.37985,0.491729,0.0233569,-0.765114,0.177345,0,0.646375,-0.405367,0.00638124,0.773517,1.13465,0.497806
7.98101,0.20871,1.14335,1.1095,-0.0332803,0.027389,2.33982,-0.579054,1.9552,1.2,-0.388842,0.486167,0.0211139,-0.767805,0.165305,0,0.633082,-0.403673,0.00866962,0.755722,1.13484,0.497002
8.01287,0.196388,1.16015,1.10983,-0.0330364,0.0275883,2.36228,-0.609815,1.96157,1.2,-0.401012,0.476678,0.0218238,-0.770307,0.153225,0,0.635565,-0.3986,0.0117824,0.76331,1.14033,0.491403
8.0448,0.183714,1.17661,1.11026,-0.0328017,0.0275913,2.3734,-0.625234,1.96457,1.2,-0.409549,0.470491,0.0230831,-0.771486,0.14717,0,0.636229,-0.394385,0.00855054,0.769835,1.13285,0.485868
8.08066,0.171381,1.19419,1.11026,-0.0320167,0.0270486,2.3956,-0.656136,1.97022,1.2,-0.416249,0.463516,0.0223969,-0.773703,0.135035,0,0.623414,-0.389181,0.0121372,0.753912,1.13801,0.485978
8.11258,0.159315,1.21277,1.10999,-0.0307204,0.0267148,2.41751,-0.687124,1.97538,1.2,-0.424339,0.458113,0.021831,-0.775728,0.122866,0,0.628067,-0.379363,0.0113546,0.767521,1.14286,0.486149
8.14465,0.14692,1.23084,1.10977,-0.0302784,0.026546,2.42864,-0.70265,1.97777,1.2,-0.42938,0.453939,0.0226594,-0.776669,0.116769,0,0.632458,-0.372802,0.00781882,0.7753,1.13482,0.484569
8.18087,0.130993,1.25273,1.10965,-0.0294857,0.0258299,2.4529,-0.733754,1.9822,1.2,-0.434963,0.449753,0.0231401,-0.778408,0.104554,0,0.622294,-0.369804,0.000962231,0.761315,1.13494,0.487495
8.21255,0.117864,1.2697,1.10965,-0.0289479,0.0256945,2.4724,-0.764922,1.98614,1.2,-0.440799,0.441807,0.0219061,-0.779954,0.092315,0,0.62996,-0.36436,-0.00147967,0.777166,1.14051,0.487494
8.24453,0.104414,1.28621,1.10974,-0.0287174,0.0255529,2.48315,-0.78054,1.98792,1.2,-0.448694,0.436421,0.0238735,-0.780655,0.0861818,0,0.634593,-0.361445,-0.00578829,0.784722,1.133,0.483152
8.28046,0.0906313,1.30229,1.11005,-0.0285335,0.0259364,2.50424,-0.811778,1.99112,1.2,-0.454048,0.429626,0.0252172,-0.781912,0.0739145,0,0.623905,-0.361234,-0.00763919,0.769617,1.13883,0.484418
8.31233,0.0765229,1.31798,1.11047,-0.0283546,0.0261427,2.52555,-0.843078,1.99383,1.2,-0.462072,0.423529,0.0292096,-0.782977,0.0616232,0,0.629554,-0.357487,-0.00859653,0.778357,1.14475,0.484571
8.34495,0.0621894,1.33327,1.11105,-0.0281111,0.0262816,2.53598,-0.858742,1.99501,1.2,-0.467029,0.418767,0.0314695,-0.783437,0.055472,0,0.633945,-0.353672,-0.0119977,0.785905,1.13751,0.482791
8.38076,0.0439002,1.35175,1.11194,-0.0277501,0.0266149,2.5588,-0.890097,1.99698,1.2,-0.471509,0.412075,0.0331003,-0.784211,0.0431589,0,0.626095,-0.350795,-0.0132592,0.772302,1.13861,0.484745
8.41276,0.0289656,1.36605,1.11288,-0.0275529,0.026798,2.57754,-0.921474,1.99846,1.2,-0.479265,0.400874,0.0393706,-0.784793,0.0308372,0,0.632106,-0.34606,-0.0113903,0.77734,1.14493,0.481481
8.44465,0.0137674,1.37995,1.11392,-0.0273639,0.0270863,2.58772,-0.937171,1.99901,1.2,-0.485256,0.393079,0.0427352,-0.785011,0.0246728,0,0.635408,-0.342921,-0.0139135,0.783122,1.13795,0.476867
8.48086,-0.00143046,1.39431,1.11472,-0.027239,0.0274779,2.60814,-0.968578,1.99975,1.2,-0.491794,0.385819,0.0463926,-0.785301,0.0123392,0,0.626798,-0.340421,-0.0115287,0.764935,1.14421,0.477269
8.51264,-0.0166377,1.40901,1.11542,-0.0266727,0.0287057,2.62857,-0.999996,2,1.2,-0.498181,0.379211,0.050812,-0.785398,1.63188e-06,0,0.633988,-0.334953,-0.0107432,0.773701,1.1504,0.478409
8.54536,-0.0321285,1.42323,1.11627,-0.0262605,0.0288697,2.63876,-1.01571,1.99994,1.2,-0.503891,0.371948,0.0532917,-0.785374,-0.00616747,0,0.64095,-0.330648,-0.0133927,0.782893,1.14325,0.474388
8.58107,-0.0518327,1.44045,1.11755,-0.0254987,0.0295329,2.66079,-1.04714,1.99944,1.2,-0.509483,0.365592,0.0537947,-0.78518,-0.0185113,0,0.631115,-0.328937,-0.015525,0.762536,1.14451,0.475856
8.61299,-0.0678328,1.45383,1.1188,-0.0249599,0.0303433,2.679,-1.07852,1.99846,1.2,-0.514326,0.361016,0.0593416,-0.784793,-0.0308332,0,0.637966,-0.323888,-0.0176834,0.769198,1.15095,0.479812
8.64499,-0.0840844,1.46678,1.12021,-0.0245559,0.0304501,2.6889,-1.09421,1.99778,1.2,-0.51886,0.354359,0.0618426,-0.784526,-0.036995,0,0.643313,-0.32142,-0.0203657,0.778135,1.14397,0.477034
8.68087,-0.10064,1.47935,1.1217,-0.0240213,0.0311168,2.70906,-1.12558,1.99605,1.2,-0.526399,0.346884,0.0630755,-0.783849,-0.0493133,0,0.635161,-0.320589,-0.0215611,0.755357,1.15048,0.476688
8.71407,-0.117462,1.49154,1.12332,-0.0235976,0.0318572,2.72849,-1.15691,1.99383,1.2,-0.533639,0.340131,0.0650476,-0.782977,-0.0616202,0,0.641781,-0.316275,-0.0198166,0.76596,1.157,0.477289
8.74484,-0.134515,1.50339,1.12494,-0.0232982,0.032129,2.73829,-1.17257,1.99254,1.2,-0.538567,0.333927,0.065711,-0.782469,-0.0677672,0,0.647419,-0.312227,-0.0217807,0.777955,1.14998,0.474515
8.78183,-0.156187,1.51781,1.12704,-0.0225599,0.0322705,2.75809,-1.20385,1.98958,1.2,-0.546012,0.328434,0.0639403,-0.781308,-0.0800505,0,0.637296,-0.307629,-0.0232098,0.753315,1.1513,0.475722
8.81309,-0.17376,1.52902,1.12885,-0.0221629,0.0326479,2.77962,-1.2352,1.98612,1.2,-0.552238,0.321901,0.0645941,-0.779948,-0.0923633,0,0.642394,-0.302332,-0.0215878,0.762241,1.15787,0.477115
8.84504,-0.19155,1.53995,1.13071,-0.0218496,0.0327416,2.78724,-1.25066,1.98423,1.2,-0.557612,0.31784,0.0663605,-0.779205,-0.0984342,0,0.646898,-0.298094,-0.0232079,0.772652,1.15061,0.476227
8.88099,-0.209412,1.5518,1.13223,-0.0213702,0.0327418,2.80632,-1.2818,1.98005,1.2,-0.56288,0.311859,0.063412,-0.777563,-0.110662,0,0.636202,-0.29424,-0.0258846,0.747102,1.15672,0.478157
8.91288,-0.227312,1.56446,1.13348,-0.0205064,0.0330825,2.82516,-1.31287,1.97538,1.2,-0.566876,0.305711,0.0636684,-0.775729,-0.122862,0,0.645444,-0.288626,-0.0239345,0.763678,1.16263,0.480987
8.94493,-0.245386,1.57665,1.13474,-0.019963,0.0331015,2.83463,-1.32837,1.97286,1.2,-0.570499,0.300265,0.0628307,-0.77474,-0.12895,0,0.651222,-0.284668,-0.0256399,0.778588,1.15503,0.479466
8.98076,-0.268261,1.59126,1.13638,-0.0195181,0.0331483,2.85339,-1.35932,1.96746,1.2,-0.574798,0.295054,0.0604365,-0.772619,-0.141104,0,0.644416,-0.280263,-0.0325568,0.755042,1.15584,0.482721
9.01276,-0.286744,1.60248,1.13785,-0.0191174,0.0339212,2.87166,-1.39018,1.96157,1.2,-0.580395,0.287361,0.0605604,-0.770307,-0.153222,0,0.65185,-0.278585,-0.0318777,0.765972,1.16206,0.483578
9.04518,-0.30537,1.61334,1.1394,-0.0189976,0.0342655,2.88088,-1.40561,1.95844,1.2,-0.583616,0.282357,0.0643625,-0.769077,-0.159281,0,0.656661,-0.276989,-0.0342216,0.774403,1.15468,0.483304
9.08108,-0.324157,1.62386,1.14099,-0.0187062,0.0346255,2.89895,-1.43628,1.95183,1.2,-0.58795,0.277829,0.062884,-0.766484,-0.171327,0,0.647942,-0.277324,-0.0392526,0.750217,1.16098,0.487411
9.11301,-0.343086,1.63406,1.14261,-0.0184007,0.0355055,2.91694,-1.46689,1.94474,1.2,-0.591559,0.272629,0.0638981,-0.763698,-0.183346,0,0.657135,-0.276062,-0.0383771,0.764057,1.16737,0.491557
9.1451,-0.362187,1.64396,1.14426,-0.0183239,0.0357949,2.92585,-1.48221,1.941,1.2,-0.595525,0.268512,0.0636374,-0.762228,-0.189363,0,0.665609,-0.273464,-0.0391217,0.772936,1.16008,0.491415
9.18085,-0.386336,1.65587,1.14618,-0.0185111,0.0369571,2.9455,-1.51257,1.9332,1.2,-0.601028,0.263125,0.0623391,-0.759167,-0.201287,0,0.653786,-0.276662,-0.0457365,0.748658,1.16113,0.494543
9.21279,-0.405867,1.6651,1.14774,-0.0187377,0.037708,2.96195,-1.54288,1.92491,1.2,-0.60759,0.256862,0.0612664,-0.755911,-0.213188,0,0.660279,-0.275389,-0.0438155,0.75443,1.16749,0.496689
9.24494,-0.425525,1.67406,1.14914,-0.019041,0.0381107,2.97106,-1.55798,1.92059,1.2,-0.611496,0.252802,0.0584828,-0.754214,-0.219117,0,0.667094,-0.274416,-0.0422231,0.761115,1.16009,0.496483
9.28088,-0.445495,1.6829,1.15027,-0.0194582,0.038862,2.98903,-1.58808,1.91159,1.2,-0.615513,0.248437,0.0548053,-0.750679,-0.230937,0,0.656121,-0.274629,-0.0470883,0.742401,1.1663,0.501072
9.31283,-0.466041,1.69181,1.1507,-0.0197491,0.0396251,3.00695,-1.61803,1.90211,1.2,-0.61992,0.244539,0.0520304,-0.746958,-0.2427,0,0.666215,-0.272016,-0.0432445,0.756199,1.17207,0.506209
9.34478,-0.486719,1.70037,1.15106,-0.0201505,0.0397921,3.01755,-1.63295,1.8972,1.2,-0.624092,0.237723,0.046409,-0.74503,-0.248558,0,0.673506,-0.270794,-0.0425519,0.766086,1.16404,0.503239
9.38074,-0.512757,1.71066,1.1514,-0.0205025,0.0402077,3.03351,-1.66267,1.88703,1.2,-0.630029,0.233073,0.0420129,-0.741033,-0.260231,0,0.660952,-0.268977,-0.0468268,0.747809,1.16438,0.507381
9.41289,-0.533702,1.71853,1.1517,-0.0210098,0.0409182,3.05157,-1.69223,1.87639,1.2,-0.635719,0.224505,0.0382068,-0.736855,-0.271837,0,0.667065,-0.265681,-0.0428151,0.759262,1.17023,0.50798
9.44487,-0.554761,1.72606,1.15204,-0.020684,0.040975,3.06272,-1.70694,1.87089,1.2,-0.640232,0.217663,0.0359939,-0.734697,-0.277616,0,0.671409,-0.2641,-0.0426045,0.766305,1.16224,0.505491
9.48062,-0.575919,1.73329,1.15231,-0.0208546,0.0411284,3.07908,-1.73629,1.85954,1.2,-0.643902,0.209766,0.0317873,-0.730238,-0.289142,0,0.657924,-0.259552,-0.0458618,0.750635,1.1682,0.50732
9.51271,-0.597197,1.74019,1.15265,-0.0209429,0.0412646,3.09692,-1.76536,1.84776,1.2,-0.648583,0.2036,0.0327451,-0.725614,-0.300557,0,0.664276,-0.253692,-0.043278,0.762313,1.17406,0.511058
9.5446,-0.618609,1.7468,1.15305,-0.0206909,0.0410405,3.10763,-1.77985,1.84169,1.2,-0.65253,0.196025,0.0318623,-0.723231,-0.306248,0,0.669895,-0.25048,-0.0436241,0.770019,1.16606,0.508224
9.5806,-0.645559,1.75463,1.15356,-0.0205949,0.0407643,3.12365,-1.80868,1.82922,1.2,-0.659195,0.189083,0.0284664,-0.718332,-0.317568,0,0.656598,-0.245883,-0.0466092,0.751191,1.16644,0.510885
9.61336,-0.667273,1.76054,1.15408,-0.0204004,0.0409694,-3.1398,-1.83732,1.81629,1.2,-0.664516,0.180129,0.0283338,-0.713255,-0.328813,0,0.661692,-0.239672,-0.0445142,0.760318,1.17227,0.512055
9.64632,-0.689075,1.76615,1.1546,-0.0204026,0.0409069,-3.13272,-1.86574,1.80291,1.2,-0.668743,0.171875,0.0283799,-0.708001,-0.339977,0,0.665781,-0.236368,-0.0464643,0.767483,1.17812,0.514139
9.68206,-0.710967,1.7714,1.15494,-0.0199604,0.0405795,-3.115,-1.87988,1.79606,1.2,-0.672473,0.164082,0.0257648,-0.70531,-0.345526,0,0.6533,-0.233205,-0.046482,0.746602,1.17004,0.511314
9.71389,-0.733035,1.7763,1.15479,-0.0193378,0.0398101,-3.09699,-1.90798,1.78202,1.2,-0.677077,0.156292,0.0242062,-0.699796,-0.356561,0,0.661953,-0.226587,-0.0438857,0.762749,1.17582,0.513926
9.74574,-0.755197,1.7809,1.15454,-0.0190533,0.0392963,-3.08822,-1.93585,1.76753,1.2,-0.68218,0.148664,0.0213096,-0.694109,-0.367509,0,0.667476,-0.222846,-0.0456161,0.773231,1.18161,0.51675
9.78165,-0.783067,1.78628,1.15427,-0.0186372,0.0388747,-3.07066,-1.94971,1.76013,1.2,-0.684909,0.141809,0.0164075,-0.691201,-0.37295,0,0.656858,-0.218473,-0.0473774,0.758312,1.16783,0.51506
9.81349,-0.805479,1.79023,1.15421,-0.0180001,0.0389044,-3.05327,-1.97724,1.74499,1.2,-0.690557,0.131819,0.0189015,-0.685257,-0.383762,0,0.662958,-0.213333,-0.0457676,0.76577,1.17353,0.515954
9.84557,-0.827964,1.7939,1.15427,-0.0177947,0.0390059,-3.04465,-2.00453,1.72943,1.2,-0.694055,0.1217,0.0198946,-0.679145,-0.394478,0,0.667125,-0.21078,-0.0476788,0.771912,1.17922,0.516776
9.88158,-0.850474,1.79733,1.15442,-0.0175624,0.0388972,-3.02755,-2.01808,1.72149,1.2,-0.695816,0.115108,0.0209628,-0.676026,-0.399799,0,0.65704,-0.207916,-0.0477176,0.752648,1.17095,0.515713
9.91338,-0.873064,1.8005,1.15469,-0.0171784,0.0391002,-3.01013,-2.04501,1.70527,1.2,-0.69759,0.107601,0.0217184,-0.669658,-0.410376,0,0.667114,-0.201686,-0.0447552,0.768507,1.17669,0.519184
9.94526,-0.89575,1.8034,1.15491,-0.0167706,0.038843,-2.9998,-2.05835,1.69702,1.2,-0.700585,0.100727,0.0227464,-0.66642,-0.415614,0,0.673768,-0.198999,-0.0449746,0.776137,1.16833,0.51797
9.98127,-0.924183,1.80667,1.15527,-0.0163506,0.0387937,-2.98264,-2.08488,1.68019,1.2,-0.702995,0.0922778,0.0212268,-0.659809,-0.426031,0,0.66302,-0.196084,-0.0491946,0.756687,1.16842,0.520538
10.013,-0.94701,1.80904,1.15561,-0.0161213,0.0390457,-2.96563,-2.11114,1.66294,1.2,-0.706074,0.083582,0.0230373,-0.653035,-0.436343,0,0.669889,-0.192302,-0.0475309,0.76596,1.1741,0.523131
10.0451,-0.969951,1.81122,1.15598,-0.01596,0.039129,-2.95896,-2.12416,1.65416,1.2,-0.709529,0.0780911,0.0236941,-0.649589,-0.441457,0,0.675551,-0.190015,-0.0461709,0.77048,1.16568,0.523531
10.0818,-0.993389,1.81301,1.15598,-0.0157666,0.0392538,-2.94218,-2.15001,1.6363,1.2,-0.712197,0.0710792,0.0243682,-0.642575,-0.451606,0,0.663934,-0.189943,-0.0522667,0.748383,1.17087,0.527865
10.1136,-1.01724,1.81444,1.1557,-0.0153943,0.0394288,-2.92528,-2.17557,1.61804,1.2,-0.71534,0.061779,0.0253981,-0.635402,-0.461644,0,0.673588,-0.189094,-0.0475231,0.75955,1.17569,0.530101
10.1455,-1.04704,1.81592,1.15533,-0.0153309,0.0395683,-2.91674,-2.20084,1.59937,1.2,-0.715448,0.054905,0.0234363,-0.628072,-0.471567,0,0.679674,-0.188459,-0.0463053,0.766721,1.17479,0.534188
10.1814,-1.07091,1.81684,1.15518,-0.0156484,0.0398712,-2.89946,-2.21336,1.58989,1.2,-0.720419,0.044791,0.0204141,-0.624348,-0.476486,0,0.662812,-0.191514,-0.0531363,0.739491,1.16563,0.530449
10.2138,-1.09476,1.81753,1.15512,-0.0156004,0.0400471,-2.88114,-2.23818,1.57064,1.2,-0.722136,0.0383595,0.0203841,-0.616788,-0.486234,0,0.670886,-0.189811,-0.0475041,0.7515,1.17064,0.535454
10.2456,-1.11861,1.81803,1.155,-0.0157332,0.0399159,-2.87456,-2.2627,1.55099,1.2,-0.722742,0.0304703,0.0181648,-0.609074,-0.495862,0,0.677539,-0.189499,-0.0462021,0.760861,1.17571,0.538773
10.2816,-1.14251,1.81831,1.15475,-0.0157093,0.0398397,-2.85786,-2.27484,1.54103,1.2,-0.726669,0.0243745,0.0112835,-0.605161,-0.50063,0,0.66114,-0.191349,-0.0520189,0.737978,1.16667,0.539
10.3135,-1.16643,1.8184,1.15442,-0.0163428,0.0389568,-2.84103,-2.2989,1.52081,1.2,-0.729209,0.0174732,0.00853097,-0.59722,-0.510077,0,0.671576,-0.190887,-0.0467389,0.753957,1.17181,0.543877
10.3454,-1.19034,1.81827,1.15396,-0.0164556,0.0384682,-2.83095,-2.32262,1.50022,1.2,-0.730685,0.0116178,0.00387021,-0.593198,-0.514749,0,0.67831,-0.191372,-0.0455107,0.763619,1.177,0.54404
10.3813,-1.22028,1.81771,1.15344,-0.0169246,0.0380819,-2.81401,-2.33436,1.48979,1.2,-0.732006,0.00378624,0.000179387,-0.58504,-0.524003,0,0.669226,-0.191116,-0.0487455,0.750188,1.16227,0.547869
10.4132,-1.24423,1.8169,1.15302,-0.0174806,0.0378809,-2.79706,-2.3576,1.46865,1.2,-0.735767,-0.00985334,-0.00126577,-0.576737,-0.533128,0,0.67279,-0.191725,-0.0439439,0.755212,1.16751,0.546908
10.4452,-1.26812,1.81584,1.15256,-0.0177872,0.0377514,-2.79044,-2.36909,1.45794,1.2,-0.734316,-0.0188617,-0.00341612,-0.572532,-0.537641,0,0.675613,-0.19145,-0.0424794,0.76102,1.15865,0.543431
10.4811,-1.29288,1.81394,1.15167,-0.0182103,0.0373614,-2.77346,-2.39182,1.43626,1.2,-0.735207,-0.0259111,-0.00683637,-0.564016,-0.546567,0,0.667227,-0.191483,-0.0413293,0.752081,1.16304,0.54812
10.513,-1.3184,1.81124,1.15051,-0.018567,0.0373958,-2.75615,-2.41421,1.41422,1.2,-0.737285,-0.0348151,-0.00966087,-0.555361,-0.55536,0,0.671498,-0.18984,-0.0383933,0.761606,1.16657,0.551503
10.545,-1.34381,1.80836,1.14941,-0.0188143,0.0372008,-2.74759,-2.42527,1.40307,1.2,-0.739195,-0.0436042,-0.0117276,-0.550983,-0.559704,0,0.677423,-0.189779,-0.0374459,0.769174,1.15602,0.549472
10.5811,-1.37545,1.80446,1.14804,-0.0188814,0.0371177,-2.73022,-2.44714,1.3805,1.2,-0.740708,-0.0534556,-0.0144169,-0.542122,-0.56829,0,0.662595,-0.190817,-0.0374344,0.74869,1.15368,0.551996
10.613,-1.40061,1.8011,1.14694,-0.0197388,0.0366204,-2.71105,-2.46864,1.3576,1.2,-0.742707,-0.0654467,-0.0164971,-0.53313,-0.576735,0,0.663483,-0.190656,-0.0295005,0.752148,1.15767,0.55282
10.645,-1.42562,1.79754,1.14584,-0.0198678,0.0362629,-2.70411,-2.47926,1.34603,1.2,-0.741903,-0.074105,-0.0199925,-0.528584,-0.580904,0,0.665414,-0.190147,-0.0269413,0.757846,1.14759,0.550227
10.6813,-1.45053,1.79383,1.14462,-0.0201818,0.0348374,-2.68677,-2.50022,1.32263,1.2,-0.741376,-0.0815058,-0.0229797,-0.519394,-0.589135,0,0.653437,-0.189933,-0.0241653,0.744751,1.15193,0.554519
10.7133,-1.47528,1.78991,1.14334,-0.0199419,0.033775,-2.6677,-2.52081,1.2989,1.2,-0.741385,-0.0896467,-0.0259674,-0.510076,-0.597221,0,0.659077,-0.188042,-0.0174758,0.75713,1.15647,0.558399
10.7454,-1.4998,1.78581,1.14197,-0.0199489,0.0332739,-2.66073,-2.53096,1.28691,1.2,-0.737535,-0.0974676,-0.0296362,-0.50537,-0.601208,0,0.663702,-0.186835,-0.0172963,0.766561,1.14698,0.555458
