timestamp,drone_x,drone_y,drone_z,drone_roll,drone_pitch,drone_yaw,target_x,target_y,target_z,drone_vx,drone_vy,drone_vz,target_vx,target_vy,target_vz,predicted_target_vx,predicted_target_vy,predicted_target_vz,thrust_output,distance_error,velocity_error
0.0200602,-0.0122791,-0.0694445,1.19778,-0.00166482,0.00367679,-0.00017443,1,0,1.2,-0.0168055,0.0659937,-0.00224328,0,0,0,0,0,0,0.52,1.01466,0.0681369
0.0519272,-0.0129729,-0.070257,1.1976,-0.00151792,0.00358249,-0.000329273,1,0,1.2,-0.0160758,0.064538,-0.000791611,0,0,0,0,0,0,0.52,1.01541,0.0665147
0.0877876,-0.0137449,-0.0708916,1.19803,-0.00147379,0.00349559,-0.000722108,1,0,1.2,-0.0151639,0.0639181,0.00711002,0,0,0,0,0,0,0.52,1.01622,0.0660759
0.119665,-0.0142627,-0.0711284,1.19907,-0.00170237,0.00368397,-0.000970071,1,0,1.2,-0.0115989,0.0630637,0.0273822,0,0,0,0,0,0,0.52,1.01675,0.0697234
0.151622,-0.0147824,-0.0711764,1.20117,-0.00172629,0.00386809,-0.00124423,1,0,1.2,-0.0114774,0.06269,0.050507,0,0,0,0,0,0,0.52,1.01728,0.0813186
0.187633,-0.0152289,-0.0710113,1.20468,-0.00162366,0.0034385,-0.00143393,1,0,1.2,-0.0100188,0.0621777,0.0901818,0,0,0,0,0,0,0.52,1.01772,0.109996
0.219448,-0.0156571,-0.0706789,1.20959,-0.00139682,0.00345178,-0.00154617,1,0,1.2,-0.00796782,0.0613644,0.134153,0,0,0,0,0,0,0.52,1.01816,0.147737
0.251304,-0.016075,-0.0701646,1.21585,-0.0014959,0.00340303,-0.00152144,1,0,1.2,-0.00859733,0.0615542,0.175709,0,0,0,0,0,0,0.52,1.01862,0.186377
0.288209,-0.0165283,-0.0693117,1.22543,-0.00181289,0.00320464,-0.00135835,1,0,1.2,-0.00693678,0.0613317,0.216733,0,0,0,0,0,0,0.52,1.01921,0.225351
0.319935,-0.0168273,-0.0684567,1.2345,-0.00161377,0.0031683,-0.00134966,1,0,1.2,-0.00569637,0.0611493,0.267465,0,0,0,0,0,0,0.52,1.01971,0.274425
0.351842,-0.0170851,-0.0674111,1.24478,-0.00148014,0.00327287,-0.00119071,1,0,1.2,-0.00331785,0.0621769,0.305798,0,0,0,0,0,0,0.52,1.0203,0.312073
0.389044,-0.0170629,-0.0687101,1.25467,-0.00172458,0.00338397,-0.0012331,1,0,1.2,-0.00350277,0.0636948,0.343857,0,0,0,0,0,0,0.52,1.02085,0.349724
0.420772,-0.0170906,-0.0696848,1.2659,-0.00151536,0.00352488,-0.00124466,1,0,1.2,-0.00386938,0.0635992,0.381028,0,0,0,0,0,0,0.52,1.0216,0.386319
0.452507,-0.0171078,-0.0704115,1.27853,-0.00153709,0.00342597,-0.00114937,1,0,1.2,-0.0041104,0.0622132,0.417876,0,0,0,0,0,0,0.52,1.02256,0.422502
0.488352,-0.0170843,-0.0710322,1.29617,-0.00176231,0.00327143,-0.00167182,1,0,1.2,-0.00305159,0.0596404,0.454819,0,0,0,0,0,0,0.52,1.02409,0.458723
0.522197,-0.0170396,-0.0712378,1.31177,-0.00181914,0.00344808,-0.00203251,1,0,1.2,0.000218976,0.0592537,0.501468,0,0,0,0,0,0,0.52,1.02564,0.504957
0.553908,-0.0170532,-0.0712396,1.3287,-0.00172033,0.00327914,-0.00209643,1,0,1.2,-0.00149797,0.0587772,0.539803,0,0,0,0,0,0,0.52,1.02764,0.542996
0.589687,-0.0170167,-0.0710421,1.34686,-0.0013769,0.00339169,-0.00231848,1,0,1.2,-0.000861939,0.0585302,0.575338,0,0,0,0,0,0,0.52,1.03002,0.578308
0.62142,-0.016952,-0.070649,1.36618,-0.00138566,0.00342242,-0.00243948,1,0,1.2,0.000913641,0.059372,0.610752,0,0,0,0,0,0,0.0666355,1.03286,0.613632
0.65317,-0.0168634,-0.0701072,1.38635,-0.001391,0.00345187,-0.00234695,1,0,1.2,0.00187989,0.0591634,0.642699,0,0,0,0.0569439,0.0533632,-0.0325171,-0.107207,1.03617,0.645419
0.693144,-0.0167031,-0.0692491,1.40826,0.000603144,0.00748551,-0.00209338,1,0,1.2,0.00312415,0.0578855,0.636781,0,0,0,0.168726,-0.0103562,0.0338676,0.185142,1.04012,0.639414
0.724444,-0.0164603,-0.0684535,1.42096,0.00340616,0.0168173,-0.0021742,1,0,1.2,0.00631783,0.0581149,0.47802,0,0,0,0.271817,0.103109,-0.037091,0.0702085,1.04245,0.481582
0.756313,-0.0160505,-0.067755,1.43033,0.00772206,0.0245796,-0.00230378,1,0,1.2,0.010695,0.053168,0.353446,0,0,0,0.323204,0.140279,-0.0360606,0.190026,1.04403,0.357583
0.791858,-0.016883,-0.0695904,1.43506,0.0212869,0.0431165,-0.0025289,1,0,1.2,0.0173596,0.0465031,0.256462,0,0,0,0.323129,0.222598,-0.0918374,0.143755,1.04601,0.261222
0.8234,-0.0173472,-0.0713422,1.43704,0.0346802,0.0577972,-0.00266366,1,0,1.2,0.0240809,0.0401939,0.155894,0,0,0,0.203529,0.314567,0.00639658,0.0249792,1.04703,0.162783
0.856673,-0.0174372,-0.0730638,1.43652,0.0408763,0.0625451,-0.00293392,1,0,1.2,0.0319043,0.0308567,0.0715593,0,0,0,0.118751,0.334707,0.0763103,-0.0352419,1.04712,0.0842066
0.891054,-0.0170424,-0.0752412,1.4314,0.0497154,0.0654736,-0.00363282,1,0,1.2,0.0396911,0.0234601,-0.0188564,0,0,0,0.0392081,0.267536,0.0897992,0.175917,1.04574,0.0498129
0.922674,-0.0162468,-0.0769634,1.42279,0.0524407,0.0620578,-0.00465599,1,0,1.2,0.0519306,0.0123379,-0.168404,0,0,0,0.0567691,0.206514,0.065881,0.247816,1.04322,0.17666
0.954391,-0.0149675,-0.0787688,1.41098,0.0509774,0.0597592,-0.00518577,1,0,1.2,0.0627614,0.00560795,-0.293386,0,0,0,0.0300435,0.241098,0.076702,0.210398,1.03965,0.300076
0.990103,-0.0127758,-0.0812619,1.3931,0.0444574,0.0534404,-0.00612507,1,0,1.2,0.0760175,-0.00614537,-0.377794,0,0,0,0.0526318,0.223606,0.13763,0.108176,1.03422,0.385415
1.02214,-0.0111993,-0.082844,1.38077,0.0352523,0.043024,-0.00693676,1,0,1.2,0.0879994,-0.0188856,-0.462979,0,0,0,0.0915966,0.172314,0.17829,0.15219,1.03056,0.471646
1.05387,-0.00883358,-0.0850222,1.362,0.0300308,0.036961,-0.00704051,1,0,1.2,0.093455,-0.0252729,-0.517603,0,0,0,0.110685,0.083865,0.184673,0.139199,1.02529,0.526579
1.09064,-0.00553122,-0.0877133,1.33426,0.0198241,0.0242065,-0.00695406,1,0,1.2,0.101179,-0.0304425,-0.610866,0,0,0,0.126978,0.0765696,0.154556,0.249663,1.01824,0.619936
1.12279,-0.00273758,-0.0898243,1.30872,0.0111315,0.0111076,-0.00607723,1,0,1.2,0.106361,-0.0355031,-0.736326,0,0,0,0.140268,0.0661158,0.136036,0.401412,1.01261,0.744815
1.15425,0.000153479,-0.0918558,1.28113,0.00768888,0.00497625,-0.00532608,1,0,1.2,0.107764,-0.0372803,-0.818246,0,0,0,0.219342,0.0148015,0.164429,0.634048,1.00733,0.826154
1.19003,0.000695351,-0.0940139,1.25665,0.00307119,-0.00324001,-0.00314771,1,0,1.2,0.109808,-0.0384492,-0.86113,0,0,0,0.15723,-0.0302928,0.209209,0.684339,1.00531,0.868954
1.22165,0.00136074,-0.0960732,1.23383,0.000816286,-0.00828712,-9.45046e-05,1,0,1.2,0.106853,-0.0402497,-0.827676,0,0,0,0.133942,-0.0500904,0.245013,0.709672,1.00382,0.835515
1.25341,0.00208319,-0.0979946,1.21368,0.000154392,-0.0102012,0.00161025,1,0,1.2,0.101988,-0.0394534,-0.749278,0,0,0,0.158222,-0.192035,0.328189,0.748048,1.00281,0.757216
1.28922,0.00294686,-0.100196,1.19342,0.000352539,-0.0117567,0.00586926,1,0,1.2,0.0950416,-0.0382589,-0.646166,0,0,0,0.140199,-0.224604,0.355312,0.720527,1.0021,0.654238
1.32219,0.00359239,-0.101862,1.18164,0.0022518,-0.0113323,0.0108355,1,0,1.2,0.0855253,-0.0376286,-0.489324,0,0,0,0.120447,-0.227361,0.35603,0.677872,1.00177,0.498165
1.3528,0.00418133,-0.103435,1.17386,0.0034454,-0.010108,0.0141215,1,0,1.2,0.0786036,-0.0375759,-0.358758,0,0,0,0.0886498,-0.242919,0.373121,0.598497,1.00152,0.369185
1.38903,0.00475384,-0.104945,1.1694,0.00523881,-0.0059408,0.020242,1,0,1.2,0.0714266,-0.0374039,-0.23657,0,0,0,0.0742457,-0.272367,0.371119,0.518315,1.00123,0.249933
1.42138,0.00543307,-0.106421,1.16754,0.00636482,0.000154593,0.0266997,1,0,1.2,0.0679401,-0.0379608,-0.139696,0,0,0,0.0818848,-0.297558,0.360247,0.444264,1.00077,0.159912
1.4532,0.0062194,-0.107857,1.16739,0.0066541,0.0027721,0.0293712,1,0,1.2,0.0680951,-0.0386847,-0.0698037,0,0,0,0.0342489,-0.286962,0.309278,0.37279,1.00015,0.10491
1.48901,0.00740198,-0.109617,1.16794,0.00686525,0.00943757,0.0362336,1,0,1.2,0.0672395,-0.0392981,-0.0279107,0,0,0,-0.017314,-0.255698,0.26463,0.365017,0.999147,0.0827315
1.52074,0.00855739,-0.110966,1.16803,0.00636235,0.0148969,0.0435561,1,0,1.2,0.068606,-0.0401512,-0.0260061,0,0,0,-0.0297717,-0.23228,0.261598,0.393133,0.998145,0.0836374
1.553,0.00988012,-0.112292,1.16763,0.00582644,0.0169668,0.0483408,1,0,1.2,0.0713682,-0.0401393,-0.0376333,0,0,0,-0.104796,-0.206382,0.238195,0.363209,0.996993,0.0901157
1.58883,0.0119566,-0.116168,1.16409,0.00559303,0.0177605,0.0554748,1,0,1.2,0.0735288,-0.0405835,-0.0488374,0,0,0,-0.133759,-0.185922,0.202062,0.364958,0.995497,0.0971525
1.62174,0.0141664,-0.119831,1.16028,0.00615496,0.0153765,0.0648097,1,0,1.2,0.0752813,-0.0423577,-0.0559551,0,0,0,-0.122822,-0.177688,0.199665,0.362816,0.993884,0.10292
1.65301,0.0165262,-0.123285,1.15607,0.00633203,0.013954,0.0684127,1,0,1.2,0.0795507,-0.0433488,-0.0757803,0,0,0,-0.104563,-0.163658,0.195583,0.374712,0.992144,0.11811
1.68885,0.0196201,-0.127361,1.15015,0.0065285,0.0102809,0.0779569,1,0,1.2,0.0827221,-0.0450051,-0.0963257,0,0,0,-0.0869081,-0.168378,0.193301,0.363936,0.989874,0.134711
1.72074,0.0221644,-0.130424,1.14505,0.00649739,0.00721658,0.0878137,1,0,1.2,0.0855259,-0.046242,-0.117571,0,0,0,-0.0819949,-0.171467,0.194432,0.390086,0.988025,0.152565
1.75255,0.0247442,-0.133328,1.13956,0.00629901,0.00523573,0.0939452,1,0,1.2,0.0864416,-0.0466215,-0.13104,0,0,0,-0.0653519,-0.167572,0.193623,0.413064,0.986181,0.163759
1.78862,0.0273505,-0.136162,1.13394,0.00614412,0.00280706,0.103357,1,0,1.2,0.0866343,-0.0477226,-0.144976,0,0,0,-0.0515089,-0.16437,0.199119,0.437518,0.984353,0.175502
1.82022,0.0299694,-0.138903,1.12839,0.00623991,0.000249483,0.115114,1,0,1.2,0.0866852,-0.0504774,-0.148938,0,0,0,-0.0534103,-0.162705,0.195639,0.446744,0.982538,0.179569
1.85218,0.0325777,-0.141526,1.12305,0.00619332,-0.000426938,0.119558,1,0,1.2,0.0864017,-0.051079,-0.147449,0,0,0,-0.0344776,-0.142928,0.205183,0.474161,0.980743,0.178369
1.88817,0.0358102,-0.144652,1.11697,0.00599358,-0.00154315,0.129842,1,0,1.2,0.0847124,-0.0515424,-0.139166,0,0,0,-0.0245226,-0.127004,0.205761,0.469644,0.978509,0.17088
1.91997,0.0383414,-0.147019,1.11288,0.0064032,-0.00270959,0.140536,1,0,1.2,0.0830862,-0.0512487,-0.121058,0,0,0,-0.0249719,-0.119507,0.204845,0.458737,0.976725,0.155515
1.95188,0.0408698,-0.149239,1.10959,0.00662614,-0.00310415,0.145407,1,0,1.2,0.0820079,-0.0503592,-0.0999156,0,0,0,-0.0152261,-0.0962966,0.206588,0.464642,0.974873,0.138724
1.98792,0.0430639,-0.154146,1.1077,0.00694567,-0.00313364,0.156726,1,0,1.2,0.0822066,-0.0492918,-0.0781865,0,0,0,-0.0222596,-0.0795167,0.196171,0.446141,0.973657,0.123696
2.01979,0.0452958,-0.158767,1.10638,0.00735979,-0.00397034,0.166384,1,0,1.2,0.0816602,-0.051522,-0.0579367,0,0,0,-0.0246391,-0.0684497,0.189459,0.433838,0.972333,0.112604
2.05179,0.0475134,-0.163203,1.10556,0.00767086,-0.00431325,0.171065,1,0,1.2,0.0810978,-0.0539388,-0.0399656,0,0,0,-0.0188722,-0.0483191,0.179035,0.416416,0.970971,0.105278
2.08781,0.0502198,-0.168521,1.10501,0.00830896,-0.00473667,0.17938,1,0,1.2,0.0786623,-0.0581655,-0.0260038,0,0,0,-0.0165369,-0.0361602,0.16634,0.40157,0.96928,0.101228
2.11963,0.0523067,-0.172568,1.10471,0.0084201,-0.00579628,0.188288,1,0,1.2,0.0753302,-0.0614496,-0.0183893,0,0,0,-0.0146426,-0.0323361,0.160431,0.393127,0.967979,0.0989387
2.15155,0.0543106,-0.176471,1.10428,0.00879827,-0.00604509,0.193282,1,0,1.2,0.0711243,-0.0630193,-0.0191266,0,0,0,-0.00937281,-0.0231359,0.146216,0.404065,0.966764,0.0969326
2.18767,0.0562482,-0.180268,1.10367,0.00911155,-0.006263,0.2005,1,0,1.2,0.0686097,-0.0658443,-0.0224245,0,0,0,-0.0121252,-0.0177767,0.129241,0.406592,0.965631,0.0977017
2.21957,0.0581382,-0.183964,1.10291,0.00901579,-0.0061268,0.209258,1,0,1.2,0.0661771,-0.0689126,-0.0285856,0,0,0,-0.0167532,-0.0162695,0.123052,0.414617,0.964559,0.0997271
2.25149,0.0600519,-0.187513,1.10199,0.00899947,-0.00605792,0.212267,1,0,1.2,0.0644941,-0.0700213,-0.0319384,0,0,0,-0.0208095,-0.0100572,0.107226,0.424958,0.963467,0.100412
2.28742,0.0623865,-0.19174,1.1008,0.00804193,-0.00510679,0.219851,1,0,1.2,0.0655752,-0.0705219,-0.0339631,0,0,0,-0.0317466,-0.00809521,0.0924271,0.42369,0.962146,0.102112
2.31935,0.0641852,-0.195044,1.09998,0.00772866,-0.00472151,0.226984,1,0,1.2,0.0613874,-0.0725097,-0.0325542,0,0,0,-0.0381077,-0.00745091,0.0863184,0.42712,0.961143,0.100428
2.35136,0.0658993,-0.198261,1.09927,0.00755862,-0.00456715,0.231237,1,0,1.2,0.0586808,-0.0741091,-0.0279295,0,0,0,-0.0435659,-0.00539741,0.0780322,0.430491,0.960207,0.098568
2.38746,0.0680371,-0.205538,1.09857,0.00716942,-0.00416931,0.237207,1,0,1.2,0.0562818,-0.0741837,-0.0251223,0,0,0,-0.0500039,-0.00500419,0.0698496,0.429968,0.959733,0.0964469
2.4194,0.0692952,-0.209694,1.09824,0.00708171,-0.00386599,0.243738,1,0,1.2,0.0549407,-0.0777836,-0.0199542,0,0,0,-0.0546287,-0.00587164,0.0666471,0.428121,0.959447,0.0972982
2.45195,0.0709187,-0.21498,1.09793,0.0067704,-0.00387939,0.246842,1,0,1.2,0.0532248,-0.0790513,-0.015409,0,0,0,-0.0608824,-0.00797454,0.0647183,0.427402,0.959076,0.0965372
2.48738,0.0729099,-0.221285,1.09775,0.00635088,-0.00364245,0.252613,1,0,1.2,0.0514497,-0.080511,-0.0104165,0,0,0,-0.0664336,-0.0142057,0.0647822,0.422377,0.958602,0.0961125
2.51955,0.0744346,-0.226085,1.09778,0.00614955,-0.0036521,0.258016,1,0,1.2,0.049875,-0.0831882,-0.0048163,0,0,0,-0.0698714,-0.0182847,0.0641625,0.417121,0.958246,0.0971133
2.55158,0.0758977,-0.230691,1.09793,0.00572766,-0.00355235,0.260793,1,0,1.2,0.0477585,-0.0844446,0.000849652,0,0,0,-0.0716243,-0.024644,0.0657811,0.418601,0.957915,0.097018
2.58739,0.0773052,-0.23511,1.09818,0.00511576,-0.00389215,0.266674,1,0,1.2,0.044807,-0.0849191,0.00272299,0,0,0,-0.072985,-0.0314617,0.0663692,0.418886,0.957607,0.0960539
2.61946,0.078687,-0.239355,1.09854,0.00453015,-0.00370789,0.271761,1,0,1.2,0.044655,-0.0853855,0.00529862,0,0,0,-0.0739226,-0.0342081,0.0655011,0.41585,0.957289,0.096503
2.65143,0.0800402,-0.24345,1.09894,0.00442322,-0.00348442,0.27468,1,0,1.2,0.0424382,-0.0863111,0.0076339,0,0,0,-0.0719969,-0.0381663,0.0670709,0.417842,0.956978,0.0964826
2.68738,0.0816937,-0.248381,1.09964,0.003805,-0.00297364,0.280324,1,0,1.2,0.042698,-0.0867378,0.00994372,0,0,0,-0.0746452,-0.0433871,0.0660109,0.412583,0.956583,0.0971877
2.71928,0.0829743,-0.25217,1.10028,0.00347723,-0.00275814,0.286212,1,0,1.2,0.0405763,-0.0875423,0.0135628,0,0,0,-0.0758124,-0.0453384,0.0651888,0.409934,0.956279,0.0974374
2.75124,0.0842241,-0.255807,1.10104,0.00354678,-0.00229163,0.289126,1,0,1.2,0.0397124,-0.0870213,0.0155983,0,0,0,-0.0744695,-0.0479346,0.0640538,0.409213,0.955968,0.096918
2.78723,0.0853905,-0.26239,1.10141,0.00341971,-0.00206242,0.294945,1,0,1.2,0.0378686,-0.0867714,0.0168684,0,0,0,-0.0753581,-0.0518481,0.0609942,0.405524,0.956598,0.0961658
2.81923,0.0865267,-0.2686,1.10172,0.00309978,-0.00219527,0.300874,1,0,1.2,0.0357599,-0.0874432,0.0158276,0,0,0,-0.0763599,-0.0538316,0.0595385,0.406159,0.957204,0.0957893
2.85118,0.0876608,-0.274477,1.10196,0.00287465,-0.00238723,0.303878,1,0,1.2,0.0355515,-0.0888621,0.0141509,0,0,0,-0.0761506,-0.0576438,0.0561118,0.411191,0.957764,0.0967503
2.88722,0.0891102,-0.28138,1.10223,0.00278315,-0.00241643,0.309861,1,0,1.2,0.0354401,-0.0874962,0.0120002,0,0,0,-0.078767,-0.0630221,0.0533047,0.412417,0.958359,0.0951608
2.91926,0.0903102,-0.286616,1.10248,0.00266155,-0.0018136,0.316111,1,0,1.2,0.0368238,-0.0890617,0.0115159,0,0,0,-0.0804743,-0.0654391,0.0533715,0.413276,0.958746,0.0970598
2.95127,0.0915576,-0.291581,1.10269,0.00262738,-0.00167028,0.319161,1,0,1.2,0.0386416,-0.0892743,0.0109199,0,0,0,-0.0864246,-0.0701311,0.0513741,0.410555,0.959039,0.0978893
2.98777,0.0927886,-0.296337,1.10287,0.00205831,-0.00153964,0.326124,1,0,1.2,0.0382332,-0.0890843,0.0100631,0,0,0,-0.0892291,-0.0751116,0.0520629,0.415054,0.959313,0.0974631
3.02056,0.0943228,-0.301929,1.10315,0.00185792,-0.00138344,0.332807,1,0,1.2,0.0375537,-0.0891745,0.0119955,0,0,0,-0.0906955,-0.0770345,0.0499343,0.413887,0.959579,0.0975001
3.05157,0.0952627,-0.30509,1.10336,0.00168617,-0.00129493,0.335389,1,5.23478e-05,1.2,0.0385154,-0.0867082,0.0136905,-1.3703e-07,0.00523538,0,-0.0886947,-0.0784056,0.0510539,0.413556,0.959688,0.100621
3.0876,0.0967828,-0.310129,1.10376,0.00135372,-0.00149934,0.342411,1,0.000471207,1.2,0.0382126,-0.0856809,0.0136274,-3.70072e-06,0.0157074,0,-0.0874815,-0.0800678,0.0513703,0.414737,0.959967,0.109205
3.11954,0.097976,-0.313952,1.1041,0.000867698,-0.00192097,0.349302,1,0.00130915,1.2,0.0372745,-0.0854812,0.0139106,-1.71378e-05,0.0261815,0,-0.087832,-0.080565,0.0496841,0.413948,0.96033,0.118544
3.15153,0.0991009,-0.317588,1.10446,0.000829268,-0.00219027,0.352683,0.999999,0.00188474,1.2,0.0352876,-0.083318,0.0134574,-2.96037e-05,0.0314141,0,-0.0798441,-0.0781612,0.0498334,0.422351,0.960629,0.120797
3.18757,0.0984223,-0.32482,1.10498,0.00134254,-0.00253546,0.360434,0.999997,0.00335189,1.2,0.0343328,-0.0831227,0.0154104,-7.0211e-05,0.0418932,0,-0.0783468,-0.0791946,0.0478949,0.41806,0.964138,0.130576
3.21948,0.0978376,-0.331582,1.10568,0.00169911,-0.00230198,0.366881,0.999993,0.00523592,1.2,0.030739,-0.0832196,0.0175065,-0.000137075,0.0523594,0,-0.0807143,-0.0800615,0.0447981,0.415772,0.967588,0.140148
3.25167,0.0973068,-0.337961,1.10657,0.00176083,-0.00230296,0.370371,0.99999,0.00633517,1.2,0.0283302,-0.0834497,0.0231482,-0.000182435,0.0575939,0,-0.0722738,-0.0799423,0.0443773,0.426239,0.970622,0.145747
3.28776,0.0967452,-0.345469,1.10782,0.00186089,-0.00208359,0.377462,0.99998,0.0088496,1.2,0.0257633,-0.085133,0.0251347,-0.0003012,0.0680703,0,-0.0744944,-0.0837461,0.0425468,0.430033,0.974614,0.157424
3.31966,0.0963947,-0.351102,1.10907,0.00163706,-0.00103693,0.384845,0.999965,0.011783,1.2,0.0245364,-0.0861446,0.0332068,-0.000462758,0.0785454,0,-0.0778569,-0.08671,0.0397123,0.423956,0.977954,0.169854
3.35162,0.096125,-0.356434,1.1105,0.00167222,-0.000608972,0.388307,0.999955,0.0134039,1.2,0.0240906,-0.0861158,0.0369309,-0.000561456,0.0837734,0,-0.0784979,-0.0898752,0.0414344,0.429552,0.980662,0.175596
3.3888,0.0959312,-0.362723,1.11249,0.00132606,0.000570361,0.395379,0.999928,0.0169641,1.2,0.023165,-0.0856281,0.0408222,-0.000799408,0.0942436,0,-0.084017,-0.0966949,0.0415078,0.432635,0.984394,0.185996
3.42068,0.0959118,-0.36627,1.11383,0.00101244,0.00228444,0.403858,0.99989,0.0209437,1.2,0.0242405,-0.0853095,0.0470515,-0.00109661,0.104714,0,-0.0864016,-0.0999828,0.0408252,0.430379,0.987187,0.197395
3.45301,0.095937,-0.370775,1.11578,0.000889099,0.00294929,0.406785,0.999867,0.0230893,1.2,0.0251037,-0.0835607,0.0525945,-0.00126937,0.109946,0,-0.0915287,-0.10544,0.0420317,0.42322,0.989601,0.202254
3.48956,0.0960435,-0.376134,1.11844,0.000690543,0.00452604,0.414394,0.999808,0.0276978,1.2,0.0248581,-0.0831016,0.0577489,-0.0016678,0.120417,0,-0.0946625,-0.115512,0.0421927,0.423834,0.993239,0.21321
3.52146,0.096179,-0.380163,1.1207,7.57365e-05,0.00592911,0.42241,0.999732,0.0327234,1.2,0.0228428,-0.0835937,0.0641408,-0.00214174,0.130882,0,-0.0932094,-0.121788,0.0391642,0.418312,0.996581,0.225251
3.55316,0.0963584,-0.383944,1.12314,-2.3341e-05,0.00680916,0.426377,0.999687,0.035393,1.2,0.0226616,-0.0810887,0.068605,-0.00240911,0.136113,0,-0.088647,-0.128973,0.0385455,0.418556,0.998876,0.229155
3.58963,0.0955775,-0.390227,1.12521,-0.000109815,0.0087146,0.435388,0.999579,0.0410475,1.2,0.0225607,-0.0778828,0.0712131,-0.00300895,0.146577,0,-0.0838424,-0.141196,0.0342117,0.415295,1.00439,0.23687
3.62143,0.0949642,-0.396114,1.12735,-0.000443238,0.00977888,0.442756,0.999445,0.0471203,1.2,0.0239432,-0.0778391,0.0723369,-0.00370085,0.157037,0,-0.0782736,-0.146036,0.0327299,0.415605,1.00986,0.247313
3.65346,0.0945016,-0.401526,1.12943,-0.000546896,0.0102957,0.446876,0.999367,0.0503127,1.2,0.0242449,-0.0771723,0.0720392,-0.00408328,0.162265,0,-0.0710651,-0.155955,0.029265,0.416516,1.01386,0.251639
3.6893,0.0942289,-0.407644,1.13214,-0.000655611,0.0113339,0.455562,0.999187,0.0570116,1.2,0.0262275,-0.0721457,0.0710283,-0.00492543,0.172717,0,-0.0625911,-0.16938,0.0258128,0.418519,1.01954,0.256852
3.72168,0.0942116,-0.412121,1.13434,-0.000894888,0.0125278,0.463987,0.998969,0.0641982,1.2,0.0294252,-0.0667299,0.0723948,-0.0058856,0.183263,0,-0.0564355,-0.17613,0.0241734,0.418873,1.02459,0.262648
3.75305,0.0943912,-0.416254,1.13654,-0.00124273,0.0132776,0.469644,0.998849,0.0678455,1.2,0.0318903,-0.0653967,0.0708202,-0.0063943,0.188387,0,-0.0542968,-0.18421,0.0229921,0.41977,1.02782,0.266247
3.78883,0.0947418,-0.420029,1.13882,-0.00154007,0.0143098,0.477814,0.998571,0.0755898,1.2,0.0358364,-0.0618487,0.0707959,-0.00751996,0.198826,0,-0.044981,-0.197434,0.0202446,0.420339,1.03261,0.273574
3.82624,0.0952981,-0.423478,1.1412,-0.00158855,0.0148965,0.487259,0.998246,0.0837498,1.2,0.0382136,-0.0580687,0.0744172,-0.00877018,0.209254,0,-0.038296,-0.204059,0.0183815,0.41899,1.03733,0.281437
3.85387,0.0960324,-0.426651,1.14368,-0.00190496,0.0152622,0.492119,0.998064,0.0879898,1.2,0.0419085,-0.0546409,0.0751421,-0.0094447,0.214469,0,-0.0354215,-0.210759,0.0176192,0.418302,1.04004,0.284084
3.88971,0.0972806,-0.430241,1.14691,-0.00232535,0.0161513,0.502236,0.997657,0.0967766,1.2,0.0465417,-0.0527463,0.0786681,-0.0108946,0.224885,0,-0.0239031,-0.225519,0.0137017,0.411735,1.04463,0.294222
3.92142,0.098505,-0.432831,1.1496,-0.00255694,0.016956,0.51291,0.99719,0.105979,1.2,0.0531284,-0.0499361,0.0814723,-0.0124853,0.235288,0,-0.0152681,-0.23086,0.013351,0.412555,1.04904,0.303802
3.95324,0.0998899,-0.435093,1.15228,-0.00285274,0.0171921,0.51948,0.996932,0.110742,1.2,0.0566706,-0.0441688,0.083628,-0.0133367,0.240491,0,-0.0190893,-0.234364,0.0127513,0.40666,1.05114,0.304838
3.98929,0.100165,-0.440068,1.155,-0.00339176,0.0176175,0.530573,0.996363,0.120564,1.2,0.0591623,-0.0391218,0.0846333,-0.0151505,0.25087,0,-0.00572843,-0.244108,0.0104397,0.404173,1.05807,0.311096
4.02109,0.100669,-0.444529,1.15768,-0.00362132,0.01759,0.542047,0.995718,0.130805,1.2,0.0611661,-0.0378942,0.082339,-0.0171222,0.261237,0,0.000906457,-0.248849,0.00718671,0.406142,1.06485,0.319982
4.05295,0.101329,-0.448468,1.16022,-0.00359057,0.0174668,0.546535,0.995365,0.136082,1.2,0.062009,-0.032724,0.0789496,-0.0181693,0.266416,0,0.0156635,-0.251887,0.00473164,0.420124,1.06892,0.319603
4.08885,0.102418,-0.452719,1.1633,-0.00378962,0.0175564,0.558359,0.994594,0.146945,1.2,0.0631908,-0.0276483,0.0749913,-0.0203892,0.276756,0,0.0362104,-0.26543,-0.00439952,0.425592,1.0756,0.324456
4.1207,0.103529,-0.455564,1.1658,-0.00398298,0.0181908,0.570627,0.993732,0.158223,1.2,0.0662257,-0.0205605,0.0748926,-0.0227824,0.287076,0,0.0451508,-0.271163,-0.00944693,0.425988,1.08183,0.328895
4.15256,0.104867,-0.457965,1.1684,-0.00395027,0.0186467,0.576835,0.993263,0.164016,1.2,0.0708705,-0.0136357,0.0762838,-0.0240461,0.292228,0,0.0449242,-0.267859,-0.0107007,0.428371,1.08495,0.329213
4.1886,0.106813,-0.460452,1.17178,-0.00429892,0.0198432,0.590766,0.992249,0.175911,1.2,0.0739187,-0.0085226,0.078469,-0.026711,0.30251,0,0.061662,-0.277652,-0.0182572,0.432777,1.09076,0.336192
4.22035,0.108125,-0.461695,1.17392,-0.00454689,0.0207302,0.603454,0.991124,0.188214,1.2,0.0773135,-0.0034228,0.0833522,-0.0295644,0.312763,0,0.0698606,-0.281503,-0.0230901,0.43105,1.0967,0.344012
4.25231,0.110096,-0.463107,1.17694,-0.00461074,0.0213295,0.608691,0.990518,0.194521,1.2,0.0812807,-0.000660386,0.0886661,-0.0310643,0.317879,0,0.0670116,-0.27899,-0.0266043,0.428581,1.09916,0.349214
4.28897,0.112869,-0.46441,1.18094,-0.00490416,0.0224653,0.621628,0.989213,0.207445,1.2,0.0865119,0.00242024,0.0943561,-0.0342148,0.32809,0,0.0825997,-0.291308,-0.0366207,0.424325,1.10441,0.359915
4.32041,0.115314,-0.465034,1.18433,-0.00524059,0.0234426,0.635279,0.987778,0.22077,1.2,0.0926442,0.0100115,0.102421,-0.0375684,0.33826,0,0.09277,-0.294516,-0.039524,0.421646,1.10985,0.367685
4.35231,0.11794,-0.465277,1.18787,-0.0055419,0.0239979,0.642107,0.987009,0.227583,1.2,0.0958523,0.0176018,0.108077,-0.0393234,0.343329,0,0.0821943,-0.290687,-0.0396193,0.408088,1.11152,0.368851
4.38825,0.119095,-0.469689,1.19043,-0.00586404,0.0247564,0.655867,0.985363,0.241521,1.2,0.0989328,0.0242695,0.110678,-0.0429963,0.353441,0,0.097155,-0.296154,-0.0463652,0.409201,1.12086,0.375163
4.42075,0.120506,-0.473434,1.19308,-0.00578893,0.0247243,0.669775,0.983567,0.255859,1.2,0.0996192,0.0275421,0.11139,-0.0468885,0.363507,0,0.104992,-0.298665,-0.0514134,0.41227,1.12995,0.383072
4.45261,0.122187,-0.476515,1.19577,-0.00607954,0.0249731,0.678249,0.982608,0.263181,1.2,0.102153,0.0324342,0.109723,-0.0489195,0.368523,0,0.119551,-0.299207,-0.0580639,0.422195,1.13468,0.38447
4.48988,0.12455,-0.47954,1.19919,-0.00610087,0.0255697,0.691026,0.980567,0.278124,1.2,0.104863,0.0385643,0.108295,-0.0531535,0.378515,0,0.141986,-0.309656,-0.0681608,0.429552,1.14316,0.390209
4.52163,0.126688,-0.481312,1.20206,-0.00642132,0.0265457,0.705431,0.978353,0.293463,1.2,0.106988,0.0448586,0.109742,-0.0576215,0.38845,0,0.154283,-0.314619,-0.0722278,0.428461,1.15135,0.396478
4.55345,0.129052,-0.482546,1.20511,-0.00713455,0.0276214,0.714301,0.977178,0.301279,1.2,0.109035,0.051718,0.11143,-0.0599446,0.393394,0,0.165075,-0.310685,-0.0700154,0.43925,1.15487,0.397131
4.5894,0.131643,-0.483318,1.20837,-0.00734466,0.0294318,0.727597,0.974684,0.317213,1.2,0.112778,0.0566824,0.115031,-0.064776,0.403238,0,0.190601,-0.31902,-0.07334,0.443971,1.1626,0.406027
4.62148,0.134399,-0.483625,1.21201,-0.0078604,0.0316283,0.743809,0.971992,0.333536,1.2,0.115729,0.0620428,0.122428,-0.0698556,0.413012,0,0.20515,-0.322572,-0.0753111,0.444663,1.17024,0.415463
4.65334,0.13736,-0.483444,1.21597,-0.00818401,0.0327043,0.7497,0.970567,0.341858,1.2,0.117259,0.0683777,0.13247,-0.0724947,0.41788,0,0.20365,-0.315426,-0.074312,0.44128,1.17287,0.419174
4.68922,0.141424,-0.482579,1.22137,-0.00874666,0.0353154,0.764555,0.967561,0.358756,1.2,0.122677,0.0754723,0.141666,-0.0779553,0.427538,0,0.226889,-0.324927,-0.079032,0.433854,1.17932,0.42927
4.72298,0.14492,-0.481408,1.22614,-0.00911694,0.0382487,0.779544,0.964329,0.376047,1.2,0.129053,0.0843951,0.153612,-0.0836815,0.43712,0,0.245705,-0.328342,-0.0796077,0.435127,1.18632,0.439622
4.75666,0.14862,-0.479766,1.2312,-0.00930353,0.0396176,0.787132,0.960863,0.393722,1.2,0.132127,0.0910872,0.163737,-0.0896762,0.446616,0,0.223019,-0.320043,-0.082537,0.413279,1.19319,0.449897
4.79086,0.151023,-0.480752,1.23575,-0.00979477,0.0422882,0.804282,0.959038,0.402706,1.2,0.137126,0.100699,0.17133,-0.0927771,0.451331,0,0.252725,-0.327699,-0.0801215,0.409495,1.19777,0.452938
4.82375,0.153754,-0.481013,1.24039,-0.010331,0.044231,0.819593,0.955201,0.42094,1.2,0.140993,0.109876,0.17268,-0.0991811,0.460681,0,0.274303,-0.328962,-0.0778048,0.411851,1.20726,0.458875
4.85628,0.156832,-0.480585,1.24503,-0.0105155,0.0448348,0.82578,0.9511,0.439555,1.2,0.145141,0.118464,0.171069,-0.105869,0.469932,0,0.29777,-0.335865,-0.0815416,0.405282,1.21637,0.464543
4.89103,0.161117,-0.479027,1.25089,-0.0110613,0.0469538,0.841737,0.948948,0.449001,1.2,0.15057,0.128759,0.169918,-0.10932,0.474517,0,0.32777,-0.33988,-0.0736444,0.417955,1.2184,0.464719
4.92285,0.164864,-0.476967,1.25555,-0.0115991,0.0495973,0.857732,0.944435,0.46816,1.2,0.155837,0.144308,0.166277,-0.116435,0.483597,0,0.356155,-0.344621,-0.0737122,0.416511,1.22641,0.465723
4.95501,0.168929,-0.474225,1.26022,-0.0117887,0.0512426,0.865669,0.942069,0.477879,1.2,0.160876,0.156731,0.163956,-0.120104,0.488095,0,0.357256,-0.329853,-0.0649029,0.437364,1.22796,0.464363
4.99076,0.173248,-0.470797,1.26501,-0.0123306,0.0541667,0.883064,0.937115,0.497581,1.2,0.166302,0.169795,0.164085,-0.127661,0.496992,0,0.388007,-0.333093,-0.0622261,0.424714,1.2351,0.469463
5.0225,0.179016,-0.465571,1.2713,-0.012331,0.0563667,0.898915,0.931851,0.517639,1.2,0.171544,0.18225,0.167404,-0.135518,0.505758,0,0.416829,-0.33497,-0.0585223,0.417656,1.24038,0.476412
5.05426,0.182682,-0.461895,1.27551,-0.0121504,0.0576457,0.905278,0.929099,0.527803,1.2,0.177313,0.200101,0.172506,-0.139561,0.51009,0,0.398037,-0.319558,-0.0605636,0.425649,1.24191,0.475669
5.09008,0.189224,-0.454723,1.28641,-0.0117794,0.0604528,0.921378,0.923353,0.548372,1.2,0.182065,0.213252,0.21429,-0.14787,0.518639,0,0.427274,-0.323739,-0.0573732,0.368655,1.24604,0.498034
5.12246,0.194905,-0.448014,1.29919,-0.0109906,0.0614317,0.937558,0.917267,0.569285,1.2,0.193837,0.239503,0.355422,-0.15649,0.527036,0,0.467534,-0.334194,-0.0596833,0.264568,1.25162,0.57596
5.15419,0.200913,-0.440531,1.31491,-0.0108491,0.0618605,0.945639,0.914094,0.579866,1.2,0.203432,0.259652,0.457594,-0.160917,0.531174,0,0.446939,-0.321454,-0.0536476,0.109696,1.25022,0.644878
5.18999,0.206032,-0.436656,1.33148,-0.0105708,0.0630067,0.961692,0.907475,0.601281,1.2,0.210469,0.278446,0.529712,-0.170008,0.539327,0,0.480248,-0.315944,-0.0413074,0.0274958,1.25961,0.702436
5.22183,0.211442,-0.431908,1.34763,-0.0101874,0.0633597,0.978751,0.900488,0.623012,1.2,0.214484,0.290673,0.538998,-0.179415,0.547302,0,0.503103,-0.31146,-0.0369396,0.0366552,1.26864,0.715215
5.25371,0.21708,-0.426408,1.36212,-0.00988816,0.0634784,0.984884,0.896853,0.633995,1.2,0.21813,0.300096,0.499086,-0.184237,0.551219,0,0.51524,-0.303478,-0.0479072,-0.0184304,1.26997,0.688512
5.28972,0.22446,-0.418484,1.3772,-0.00935432,0.0636464,0.999603,0.889285,0.656202,1.2,0.219758,0.309355,0.435065,-0.194127,0.558914,0,0.542409,-0.299174,-0.0494868,0.0181214,1.27606,0.650279
5.32146,0.230618,-0.411389,1.38666,-0.00856735,0.0635898,1.01449,0.881318,0.678708,1.2,0.224697,0.32176,0.34405,-0.204338,0.566407,0,0.570626,-0.301456,-0.0474296,0.0690609,1.28318,0.601909
5.35338,0.236924,-0.403667,1.39386,-0.00866599,0.0636229,1.02176,0.87718,0.69007,1.2,0.226905,0.330709,0.270852,-0.209565,0.570075,0,0.571424,-0.296292,-0.066265,0.0829474,1.2821,0.566712
5.38969,0.24345,-0.395332,1.39951,-0.00880308,0.0646308,1.03614,0.868582,0.713022,1.2,0.228411,0.339244,0.206393,-0.22027,0.57725,0,0.591671,-0.304136,-0.061448,0.119654,1.28804,0.548233
5.42157,0.250194,-0.386339,1.40393,-0.00902816,0.0660825,1.05268,0.859553,0.736249,1.2,0.232726,0.350346,0.165408,-0.2313,0.584196,0,0.60478,-0.316494,-0.0607895,0.173479,1.29349,0.545312
5.45335,0.257142,-0.376664,1.40744,-0.00926993,0.0670238,1.05872,0.854881,0.747941,1.2,0.236734,0.362718,0.129503,-0.236926,0.587573,0,0.596574,-0.321496,-0.0770292,0.145834,1.29037,0.540079
5.48932,0.266151,-0.36361,1.41156,-0.00991039,0.0699236,1.07414,0.845163,0.771604,1.2,0.240582,0.375732,0.108703,-0.248467,0.594168,0,0.590339,-0.328119,-0.0752115,0.131934,1.29179,0.546534
5.52163,0.273554,-0.352388,1.41467,-0.0109114,0.0724212,1.08958,0.834989,0.795498,1.2,0.246155,0.393572,0.105917,-0.260326,0.600499,0,0.597029,-0.339408,-0.074773,0.155661,1.29574,0.557279
5.55347,0.281185,-0.340461,1.41727,-0.0113193,0.0738418,1.09894,0.829718,0.807548,1.2,0.248853,0.409548,0.094331,-0.266385,0.603568,0,0.570398,-0.336954,-0.0923729,0.0642793,1.29074,0.558581
5.58998,0.288548,-0.328489,1.4212,-0.0119302,0.0757716,1.1133,0.818822,0.831798,1.2,0.25601,0.425793,0.0794899,-0.278738,0.609492,0,0.552366,-0.34855,-0.0934995,0.0729537,1.29475,0.570981
5.62228,0.293209,-0.32068,1.4227,-0.0125507,0.0757866,1.13134,0.807418,0.856294,1.2,0.258703,0.44166,0.0492744,-0.29143,0.615136,0,0.565557,-0.358207,-0.092873,0.0913852,1.30356,0.578938
5.65406,0.299668,-0.309584,1.4234,-0.0128272,0.075447,1.13806,0.801526,0.868622,1.2,0.261038,0.450384,0.0191753,-0.2979,0.617846,0,0.548704,-0.372582,-0.101423,0.0772766,1.29998,0.5838
5.68993,0.308079,-0.294604,1.42242,-0.0128048,0.0737089,1.15549,0.789346,0.893443,1.2,0.263377,0.46312,-0.0244463,-0.311091,0.623039,0,0.564876,-0.396326,-0.0994834,0.0929626,1.30098,0.596812
5.72232,0.315011,-0.281795,1.42026,-0.0130805,0.0712686,1.17368,0.776634,0.918461,1.2,0.264609,0.480069,-0.0736676,-0.324611,0.627914,0,0.581488,-0.406071,-0.094668,0.12926,1.30469,0.611935
5.75369,0.32206,-0.268274,1.4169,-0.0135994,0.070403,1.18484,0.770071,0.931047,1.2,0.264213,0.49286,-0.110327,-0.331497,0.63023,0,0.564482,-0.409769,-0.0964381,0.144123,1.29851,0.621219
5.7901,0.329262,-0.254067,1.41281,-0.0137898,0.0689552,1.20219,0.756536,0.956337,1.2,0.263277,0.506577,-0.13956,-0.345507,0.634605,0,0.568575,-0.420018,-0.090865,0.165551,1.30113,0.637563
5.82208,0.336597,-0.239218,1.40817,-0.0139548,0.0670096,1.2243,0.742429,0.981806,1.2,0.265037,0.519938,-0.156061,-0.35985,0.638633,0,0.576149,-0.424376,-0.0913306,0.183535,1.30343,0.654925
5.85378,0.343989,-0.223717,1.4032,-0.0141322,0.0662623,1.23456,0.735158,0.994599,1.2,0.263668,0.532643,-0.169147,-0.367144,0.640511,0,0.561786,-0.422237,-0.0949387,0.193542,1.29561,0.661943
5.88966,0.353378,-0.203383,1.39685,-0.0139915,0.0651548,1.25372,0.720177,1.02029,1.2,0.262902,0.546777,-0.175443,-0.381969,0.643988,0,0.556903,-0.425749,-0.0965917,0.202101,1.29254,0.675343
5.92159,0.360954,-0.186441,1.39191,-0.0140197,0.0643773,1.27564,0.704595,1.04612,1.2,0.261926,0.565194,-0.172416,-0.397115,0.64708,0,0.563561,-0.428339,-0.0986971,0.208815,1.29387,0.686125
5.9533,0.368589,-0.168902,1.38718,-0.0140272,0.0639333,1.28696,0.696598,1.05904,1.2,0.2609,0.577614,-0.165638,-0.404785,0.648474,0,0.544651,-0.428408,-0.103386,0.162291,1.2847,0.689633
5.98919,0.374423,-0.153568,1.384,-0.0138229,0.0624403,1.30949,0.680073,1.08506,1.2,0.260305,0.590119,-0.155231,-0.420421,0.650967,0,0.543223,-0.43232,-0.0990974,0.165458,1.28898,0.700847
6.02218,0.380334,-0.137563,1.38071,-0.0128226,0.0600044,1.33516,0.662939,1.11114,1.2,0.255094,0.599664,-0.148284,-0.436344,0.653035,0,0.550261,-0.431185,-0.0993928,0.17896,1.29297,0.709171
6.054,0.386311,-0.120926,1.37708,-0.0123357,0.0591584,1.34451,0.654159,1.12417,1.2,0.251328,0.607967,-0.151728,-0.441461,0.649587,0,0.560216,-0.422639,-0.0931622,0.186876,1.28583,0.710429
6.09434,0.39386,-0.0992885,1.37228,-0.0118285,0.0572383,1.3681,0.636297,1.15001,1.2,0.246283,0.61671,-0.157185,-0.451609,0.642572,0,0.57188,-0.420917,-0.090263,0.201731,1.28422,0.715842
6.12584,0.399892,-0.0813343,1.36847,-0.0115414,0.0562227,1.392,0.618034,1.17557,1.2,0.2402,0.628503,-0.15312,-0.461645,0.6354,0,0.586843,-0.413551,-0.0837184,0.220213,1.28677,0.718387
6.15838,0.405921,-0.0628017,1.36484,-0.0111442,0.056032,1.40398,0.599369,1.20084,1.2,0.234798,0.636978,-0.146921,-0.471569,0.628071,0,0.594158,-0.407475,-0.082482,0.230575,1.28895,0.721539
6.19305,0.411916,-0.043728,1.36176,-0.0112844,0.0564732,1.42816,0.58989,1.21336,1.2,0.229481,0.648657,-0.131241,-0.476486,0.624348,0,0.599477,-0.401229,-0.0754855,0.205484,1.27989,0.718474
6.22562,0.419389,-0.0192113,1.3588,-0.0110589,0.0572646,1.45219,0.570633,1.23819,1.2,0.224754,0.656815,-0.110628,-0.486236,0.616786,0,0.606653,-0.389216,-0.0644523,0.205345,1.27638,0.720658
6.25717,0.423881,-0.00412281,1.35739,-0.0106296,0.0574745,1.46437,0.551009,1.26268,1.2,0.220343,0.668803,-0.0861171,-0.495855,0.60908,0,0.617689,-0.384266,-0.0633302,0.19831,1.28286,0.723825
6.2927,0.431299,0.0215921,1.35529,-0.0103738,0.0580319,1.48849,0.541029,1.27485,1.2,0.217376,0.676119,-0.0760064,-0.500631,0.60516,0,0.607071,-0.378726,-0.062606,0.149759,1.2676,0.725497
6.32523,0.437125,0.0426697,1.35388,-0.0105301,0.0588153,1.51281,0.520813,1.2989,1.2,0.210654,0.687013,-0.0611891,-0.510075,0.597222,0,0.610106,-0.369005,-0.0542591,0.146045,1.26838,0.728874
6.35611,0.442865,0.0641968,1.3522,-0.0104234,0.0590927,1.52772,0.510563,1.3108,1.2,0.203747,0.696947,-0.0586098,-0.51475,0.593197,0,0.615931,-0.363991,-0.0526396,0.145134,1.25768,0.728311
6.39177,0.448409,0.0899709,1.34821,-0.0103397,0.0589824,1.55223,0.489787,1.33437,1.2,0.199265,0.706129,-0.0680414,-0.524005,0.585038,0,0.598543,-0.358076,-0.0570642,0.106369,1.25387,0.736486
6.42336,0.451734,0.105798,1.34552,-0.0103147,0.0577647,1.57485,0.468645,1.3576,1.2,0.192684,0.714778,-0.0852907,-0.533129,0.576736,0,0.589377,-0.348829,-0.0527941,0.119105,1.26035,0.74373
6.45553,0.456104,0.127268,1.34134,-0.0101501,0.0564866,1.58717,0.447143,1.3805,1.2,0.187931,0.720336,-0.0979278,-0.542121,0.568292,0,0.591724,-0.342986,-0.0509985,0.135718,1.26121,0.752119
6.4911,0.461495,0.154675,1.33502,-0.0093157,0.0532929,1.61161,0.436252,1.39183,1.2,0.180268,0.726815,-0.124783,-0.546569,0.564015,0,0.587658,-0.338557,-0.0505478,0.134257,1.24475,0.755226
6.52289,0.465704,0.17696,1.32928,-0.00910901,0.0501218,1.63669,0.41423,1.4142,1.2,0.172161,0.733777,-0.155637,-0.555354,0.555367,0,0.589208,-0.333032,-0.0400518,0.155683,1.24504,0.765069
6.55464,0.469857,0.199558,1.32303,-0.00885063,0.0481136,1.65179,0.403066,1.42527,1.2,0.166191,0.738352,-0.172275,-0.559704,0.550983,0,0.584619,-0.317838,-0.0335477,0.16906,1.23368,0.769226
6.59112,0.473885,0.222492,1.31644,-0.00910957,0.045179,1.67375,0.380501,1.44714,1.2,0.160142,0.743846,-0.187431,-0.568291,0.542122,0,0.581725,-0.307558,-0.0262832,0.177393,1.23371,0.778741
6.62219,0.477771,0.245678,1.30972,-0.0088692,0.0420593,1.69841,0.357608,1.46864,1.2,0.151756,0.748762,-0.195098,-0.576733,0.533131,0,0.584188,-0.300854,-0.0209689,0.191133,1.23374,0.784382
6.65515,0.481514,0.269086,1.30295,-0.00851123,0.0409096,1.71052,0.346026,1.47926,1.2,0.145393,0.751805,-0.19799,-0.580905,0.528583,0,0.583009,-0.283686,-0.0137949,0.195375,1.22208,0.785198
6.69074,0.486009,0.298577,1.29471,-0.00844965,0.0392529,1.7349,0.322615,1.50023,1.2,0.137213,0.755419,-0.197557,-0.589139,0.51939,0,0.582523,-0.27645,-0.0071848,0.198608,1.2164,0.788877
6.72478,0.489411,0.322306,1.28839,-0.00832084,0.0381184,1.75914,0.298898,1.52081,1.2,0.128529,0.755678,-0.189361,-0.597221,0.510076,0,0.584294,-0.271781,-0.0019255,0.205838,1.21677,0.789234
6.75424,0.492704,0.346184,1.28238,-0.00846308,0.0379083,1.77144,0.286912,1.53097,1.2,0.121303,0.758026,-0.180712,-0.601209,0.505369,0,0.576342,-0.259535,0.00191081,0.192965,1.20534,0.786458
6.79072,0.495987,0.36967,1.27698,-0.00895146,0.0373749,1.79583,0.262706,1.55099,1.2,0.115961,0.75879,-0.171453,-0.609073,0.495864,0,0.573756,-0.258059,0.00556761,0.198841,1.20659,0.790064
6.82237,0.499124,0.393262,1.27182,-0.00949824,0.0374664,1.82275,0.238189,1.57063,1.2,0.107974,0.759923,-0.1626,-0.616786,0.486236,0,0.576218,-0.256198,0.00786321,0.20673,1.20808,0.791594
6.85428,0.502784,0.422936,1.26584,-0.00981169,0.0375642,1.83256,0.225819,1.58031,1.2,0.102031,0.758735,-0.153295,-0.620585,0.481378,0,0.570612,-0.247898,0.00939088,0.196972,1.19187,0.78905
6.89009,0.505517,0.44681,1.26141,-0.0109575,0.0384373,1.85673,0.200842,1.59937,1.2,0.0930178,0.76051,-0.140339,-0.62807,0.471569,0,0.566775,-0.255126,0.0120905,0.186614,1.19373,0.789398
6.92185,0.508076,0.470773,1.25729,-0.0121041,0.0390372,1.88103,0.175575,1.61803,1.2,0.0873075,0.761404,-0.130657,-0.635399,0.461647,0,0.568707,-0.256019,0.0164547,0.196674,1.19584,0.79324
6.95378,0.510413,0.4948,1.25342,-0.0127779,0.0395348,1.89574,0.162821,1.62722,1.2,0.0795853,0.760424,-0.122498,-0.639008,0.456639,0,0.5612,-0.25525,0.0136515,0.185694,1.18577,0.789726
6.98954,0.51249,0.518906,1.24976,-0.0135595,0.0402014,1.91817,0.137124,1.64528,1.2,0.071331,0.760305,-0.116422,-0.6461,0.446548,0,0.560608,-0.261947,0.013221,0.193675,1.18832,0.791647
7.02145,0.51425,0.543118,1.24631,-0.0148874,0.0410446,1.94283,0.111136,1.66294,1.2,0.0608939,0.762063,-0.109352,-0.653036,0.436342,0,0.565661,-0.264167,0.0155205,0.202154,1.19107,0.792305
7.05367,0.515642,0.567432,1.24319,-0.0156749,0.0415202,1.95781,0.0980501,1.67161,1.2,0.0500305,0.763346,-0.102371,-0.65644,0.431203,0,0.559471,-0.266607,0.0126081,0.182432,1.1813,0.787337
7.09014,0.516886,0.597885,1.23956,-0.0166975,0.0424055,1.98058,0.0716546,1.68866,1.2,0.0369903,0.764318,-0.0940074,-0.663133,0.420838,0,0.564773,-0.273092,0.0124747,0.195418,1.1788,0.785487
7.12236,0.517482,0.622276,1.23685,-0.0174028,0.0430186,2.00627,0.0449922,1.70528,1.2,0.0229893,0.762439,-0.088053,-0.669663,0.410367,0,0.570222,-0.274869,0.0119948,0.199793,1.18216,0.781969
7.15421,0.517712,0.646745,1.23441,-0.0175889,0.0435748,2.02149,0.0315715,1.71344,1.2,0.0110137,0.763629,-0.0812382,-0.672864,0.405097,0,0.567747,-0.278769,0.00872625,0.181457,1.17275,0.776424
7.1902,0.51745,0.672497,1.23154,-0.0179225,0.04466,2.04482,0.00452538,1.72943,1.2,-0.00142307,0.764391,-0.0713875,-0.679146,0.394476,0,0.573623,-0.285547,0.00567195,0.1908,1.17524,0.775397
7.22281,0.51684,0.698153,1.22885,-0.0182096,0.0458006,2.07097,-0.022752,1.74499,1.2,-0.0128902,0.765056,-0.0666663,-0.685256,0.383764,0,0.579919,-0.286054,0.00579873,0.196676,1.17807,0.775824
7.25444,0.515871,0.72371,1.22641,-0.0179761,0.046021,2.08403,-0.0364876,1.75261,1.2,-0.0248315,0.763624,-0.0614467,-0.688249,0.37837,0,0.578823,-0.287571,5.50845e-05,0.181014,1.16809,0.769622
7.29022,0.514151,0.755586,1.22363,-0.0185144,0.0460447,2.1104,-0.0641392,1.76753,1.2,-0.0372305,0.763346,-0.0556516,-0.694108,0.367512,0,0.584532,-0.292373,-0.00085481,0.193584,1.16577,0.76894
7.32217,0.512351,0.781082,1.22165,-0.0185951,0.0461139,2.13746,-0.0920232,1.78202,1.2,-0.0517749,0.76458,-0.0500404,-0.699796,0.356562,0,0.590212,-0.292221,-0.000358228,0.196163,1.16945,0.767407
7.35398,0.510117,0.806531,1.22,-0.0184382,0.0461526,2.15356,-0.106043,1.78909,1.2,-0.0643238,0.76553,-0.0438977,-0.702574,0.351056,0,0.584855,-0.291617,-0.00350597,0.174342,1.15995,0.762285
7.38988,0.507479,0.831925,1.21857,-0.0182992,0.0463761,2.17765,-0.134256,1.80291,1.2,-0.079305,0.765776,-0.0355472,-0.708001,0.339977,0,0.588811,-0.291699,-0.0034754,0.178601,1.16404,0.76015
7.42227,0.504492,0.857227,1.21725,-0.0182828,0.0459217,2.20483,-0.162679,1.81629,1.2,-0.0901411,0.764446,-0.0315796,-0.713254,0.328815,0,0.592283,-0.28939,-0.00387624,0.181607,1.16842,0.760947
7.45417,0.50115,0.882512,1.216,-0.0180875,0.0459037,2.21847,-0.17697,1.82281,1.2,-0.102447,0.76369,-0.0304162,-0.715814,0.323203,0,0.592775,-0.282826,-0.00800554,0.174267,1.15942,0.75576
7.49014,0.496487,0.91404,1.21448,-0.0180894,0.0458565,2.24591,-0.205704,1.83551,1.2,-0.112993,0.763863,-0.0282674,-0.720803,0.311919,0,0.596134,-0.282693,-0.0102464,0.183224,1.15861,0.757948
7.522,0.492345,0.939125,1.21329,-0.0178242,0.0458078,2.27391,-0.234631,1.84776,1.2,-0.127147,0.762894,-0.0290186,-0.725613,0.30056,0,0.600343,-0.279517,-0.00893099,0.188804,1.16374,0.756807
7.55376,0.487818,0.964111,1.21216,-0.0177905,0.0457397,2.29058,-0.249164,1.85371,1.2,-0.139512,0.759053,-0.0276362,-0.727951,0.294853,0,0.5968,-0.270906,-0.0134953,0.179649,1.15528,0.750004
7.59187,0.482568,0.996872,1.21048,-0.0177277,0.0457672,2.31884,-0.278379,1.86528,1.2,-0.15115,0.758258,-0.0248256,-0.732493,0.28338,0,0.60004,-0.266048,-0.0163938,0.192825,1.15468,0.751056
7.62172,0.479059,1.01638,1.20959,-0.0176007,0.0459132,2.3444,-0.307765,1.87638,1.2,-0.168721,0.757027,-0.0224685,-0.736854,0.27184,0,0.603827,-0.261607,-0.0170695,0.195685,1.16567,0.747453
7.65346,0.473997,1.04223,1.20859,-0.0173306,0.0462103,2.35869,-0.322524,1.88176,1.2,-0.177719,0.755717,-0.0197897,-0.738966,0.266044,0,0.599112,-0.251653,-0.0225233,0.188719,1.1573,0.745097
7.68935,0.467035,1.07426,1.20755,-0.016727,0.0466697,2.38747,-0.352165,1.89217,1.2,-0.19091,0.753772,-0.0135794,-0.743054,0.254404,0,0.602818,-0.247464,-0.0276086,0.198556,1.15764,0.744591
7.72123,0.461009,1.09963,1.20694,-0.0164471,0.0470011,2.41896,-0.381966,1.90211,1.2,-0.204307,0.749281,-0.0089063,-0.746958,0.242702,0,0.604538,-0.242725,-0.0295259,0.202078,1.16389,0.74241
7.75315,0.454548,1.12478,1.20676,-0.0163589,0.0471433,2.43024,-0.396918,1.90691,1.2,-0.216985,0.746068,-0.00101067,-0.74884,0.23683,0,0.601228,-0.229721,-0.0358127,0.193702,1.15618,0.736339
7.78913,0.447682,1.14974,1.20691,-0.0165516,0.0479969,2.45873,-0.426952,1.91615,1.2,-0.228397,0.740666,0.00991147,-0.752469,0.225035,0,0.602485,-0.225215,-0.0397848,0.200509,1.16293,0.735272
7.82157,0.440383,1.17451,1.20746,-0.0162564,0.0488948,2.48724,-0.457114,1.92491,1.2,-0.240037,0.738749,0.0202907,-0.75591,0.213191,0,0.604809,-0.21884,-0.0420013,0.204003,1.16989,0.736714
7.85344,0.432639,1.19911,1.20837,-0.0161575,0.049577,2.50134,-0.472251,1.92911,1.2,-0.2526,0.735361,0.0289326,-0.757561,0.207246,0,0.603253,-0.203832,-0.0492539,0.19482,1.16267,0.731252
7.88969,0.422375,1.22956,1.21002,-0.0162977,0.0508025,2.52982,-0.502622,1.93717,1.2,-0.265246,0.732195,0.0396681,-0.760724,0.19532,0,0.604664,-0.195893,-0.0543762,0.200949,1.16466,0.731647
7.92149,0.413715,1.25373,1.21167,-0.0163875,0.052334,2.55843,-0.53312,1.94474,1.2,-0.279795,0.727335,0.0497292,-0.763699,0.183343,0,0.608723,-0.188707,-0.0558828,0.201875,1.17224,0.729769
7.95339,0.404662,1.27767,1.21365,-0.0164347,0.053031,2.57263,-0.548399,1.94835,1.2,-0.292114,0.723316,0.0602157,-0.765114,0.177343,0,0.605605,-0.172335,-0.062131,0.182782,1.16547,0.724873
7.98933,0.395452,1.30196,1.21564,-0.0163607,0.0546807,2.60091,-0.579059,1.9552,1.2,-0.302712,0.71804,0.0688477,-0.767805,0.165303,0,0.608979,-0.161487,-0.0673726,0.195336,1.1733,0.725651
8.02176,0.383302,1.332,1.21857,-0.0157515,0.056043,2.63203,-0.609817,1.96157,1.2,-0.315544,0.712619,0.0766116,-0.770307,0.153224,0,0.613177,-0.15266,-0.0713066,0.199871,1.176,0.724984
8.0536,0.375653,1.34989,1.22049,-0.0156382,0.0569103,2.64319,-0.625237,1.96457,1.2,-0.330734,0.709126,0.084296,-0.771487,0.147169,0,0.610526,-0.134165,-0.0776277,0.176552,1.17475,0.719142
8.08965,0.362306,1.37938,1.224,-0.0152859,0.0589269,2.67123,-0.656141,1.97022,1.2,-0.342867,0.706445,0.0893476,-0.773703,0.135033,0,0.613055,-0.119648,-0.0822957,0.192883,1.17767,0.721189
8.12146,0.351103,1.40267,1.22696,-0.0150316,0.0605578,2.69875,-0.687129,1.97538,1.2,-0.358672,0.698978,0.0944651,-0.775728,0.122864,0,0.619193,-0.110242,-0.084689,0.197782,1.18602,0.717473
8.15326,0.339386,1.42571,1.23007,-0.0149485,0.0614976,2.71242,-0.702653,1.97777,1.2,-0.373675,0.693952,0.0973147,-0.776669,0.116768,0,0.614218,-0.0902246,-0.0921291,0.173199,1.17963,0.710644
8.18925,0.327148,1.44851,1.2334,-0.0137648,0.063226,2.74198,-0.733729,1.9822,1.2,-0.388697,0.687495,0.103466,-0.778406,0.104564,0,0.617733,-0.0750569,-0.0968143,0.18466,1.18802,0.708793
8.22122,0.314405,1.4711,1.23679,-0.0128362,0.0638558,2.76842,-0.764947,1.98614,1.2,-0.403941,0.682744,0.108113,-0.779955,0.0923053,0,0.622949,-0.0629049,-0.0995659,0.191214,1.1965,0.708303
8.25307,0.301134,1.49351,1.24014,-0.012317,0.0640263,2.7788,-0.780531,1.98792,1.2,-0.419523,0.678939,0.107719,-0.780655,0.0861855,0,0.619952,-0.0382959,-0.109803,0.176722,1.18998,0.702408
8.28901,0.283819,1.5212,1.24451,-0.0113399,0.0646913,2.80446,-0.811931,1.99114,1.2,-0.435472,0.674178,0.110906,-0.781918,0.0738546,0,0.622361,-0.0220204,-0.114772,0.184782,1.1931,0.701936
8.32131,0.269427,1.54314,1.24811,-0.0108761,0.0654349,2.82949,-0.843077,1.99383,1.2,-0.453721,0.667613,0.113406,-0.782977,0.0616236,0,0.627513,-0.0119531,-0.115187,0.189468,1.20129,0.698923
8.35296,0.254567,1.5649,1.25183,-0.0103719,0.0659543,2.84197,-0.858739,1.99501,1.2,-0.468069,0.664121,0.117356,-0.783437,0.0554731,0,0.619609,0.00734315,-0.124252,0.161268,1.19463,0.695472
8.38888,0.238949,1.58772,1.25476,-0.009333,0.0665651,2.86661,-0.890101,1.99698,1.2,-0.481566,0.658784,0.120082,-0.784212,0.0431573,0,0.621828,0.0230112,-0.127232,0.17134,1.20218,0.696427
8.42127,0.222904,1.61023,1.25769,-0.00862382,0.0664714,2.89269,-0.921475,1.99846,1.2,-0.49464,0.653999,0.118228,-0.784793,0.0308367,0,0.626405,0.0328263,-0.127735,0.178877,1.20981,0.697494
8.45483,0.206433,1.6324,1.26053,-0.00835516,0.066729,2.90205,-0.937176,1.99901,1.2,-0.508983,0.648691,0.113514,-0.785011,0.0246708,0,0.62238,0.0531083,-0.136261,0.165618,1.20246,0.691721
8.48913,0.185244,1.65968,1.26398,-0.00813867,0.066972,2.9249,-0.968589,1.99975,1.2,-0.522769,0.642743,0.109548,-0.785301,0.0123353,0,0.623921,0.0634199,-0.134794,0.17411,1.20461,0.691619
8.5214,0.167837,1.68116,1.26666,-0.00736283,0.0670827,2.94744,-0.999998,2,1.2,-0.540013,0.635566,0.10351,-0.785398,8.3429e-07,0,0.628674,0.0687091,-0.129828,0.185398,1.21241,0.689109
8.55338,0.150016,1.70233,1.26935,-0.00714131,0.0672223,2.95861,-1.0157,1.99994,1.2,-0.551779,0.628833,0.101573,-0.785374,-0.00616656,0,0.6189,0.0783284,-0.135554,0.160195,1.20511,0.684184
8.58935,0.131801,1.7232,1.272,-0.00748876,0.0670957,2.98258,-1.04714,1.99944,1.2,-0.564992,0.622912,0.0990181,-0.78518,-0.0185127,0,0.619713,0.0823288,-0.133939,0.170839,1.21301,0.685356
8.6212,0.113161,1.74378,1.27451,-0.00753726,0.067072,3.00369,-1.07852,1.99846,1.2,-0.577797,0.615905,0.0952574,-0.784793,-0.0308343,0,0.622811,0.0869592,-0.133094,0.180402,1.22087,0.685706
8.65311,0.0940633,1.76411,1.27695,-0.00736816,0.0669938,3.01213,-1.09421,1.99778,1.2,-0.591407,0.60956,0.0917014,-0.784526,-0.0369981,0,0.619179,0.0949902,-0.135133,0.165182,1.21348,0.680985
8.68966,0.0696005,1.7892,1.28,-0.00750601,0.0670833,3.03264,-1.12555,1.99606,1.2,-0.605779,0.605848,0.0871344,-0.783849,-0.049303,0,0.618978,0.0939849,-0.133023,0.172546,1.21555,0.684489
8.72152,0.0495957,1.80889,1.28241,-0.00738023,0.0674681,3.0525,-1.15692,1.99383,1.2,-0.621375,0.596261,0.0844351,-0.782977,-0.0616216,0,0.624111,0.0942251,-0.128623,0.180181,1.22339,0.682681
8.75348,0.0291922,1.82826,1.28476,-0.00763351,0.0677281,3.06246,-1.17257,1.99254,1.2,-0.634405,0.587647,0.082064,-0.782469,-0.0677684,0,0.615108,0.0937073,-0.131613,0.152006,1.2159,0.676925
8.79134,0.0066592,1.84947,1.2865,-0.00841551,0.0677838,3.08383,-1.20384,1.98958,1.2,-0.646202,0.579828,0.0803272,-0.781308,-0.080049,0,0.617567,0.0889456,-0.128638,0.163205,1.22165,0.678339
8.82142,-0.0161618,1.87017,1.28809,-0.00892186,0.0674789,3.10356,-1.23507,1.98614,1.2,-0.660546,0.572771,0.0743929,-0.779954,-0.0923129,0,0.623164,0.0875373,-0.124784,0.174593,1.22758,0.679801
8.85327,-0.039286,1.89042,1.28949,-0.00887489,0.0674017,3.11117,-1.25066,1.98423,1.2,-0.674436,0.564964,0.0668429,-0.779205,-0.0984354,0,0.615676,0.0832814,-0.128979,0.150839,1.2183,0.67494
8.88918,-0.0685757,1.91509,1.29114,-0.00974944,0.0670519,3.13057,-1.2818,1.98005,1.2,-0.687742,0.55731,0.0602828,-0.777563,-0.110664,0,0.617588,0.0720846,-0.123422,0.159078,1.21838,0.676677
8.92126,-0.0923426,1.9343,1.2923,-0.0105613,0.0665475,-3.13356,-1.31289,1.97537,1.2,-0.70205,0.546725,0.0527159,-0.775727,-0.122873,0,0.623069,0.0662418,-0.116886,0.168751,1.22472,0.675699
8.95328,-0.1164,1.95305,1.29324,-0.0109046,0.0662141,-3.124,-1.32837,1.97286,1.2,-0.715002,0.536689,0.0465469,-0.77474,-0.128952,0,0.61252,0.0532486,-0.119706,0.137788,1.21572,0.669935
8.98982,-0.140705,1.97134,1.29395,-0.0115214,0.0653403,-3.10462,-1.35933,1.96746,1.2,-0.726843,0.527472,0.0397584,-0.772618,-0.14111,0,0.614513,0.0377197,-0.112825,0.146863,1.22225,0.671325
9.02156,-0.165221,1.98918,1.29431,-0.0119734,0.0638867,-3.08478,-1.39018,1.96157,1.2,-0.735503,0.517027,0.0292896,-0.770307,-0.153225,0,0.618604,0.0326526,-0.109238,0.159491,1.2289,0.671794
9.05354,-0.196208,2.01087,1.29422,-0.0125893,0.0633892,-3.07496,-1.40557,1.95845,1.2,-0.745568,0.507443,0.0177031,-0.76908,-0.159268,0,0.616877,0.0233817,-0.109652,0.155198,1.21416,0.66736
9.09069,-0.221268,2.02773,1.29388,-0.0134748,0.0623497,-3.05498,-1.43629,1.95183,1.2,-0.757947,0.494581,0.00325762,-0.766483,-0.17133,0,0.615893,0.00506572,-0.102219,0.155714,1.221,0.665974
9.12129,-0.246556,2.04414,1.29337,-0.0137819,0.061599,-3.03463,-1.4669,1.94474,1.2,-0.767386,0.485171,-0.00407818,-0.763697,-0.18335,0,0.619313,-0.00015258,-0.0958266,0.169783,1.22794,0.668544
9.15335,-0.272077,2.06007,1.29276,-0.0141044,0.0609717,-3.022,-1.48215,1.94101,1.2,-0.776529,0.473135,-0.00840953,-0.762234,-0.18934,0,0.618483,-0.00844014,-0.0962332,0.165128,1.21945,0.662682
9.18962,-0.298807,2.07661,1.29214,-0.0150333,0.0601424,-3.00272,-1.51267,1.93318,1.2,-0.786065,0.460604,-0.0128589,-0.759157,-0.201325,0,0.623571,-0.0167626,-0.0907361,0.175537,1.22578,0.6626
9.22162,-0.325677,2.09257,1.29147,-0.0155502,0.0599229,-2.98097,-1.54288,1.92491,1.2,-0.795744,0.447414,-0.0149974,-0.755911,-0.213188,0,0.630249,-0.0186722,-0.0873761,0.188606,1.23209,0.661972
9.25349,-0.352642,2.10796,1.29083,-0.0156375,0.0597078,-2.96998,-1.558,1.92058,1.2,-0.803601,0.434546,-0.0173769,-0.754211,-0.219125,0,0.631105,-0.0196093,-0.0878941,0.178214,1.22321,0.655764
9.29,-0.386601,2.12642,1.29028,-0.016372,0.0595924,-2.9475,-1.58808,1.91158,1.2,-0.809967,0.422643,-0.0138783,-0.750678,-0.23094,0,0.63827,-0.0214382,-0.0863869,0.192019,1.22387,0.656413
9.32193,-0.413949,2.14063,1.28986,-0.0166367,0.059765,-2.92472,-1.61803,1.90212,1.2,-0.822366,0.407276,-0.0118045,-0.746959,-0.242699,0,0.64601,-0.0227426,-0.0825224,0.200212,1.23076,0.654441
9.35385,-0.441454,2.15429,1.28967,-0.0166047,0.060547,-2.91063,-1.63303,1.89718,1.2,-0.829712,0.394735,-0.00748604,-0.745019,-0.24859,0,0.641402,-0.020399,-0.085648,0.174765,1.22229,0.64892
9.39091,-0.469104,2.16739,1.28973,-0.0168585,0.0614186,-2.88935,-1.66268,1.88702,1.2,-0.837086,0.380824,0.00071318,-0.741033,-0.260232,0,0.648916,-0.0183235,-0.0845887,0.183425,1.22934,0.648213
9.42273,-0.4969,2.17997,1.28986,-0.0170448,0.0614499,-2.86546,-1.69223,1.87638,1.2,-0.843682,0.367869,0.00517622,-0.736855,-0.271838,0,0.6553,-0.0151675,-0.0835563,0.188967,1.23655,0.648585
9.45452,-0.524788,2.19196,1.2901,-0.0170838,0.061648,-2.85094,-1.70694,1.87089,1.2,-0.849723,0.353287,0.00716403,-0.734697,-0.277617,0,0.657756,-0.00226766,-0.0881709,0.177798,1.22829,0.641343
9.49087,-0.559879,2.20618,1.29056,-0.017399,0.0625859,-2.82852,-1.73625,1.85955,1.2,-0.856553,0.338593,0.0107,-0.730244,-0.289125,0,0.665461,0.00953796,-0.0881645,0.191663,1.22972,0.640389
9.52306,-0.588112,2.21694,1.29108,-0.0167135,0.0639318,-2.80403,-1.76537,1.84776,1.2,-0.864887,0.321166,0.0125062,-0.725613,-0.30056,0,0.672437,0.0162851,-0.0850535,0.200431,1.23715,0.637257
9.55498,-0.61651,2.22714,1.29181,-0.0167372,0.064791,-2.79174,-1.77985,1.84169,1.2,-0.871497,0.305377,0.0197329,-0.723231,-0.306248,0,0.669175,0.0321967,-0.0916196,0.170699,1.22897,0.629648
9.59081,-0.647551,2.23872,1.29242,-0.0164361,0.0658847,-2.76676,-1.80869,1.82921,1.2,-0.878385,0.290768,0.0277287,-0.718331,-0.317571,0,0.675055,0.0466333,-0.0934505,0.18081,1.23469,0.629652
9.62275,-0.678645,2.24961,1.29312,-0.0153276,0.0668075,-2.73962,-1.83731,1.81629,1.2,-0.886858,0.27714,0.0317849,-0.713255,-0.328813,0,0.680645,0.0550263,-0.0926661,0.186421,1.24054,0.631132
9.65659,-0.717557,2.26229,1.29416,-0.0148627,0.067192,-2.7296,-1.85156,1.80965,1.2,-0.897183,0.261887,0.0331733,-0.710649,-0.334407,0,0.676998,0.0739464,-0.102774,0.163963,1.22462,0.625669
9.69038,-0.74873,2.27172,1.29504,-0.0143873,0.0681979,-2.70526,-1.87988,1.79605,1.2,-0.906939,0.244573,0.0372141,-0.705309,-0.345528,0,0.676689,0.0812935,-0.100885,0.154216,1.23077,0.624707
9.72228,-0.779981,2.28054,1.29581,-0.0140709,0.0684991,-2.68101,-1.90798,1.78202,1.2,-0.914533,0.23033,0.0339134,-0.699796,-0.356561,0,0.67889,0.0880599,-0.0974368,0.160546,1.23696,0.625862
9.7541,-0.811305,2.28879,1.29639,-0.0137283,0.0683101,-2.66902,-1.92195,1.77483,1.2,-0.922663,0.216696,0.0297022,-0.696972,-0.362049,0,0.673243,0.101156,-0.102942,0.147072,1.22759,0.621904
9.79013,-0.842702,2.29645,1.29675,-0.0132969,0.0677974,-2.64517,-1.94971,1.76013,1.2,-0.930068,0.203103,0.0223703,-0.6912,-0.372951,0,0.673597,0.110066,-0.0991865,0.152665,1.23389,0.624017
9.82317,-0.882002,2.30517,1.29672,-0.0126888,0.0669684,-2.6197,-1.97724,1.74499,1.2,-0.936322,0.188686,0.0122537,-0.685257,-0.383762,0,0.676628,0.117477,-0.0953743,0.166023,1.23398,0.625204
9.85387,-0.905618,2.30994,1.29651,-0.0126453,0.0665706,-2.61041,-1.99092,1.73726,1.2,-0.943564,0.169706,-0.00093311,-0.682222,-0.389132,0,0.670543,0.126666,-0.0970633,0.153519,1.23091,0.616929
9.89079,-0.944992,2.31714,1.29593,-0.0129127,0.0658415,-2.5875,-2.01808,1.72148,1.2,-0.946967,0.156955,-0.00827849,-0.676025,-0.3998,0,0.672698,0.139672,-0.0898119,0.171632,1.23107,0.619237
9.92218,-0.976473,2.32222,1.2952,-0.01248,0.0646565,-2.56475,-2.04499,1.70528,1.2,-0.951713,0.138328,-0.015707,-0.669663,-0.410367,0,0.678319,0.146772,-0.0856626,0.189179,1.2375,0.617143
9.9538,-1.00795,2.32667,1.29434,-0.0123232,0.0644583,-2.55337,-2.05836,1.69702,1.2,-0.954681,0.121964,-0.0217638,-0.666419,-0.415615,0,0.671925,0.156799,-0.0895771,0.175289,1.2283,0.610377
9.98966,-1.041,2.33144,1.29346,-0.0123371,0.0643467,-2.5313,-2.08489,1.68019,1.2,-0.957491,0.105207,-0.0215996,-0.659807,-0.426033,0,0.674195,0.16662,-0.0857039,0.186457,1.23393,0.609343
10.0216,-1.07393,2.33558,1.29276,-0.0122817,0.0640388,-2.50932,-2.11114,1.66294,1.2,-0.962099,0.0905549,-0.0166878,-0.653036,-0.436342,0,0.678194,0.173106,-0.0833083,0.193506,1.2397,0.61108
10.0536,-1.10676,2.33913,1.29214,-0.0120812,0.0641362,-2.49859,-2.12417,1.65416,1.2,-0.965157,0.0766221,-0.0128332,-0.649587,-0.44146,0,0.674969,0.183568,-0.0893385,0.183532,1.22996,0.606761
10.0897,-1.14766,2.34273,1.2916,-0.0119782,0.0648802,-2.47703,-2.15001,1.6363,1.2,-0.967994,0.0615315,-0.0093433,-0.642573,-0.451608,0,0.676521,0.191206,-0.0869941,0.193021,1.22969,0.607699
10.1219,-1.18023,2.34493,1.29135,-0.0120512,0.0652896,-2.45575,-2.17557,1.61803,1.2,-0.970365,0.0436455,-0.00566824,-0.635399,-0.461647,0,0.680706,0.195099,-0.0816751,0.199196,1.2359,0.606263
10.1536,-1.21273,2.34652,1.29135,-0.0121548,0.0661257,-2.44323,-2.18824,1.60875,1.2,-0.972019,0.0274185,-0.000470274,-0.631755,-0.466622,0,0.67186,0.19652,-0.0866329,0.173146,1.22649,0.599881
10.1896,-1.25325,2.34769,1.29166,-0.0121679,0.0671141,-2.42484,-2.21337,1.58989,1.2,-0.974465,0.0112687,0.00802594,-0.624347,-0.476489,0,0.673308,0.201031,-0.0837029,0.179299,1.22658,0.600462
10.2215,-1.27755,2.34794,1.2919,-0.0121071,0.0669714,-2.40448,-2.23819,1.57064,1.2,-0.977209,-0.00745166,0.0113909,-0.616787,-0.486235,0,0.67868,0.20276,-0.0773984,0.182848,1.23914,0.599389
10.2537,-1.30991,2.34772,1.29227,-0.0120215,0.0673835,-2.39426,-2.25051,1.56084,1.2,-0.98044,-0.020264,0.0132489,-0.612942,-0.491073,0,0.669312,0.203467,-0.0854921,0.159599,1.2298,0.597404
10.2896,-1.35025,2.34661,1.29285,-0.0120383,0.0678623,-2.3744,-2.27485,1.54102,1.2,-0.981613,-0.0376882,0.0154904,-0.605159,-0.500633,0,0.674318,0.207638,-0.0844234,0.168379,1.22983,0.596888
10.3221,-1.38245,2.34509,1.29315,-0.011722,0.0676898,-2.3551,-2.2989,1.52081,1.2,-0.982745,-0.0570301,0.012326,-0.597222,-0.510075,0,0.680048,0.210032,-0.0778753,0.176776,1.23612,0.595004
10.3537,-1.41456,2.34295,1.29337,-0.0115352,0.0675999,-2.34534,-2.3108,1.51056,1.2,-0.983208,-0.07348,0.00658886,-0.593196,-0.514752,0,0.670792,0.20766,-0.0852362,0.154985,1.22672,0.58896
10.3895,-1.44916,2.34053,1.29291,-0.0116287,0.0674259,-2.3259,-2.33437,1.48979,1.2,-0.982905,-0.091045,0.00442239,-0.585037,-0.524005,0,0.674111,0.209515,-0.0833819,0.167093,1.23126,0.588024
10.4215,-1.48346,2.33751,1.2923,-0.0116173,0.0667892,-2.30677,-2.3576,1.46865,1.2,-0.982482,-0.107412,-0.000382663,-0.576737,-0.533127,0,0.679307,0.212055,-0.0797923,0.179891,1.23595,0.588101
10.4534,-1.51752,2.33394,1.2916,-0.0115728,0.0665028,-2.29737,-2.36909,1.45794,1.2,-0.984067,-0.123324,-0.00678342,-0.572531,-0.537642,0,0.673789,0.210487,-0.0880501,0.166497,1.22513,0.58401
10.4894,-1.55973,2.32873,1.29074,-0.0111881,0.0656621,-2.27849,-2.39183,1.43625,1.2,-0.984432,-0.137932,-0.00942888,-0.564014,-0.546569,0,0.675638,0.209012,-0.0852993,0.176229,1.22357,0.586366
10.5212,-1.59323,2.32396,1.29004,-0.0110391,0.0652726,-2.25982,-2.41422,1.41421,1.2,-0.983293,-0.155667,-0.00964213,-0.555359,-0.555361,0,0.679409,0.206891,-0.08039,0.184672,1.22873,0.585641
10.5532,-1.62649,2.31864,1.28937,-0.0110579,0.065093,-2.24878,-2.42528,1.40306,1.2,-0.982694,-0.170929,-0.0110838,-0.550982,-0.559704,0,0.66805,0.198934,-0.0878852,0.160904,1.21833,0.581072
10.5893,-1.66776,2.31116,1.2886,-0.010767,0.06477,-2.23204,-2.44714,1.3805,1.2,-0.981166,-0.187381,-0.00951644,-0.542122,-0.56829,0,0.667738,0.195731,-0.0820106,0.167398,1.21713,0.581328
10.6211,-1.69235,2.30627,1.28809,-0.0109387,0.0638231,-2.21323,-2.46865,1.3576,1.2,-0.979019,-0.207994,-0.0117371,-0.533128,-0.576736,0,0.671312,0.19203,-0.0746275,0.173677,1.22897,0.578728
10.6531,-1.72497,2.29924,1.28732,-0.0112164,0.0632954,-2.2037,-2.47925,1.34604,1.2,-0.978013,-0.220243,-0.0141907,-0.528588,-0.5809,0,0.661285,0.186295,-0.0806195,0.151774,1.21867,0.576418
10.6901,-1.76544,2.28971,1.28607,-0.0112281,0.0623234,-2.18481,-2.50023,1.32262,1.2,-0.977197,-0.235999,-0.0190616,-0.519391,-0.589138,0,0.664804,0.182543,-0.0768711,0.166296,1.21761,0.578495
10.721,-1.79755,2.28156,1.28488,-0.0111239,0.0612271,-2.16589,-2.52081,1.2989,1.2,-0.973404,-0.254937,-0.0291255,-0.510075,-0.597222,0,0.668954,0.180757,-0.0702376,0.176046,1.22309,0.576785
10.753,-1.82936,2.27294,1.28354,-0.0111048,0.0605418,-2.15639,-2.53097,1.28691,1.2,-0.967862,-0.267251,-0.0334674,-0.505369,-0.601209,0,0.66317,0.175419,-0.0735472,0.16342,1.21305,0.571443
10.7892,-1.87115,2.26095,1.28143,-0.0111825,0.0592926,-2.13777,-2.551,1.2627,1.2,-0.963171,-0.28183,-0.0369843,-0.49586,-0.609075,0,0.667215,0.17335,-0.0694928,0.178257,1.21051,0.571696
