timestamp,drone_x,drone_y,drone_z,drone_roll,drone_pitch,drone_yaw,target_x,target_y,target_z,drone_vx,drone_vy,drone_vz,target_vx,target_vy,target_vz,distance_error,velocity_error
0.0146236,0.00182082,-0.0782377,1.19238,-0.00409479,0.00238282,-3.55616e-05,1,0,1.2,-0.0359677,0.0650283,0.00792818,0,0,0,1.00127,0.0747343
0.0502768,-0.000370073,-0.0778894,1.19299,-0.00384222,0.00254419,4.69531e-05,1,0,1.2,-0.0362808,0.0661807,0.00605801,0,0,0,1.00342,0.0757158
0.0822212,-0.00201699,-0.0773581,1.19397,-0.00388917,0.0027851,0.000149263,1,0,1.2,-0.0345682,0.0679721,0.0155396,0,0,0,1.00502,0.0778245
0.114173,-0.00357031,-0.0766685,1.19562,-0.00376645,0.0029354,3.68718e-05,1,0,1.2,-0.0330045,0.0684797,0.0361805,0,0,0,1.0065,0.0841891
0.150057,-0.00503724,-0.0758265,1.19797,-0.00368665,0.00308445,7.37193e-05,1,0,1.2,-0.0308117,0.068057,0.0586517,0,0,0,1.0079,0.0949797
0.181861,-0.00641833,-0.0748639,1.2009,-0.0038034,0.00338788,0.000145371,1,0,1.2,-0.0300796,0.0667059,0.0798466,0,0,0,1.0092,0.108305
0.213791,-0.00773254,-0.0737244,1.20425,-0.0038344,0.00360626,0.000129052,1,0,1.2,-0.0272137,0.0665485,0.0959974,0,0,0,1.01043,0.119937
0.249963,-0.00942867,-0.0748554,1.20847,-0.00349671,0.00370371,0.000120893,1,0,1.2,-0.0272386,0.068911,0.10691,0,0,0,1.01224,0.130078
0.281822,-0.0107002,-0.0759269,1.2124,-0.00339237,0.00351111,-0.000218882,1,0,1.2,-0.0250552,0.0696422,0.118545,0,0,0,1.01362,0.139752
0.313767,-0.0118847,-0.0766623,1.21762,-0.00350543,0.00365418,-0.000246727,1,0,1.2,-0.0228088,0.0695719,0.14973,0,0,0,1.01494,0.166672
0.349622,-0.0130093,-0.0770854,1.22415,-0.00340078,0.00372575,-0.000236542,1,0,1.2,-0.0223543,0.0692588,0.190711,0,0,0,1.01623,0.204125
0.381697,-0.0140923,-0.0772275,1.23203,-0.00326441,0.00356919,-8.24488e-05,1,0,1.2,-0.0218538,0.0703804,0.230815,0,0,0,1.01753,0.242294
0.413445,-0.0151125,-0.0771265,1.24121,-0.00338232,0.00361532,-2.23657e-06,1,0,1.2,-0.020893,0.0713347,0.271395,0,0,0,1.01887,0.28139
0.449396,-0.0162698,-0.0766833,1.25446,-0.00342898,0.00350698,-0.000163558,1,0,1.2,-0.019286,0.0714326,0.31028,0,0,0,1.02061,0.31898
0.481189,-0.0170884,-0.0761176,1.26651,-0.00341907,0.00390179,-0.000159327,1,0,1.2,-0.016857,0.0718942,0.358437,0,0,0,1.0221,0.365964
0.513192,-0.0178486,-0.0753503,1.27975,-0.00321432,0.00397017,-5.3501e-05,1,0,1.2,-0.0145207,0.0712622,0.397338,0,0,0,1.02375,0.403939
0.549642,-0.0185147,-0.0744054,1.29413,-0.00293154,0.00378103,0.000221209,1,0,1.2,-0.0127099,0.0720481,0.433999,0,0,0,1.02556,0.440122
0.581556,-0.0190932,-0.0733197,1.30969,-0.00310016,0.00368017,0.000156561,1,0,1.2,-0.0105564,0.071906,0.469471,0,0,0,1.0276,0.475063
0.613631,-0.0195942,-0.0720671,1.32632,-0.00309803,0.00368229,0.000219951,1,0,1.2,-0.00814792,0.0715525,0.50623,0,0,0,1.02991,0.511327
0.649473,-0.0207248,-0.0726901,1.34598,-0.00312606,0.00366162,0.000101161,1,0,1.2,-0.00770728,0.0731693,0.541974,0,0,0,1.03367,0.546945
0.682545,-0.0215886,-0.0734077,1.35922,-0.00100279,0.0084602,-0.000194916,1,0,1.2,-0.00575577,0.0705185,0.535192,0,0,0,1.03652,0.539848
0.714417,-0.0222705,-0.0738799,1.36871,0.000431059,0.0129041,-0.000287448,1,0,1.2,-0.00290686,0.068854,0.420638,0,0,0,1.03873,0.426246
0.75106,-0.0226544,-0.0742515,1.37564,0.00672095,0.0276647,-0.000717846,1,0,1.2,0.00271974,0.0659465,0.303985,0,0,0,1.04028,0.311068
0.782811,-0.0226602,-0.0745767,1.38083,0.0202369,0.0467084,-0.00105551,1,0,1.2,0.0123593,0.0595993,0.239533,0,0,0,1.0412,0.247145
0.815321,-0.0223139,-0.0749274,1.38431,0.027529,0.0558598,-0.00131461,1,0,1.2,0.0220938,0.0541679,0.178969,0,0,0,1.04149,0.188287
0.851533,-0.0211922,-0.0754894,1.38675,0.0415077,0.0677278,-0.00158219,1,0,1.2,0.0336427,0.0450252,0.129187,0,0,0,1.04087,0.140884
0.884496,-0.0198207,-0.0761026,1.38638,0.0510862,0.0707003,-0.00194033,1,0,1.2,0.0518513,0.0323594,0.0620803,0,0,0,1.0395,0.0871186
0.915054,-0.0181116,-0.0768243,1.38239,0.0535236,0.0689895,-0.0023132,1,0,1.2,0.0618543,0.0240482,-0.0314181,0,0,0,1.03717,0.0734259
0.950902,-0.0160314,-0.0776768,1.37454,0.053252,0.0614586,-0.00300244,1,0,1.2,0.0714332,0.015542,-0.163006,0,0,0,1.03384,0.178648
0.982644,-0.0135705,-0.0787037,1.3638,0.0478345,0.0512807,-0.00386773,1,0,1.2,0.0830396,0.00589744,-0.267754,0,0,0,1.02973,0.280397
1.01454,-0.0108106,-0.079859,1.35043,0.0439612,0.0444758,-0.00418574,1,0,1.2,0.0934703,-0.00340877,-0.351844,0,0,0,1.02506,0.364064
1.05052,-0.00810971,-0.082637,1.332,0.0341281,0.0293894,-0.00489416,1,0,1.2,0.100186,-0.0109948,-0.438463,0,0,0,1.02007,0.449897
1.0822,-0.00598355,-0.0851004,1.31433,0.0233705,0.0128704,-0.00501507,1,0,1.2,0.104174,-0.0194251,-0.551838,0,0,0,1.01603,0.561921
1.11402,-0.00373734,-0.0875884,1.29379,0.0196164,0.00684562,-0.00471383,1,0,1.2,0.104755,-0.0263468,-0.642455,0,0,0,1.01191,0.651473
1.15013,-0.0014088,-0.0900927,1.27124,0.0114728,-0.00606948,-0.00416328,1,0,1.2,0.104618,-0.033432,-0.717015,0,0,0,1.00797,0.725378
1.18183,0.000928217,-0.0925284,1.24844,0.00636783,-0.0124975,-0.00246886,1,0,1.2,0.105107,-0.0375931,-0.757337,0,0,0,1.00452,0.765519
1.2141,0.00306192,-0.0948812,1.22751,0.00457188,-0.0144599,-0.00123832,1,0,1.2,0.0986085,-0.0403605,-0.719584,0,0,0,1.00182,0.72743
1.25056,0.00554346,-0.0976939,1.20535,0.00197636,-0.0154502,0.00197134,1,0,1.2,0.0904758,-0.0416295,-0.643912,0,0,0,0.999258,0.651569
1.28291,0.00734218,-0.0998169,1.19162,0.000901173,-0.0136634,0.00588595,1,0,1.2,0.0825398,-0.0417115,-0.514493,0,0,0,0.997699,0.522739
1.31491,0.00896213,-0.101849,1.1817,0.00127225,-0.0124961,0.00822478,1,0,1.2,0.0747794,-0.042194,-0.393779,0,0,0,0.996426,0.403031
1.35085,0.0104302,-0.10377,1.17517,0.00223769,-0.00900774,0.0135093,1,0,1.2,0.067541,-0.0425949,-0.276898,0,0,0,0.995306,0.288182
1.38337,0.0118413,-0.105624,1.17139,0.00356255,-0.00401894,0.0191715,1,0,1.2,0.063,-0.0415985,-0.177826,0,0,0,0.9942,0.193188
1.41484,0.0132173,-0.107486,1.16959,0.00423013,-0.0008683,0.0220811,1,0,1.2,0.0596456,-0.0434597,-0.102206,0,0,0,0.993085,0.126065
1.45069,0.0166756,-0.11222,1.16675,0.00557307,0.0059589,0.0283977,1,0,1.2,0.0586037,-0.045615,-0.0493298,0,0,0,0.990266,0.0891546
1.4826,0.0197384,-0.116305,1.16422,0.00556554,0.0114657,0.0354016,1,0,1.2,0.0597309,-0.0490185,-0.0246363,0,0,0,0.987785,0.081102
1.51442,0.022744,-0.120176,1.16122,0.00530504,0.0139061,0.0388606,1,0,1.2,0.0618538,-0.0519385,-0.0418941,0,0,0,0.985381,0.0909869
1.55032,0.0257068,-0.123885,1.1575,0.00430575,0.0162946,0.0464379,1,0,1.2,0.0625914,-0.0526183,-0.0650011,0,0,0,0.983057,0.104458
1.58222,0.0287472,-0.127388,1.1532,0.00347293,0.0149114,0.0546056,1,0,1.2,0.0669677,-0.0545864,-0.0923523,0,0,0,0.980689,0.126465
1.61407,0.0318594,-0.130731,1.14838,0.00309221,0.0132016,0.0589405,1,0,1.2,0.0714289,-0.0544629,-0.109571,0,0,0,0.97829,0.141683
1.65002,0.0357794,-0.134745,1.14163,0.00263334,0.00860075,0.0693338,1,0,1.2,0.0760558,-0.0565873,-0.13033,0,0,0,0.975338,0.16116
1.6824,0.0388846,-0.137804,1.13596,0.00226379,0.00446176,0.0786399,1,0,1.2,0.0779753,-0.057635,-0.149323,0,0,0,0.973054,0.178043
1.71377,0.0419535,-0.140704,1.13016,0.00183233,0.0019754,0.0842107,1,0,1.2,0.0781671,-0.0580603,-0.155672,0,0,0,0.970839,0.183616
1.74973,0.0449826,-0.143447,1.12433,0.00138982,-0.0024135,0.0959573,1,0,1.2,0.079036,-0.0563187,-0.159853,0,0,0,0.968691,0.187007
1.78211,0.0479162,-0.146044,1.11862,0.00087487,-0.00574143,0.108329,1,0,1.2,0.0784727,-0.0554319,-0.160696,0,0,0,0.966651,0.187227
1.81417,0.0507178,-0.148483,1.11328,0.00058377,-0.00731085,0.115989,1,0,1.2,0.075851,-0.0541146,-0.153942,0,0,0,0.96473,0.179944
1.84998,0.0530649,-0.152471,1.10825,0.000140045,-0.00924298,0.12895,1,0,1.2,0.0740272,-0.0524293,-0.143648,0,0,0,0.96351,0.169893
1.88184,0.0546503,-0.15571,1.10516,0.000246839,-0.0101967,0.140677,1,0,1.2,0.0683314,-0.0531746,-0.121974,0,0,0,0.96277,0.14958
1.91376,0.0561377,-0.15877,1.10294,0.000544288,-0.0104075,0.148419,1,0,1.2,0.0648718,-0.0520279,-0.0962532,0,0,0,0.962032,0.1272
1.94975,0.0574848,-0.16166,1.10165,0.00131745,-0.0106274,0.160192,1,0,1.2,0.0591369,-0.0515923,-0.0674456,0,0,0,0.961322,0.103479
1.98165,0.0587372,-0.164444,1.1012,0.00269092,-0.0104094,0.173119,1,0,1.2,0.0542564,-0.0522239,-0.0373227,0,0,0,0.960614,0.084048
2.01369,0.0598717,-0.16711,1.10144,0.00339302,-0.0100557,0.179476,1,0,1.2,0.0503985,-0.0535893,-0.0143183,0,0,0,0.959938,0.0749455
2.04979,0.0611345,-0.170304,1.10239,0.00453124,-0.00933159,0.192168,1,0,1.2,0.0450422,-0.0541645,0.00559612,0,0,0,0.959166,0.0706676
2.08164,0.0621234,-0.172782,1.10339,0.00538012,-0.00831621,0.203922,1,0,1.2,0.0410843,-0.0557888,0.0206728,0,0,0,0.95854,0.0723027
2.11356,0.0630551,-0.17521,1.1044,0.00605345,-0.00803352,0.209601,1,0,1.2,0.0400424,-0.056811,0.023442,0,0,0,0.957968,0.0733513
2.14959,0.0639487,-0.177597,1.10526,0.0076163,-0.00714231,0.220169,1,0,1.2,0.0369839,-0.0578637,0.019338,0,0,0,0.957449,0.071344
2.18145,0.064806,-0.179955,1.10571,0.00872109,-0.00600443,0.229873,1,0,1.2,0.0350831,-0.0598686,0.0102432,0,0,0,0.957007,0.0701427
2.21339,0.0656205,-0.182297,1.10583,0.00897721,-0.00554865,0.234652,1,0,1.2,0.034261,-0.0606976,-0.00084532,0,0,0,0.956642,0.0697046
2.24997,0.0665285,-0.18779,1.10501,0.0098892,-0.0048143,0.243119,1,0,1.2,0.0319907,-0.0629421,-0.0127884,0,0,0,0.9569,0.0717541
2.28189,0.0672358,-0.192496,1.104,0.0107779,-0.00421846,0.251421,1,0,1.2,0.0285298,-0.0674101,-0.0248847,0,0,0,0.957246,0.0773131
2.31406,0.0679618,-0.197045,1.10272,0.0108963,-0.0041181,0.254271,1,0,1.2,0.0288655,-0.0698272,-0.0346011,0,0,0,0.957593,0.0831041
2.34985,0.0686863,-0.201475,1.10138,0.0108996,-0.00380978,0.261225,1,0,1.2,0.0282286,-0.0734313,-0.0408391,0,0,0,0.957948,0.0886388
2.38178,0.0695574,-0.206827,1.0997,0.0108074,-0.00317648,0.267244,1,0,1.2,0.0272903,-0.0765313,-0.0433752,0,0,0,0.958416,0.0921043
2.41363,0.0700637,-0.209942,1.09882,0.0106675,-0.00286579,0.270079,1,0,1.2,0.0261107,-0.0795482,-0.0392759,0,0,0,0.958695,0.0924785
2.44966,0.0709255,-0.215101,1.09753,0.0102489,-0.00226506,0.275006,1,0,1.2,0.0255168,-0.0812669,-0.0359323,0,0,0,0.959139,0.0924475
2.48149,0.0716348,-0.219181,1.0968,0.00998323,-0.00191287,0.280485,1,0,1.2,0.0255423,-0.0863991,-0.0280951,0,0,0,0.959454,0.0943745
2.5135,0.0723442,-0.223157,1.09631,0.00974748,-0.00170537,0.282392,1,0,1.2,0.0256739,-0.0877426,-0.0207485,0,0,0,0.959737,0.0937466
2.54944,0.0730664,-0.227044,1.09601,0.00890143,-0.00115691,0.286243,1,0,1.2,0.0252809,-0.0900285,-0.0132525,0,0,0,0.959984,0.0944451
2.58139,0.0737747,-0.230819,1.09586,0.00826564,-0.00137041,0.290011,1,0,1.2,0.0248945,-0.0898697,-0.009458,0,0,0,0.960217,0.0937323
2.61336,0.0744917,-0.234433,1.09592,0.00794182,-0.00148134,0.29129,1,0,1.2,0.0253249,-0.0900111,-0.00449913,0,0,0,0.960394,0.093614
2.64936,0.0745037,-0.241112,1.09576,0.00706037,-0.000998629,0.29392,1,0,1.2,0.0261332,-0.0885101,0.00223894,0,0,0,0.962052,0.0923147
2.68174,0.0744599,-0.246646,1.09576,0.00632426,-0.00131831,0.296505,1,0,1.2,0.0273259,-0.09013,0.010238,0,0,0,0.963496,0.0947362
2.71382,0.0744922,-0.25199,1.09592,0.00600564,-0.00143008,0.297378,1,0,1.2,0.0283159,-0.0917954,0.0144168,0,0,0,0.96483,0.0971392
2.74958,0.0745732,-0.257172,1.09616,0.00541407,-0.0013073,0.299419,1,0,1.2,0.0271954,-0.0950513,0.0170478,0,0,0,0.966093,0.100324
2.78148,0.0746709,-0.262154,1.09647,0.00435066,-0.00173362,0.300946,1,0,1.2,0.0265022,-0.0966299,0.0177423,0,0,0,0.967304,0.101757
2.81345,0.0747644,-0.266958,1.09683,0.00413268,-0.00168362,0.301771,1,0,1.2,0.0238981,-0.0969608,0.0169843,0,0,0,0.968489,0.101297
2.84951,0.0749097,-0.272755,1.09732,0.0036323,-0.0012275,0.303171,1,0,1.2,0.0229777,-0.0980519,0.0188618,0,0,0,0.969912,0.102459
2.88139,0.075064,-0.277213,1.09781,0.00297582,-0.000723971,0.30509,1,0,1.2,0.0216895,-0.0994439,0.0191585,0,0,0,0.970977,0.103569
2.91333,0.0753269,-0.281456,1.09839,0.00261978,-0.000529938,0.306167,1,0,1.2,0.0222962,-0.0979507,0.0221185,0,0,0,0.971886,0.102862
2.9494,0.0756132,-0.285474,1.09906,0.00147058,0.000730199,0.308698,1,0,1.2,0.0245575,-0.0957163,0.0251371,0,0,0,0.972715,0.101963
2.98486,0.0759222,-0.289364,1.09995,0.00090922,0.00126793,0.311555,1,0,1.2,0.0227684,-0.0947723,0.0288594,0,0,0,0.973479,0.101652
3.01384,0.0762251,-0.293112,1.10095,0.00076886,0.00150867,0.313251,1,0,1.2,0.0218079,-0.0943597,0.033523,0,0,0,0.97421,0.102485
3.04986,0.0759885,-0.300713,1.10208,0.000280569,0.00216583,0.317257,1,0.000139527,1.2,0.0212398,-0.0922353,0.0363793,-9.73739e-07,0.0139577,0,0.976677,0.114243
3.08161,0.0757682,-0.307022,1.10306,0.000263051,0.00263938,0.321168,1,0.00125691,1.2,0.0210864,-0.0920568,0.0409579,-2.63274e-05,0.0418924,0,0.9791,0.141653
3.11368,0.0756006,-0.312944,1.10416,2.61057e-05,0.00264666,0.323472,0.999999,0.00223351,1.2,0.020285,-0.0919269,0.0444857,-6.23643e-05,0.0558441,0,0.981343,0.155658
3.15041,0.0755292,-0.318564,1.10532,-0.000245588,0.00308512,0.328018,0.999994,0.0050261,1.2,0.020481,-0.0914707,0.0464055,-0.000210523,0.0837718,0,0.984028,0.18246
3.18269,0.0755019,-0.325151,1.10696,-0.000201909,0.00334338,0.332772,0.99998,0.00893513,1.2,0.0209591,-0.0909588,0.0483526,-0.000499006,0.111694,0,0.987385,0.209444
3.21449,0.0755166,-0.328883,1.10803,-0.000554357,0.00362461,0.335427,0.999951,0.0139615,1.2,0.0202366,-0.089593,0.0518879,-0.000974663,0.139618,0,0.990242,0.235966
3.25042,0.0756004,-0.334766,1.10999,-0.000939848,0.00369098,0.340792,0.999929,0.0168938,1.2,0.0192915,-0.0884817,0.0523434,-0.00129732,0.15358,0,0.993051,0.248511
3.28243,0.0757486,-0.339178,1.11176,-0.0015963,0.00436615,0.346929,0.999861,0.0235943,1.2,0.020623,-0.0863446,0.0563959,-0.00214126,0.181494,0,0.996682,0.274656
3.31428,0.0759823,-0.343343,1.11374,-0.00169248,0.00489035,0.35094,0.999813,0.0273677,1.2,0.0205197,-0.0850885,0.0611135,-0.00267496,0.195465,0,0.999164,0.288068
3.35135,0.07629,-0.347282,1.11591,-0.00218919,0.00587975,0.356828,0.999681,0.035741,1.2,0.0220704,-0.0831196,0.0651215,-0.00399223,0.223362,0,1.00321,0.314406
3.38316,0.0766638,-0.350999,1.11832,-0.00273607,0.00666685,0.364006,0.999488,0.0452327,1.2,0.0230146,-0.0815242,0.0713243,-0.00568395,0.251256,0,1.00761,0.341546
3.41508,0.0771141,-0.354466,1.12088,-0.0027164,0.0074402,0.367744,0.99922,0.055841,1.2,0.0243199,-0.0786093,0.076569,-0.00779672,0.279138,0,1.01237,0.367257
3.45091,0.0774603,-0.361398,1.12384,-0.00310094,0.00865225,0.37562,0.999052,0.0615604,1.2,0.0252211,-0.0757317,0.0805189,-0.00902485,0.293064,0,1.01687,0.379034
3.48361,0.0777775,-0.367052,1.12622,-0.00406812,0.00946394,0.385299,0.998636,0.0738433,1.2,0.0252403,-0.0729765,0.0834122,-0.0118569,0.320917,0,1.02363,0.404334
3.51613,0.0782125,-0.372267,1.1286,-0.00455701,0.00962684,0.388984,0.998097,0.0872361,1.2,0.0275478,-0.071298,0.0837328,-0.0152253,0.348728,0,1.03074,0.430422
3.55186,0.0787941,-0.377077,1.13104,-0.00551434,0.0105479,0.398755,0.997773,0.0943488,1.2,0.0299666,-0.0664545,0.0836575,-0.0171253,0.362617,0,1.03514,0.439681
3.58361,0.0795349,-0.381513,1.13351,-0.00648777,0.0123324,0.409515,0.997005,0.10941,1.2,0.0336844,-0.0647357,0.0832267,-0.021387,0.390365,0,1.04268,0.465914
3.61565,0.0804561,-0.385558,1.13593,-0.00700033,0.0131032,0.415193,0.996054,0.125578,1.2,0.0378964,-0.0613816,0.0819478,-0.0263007,0.418048,0,1.05056,0.490601
3.65128,0.081771,-0.390124,1.13892,-0.00857712,0.0147623,0.427625,0.995501,0.134077,1.2,0.0412938,-0.0567258,0.0797416,-0.0290165,0.431862,0,1.05519,0.50002
3.68524,0.0829645,-0.393327,1.14142,-0.0102097,0.0167224,0.441467,0.994223,0.151905,1.2,0.0442445,-0.0510534,0.0830453,-0.0349961,0.459433,0,1.06353,0.523232
3.71765,0.0843131,-0.396105,1.14407,-0.0109764,0.0177789,0.448567,0.992685,0.1709,1.2,0.0482806,-0.0438763,0.0867203,-0.0417668,0.486999,0,1.07227,0.545397
3.75358,0.0857717,-0.398503,1.14694,-0.012979,0.0198112,0.464188,0.991819,0.180709,1.2,0.0514724,-0.0367052,0.0907475,-0.0454173,0.5006,0,1.07667,0.553461
3.78559,0.0873627,-0.400509,1.15002,-0.0152233,0.0216905,0.480774,0.989846,0.201275,1.2,0.0545715,-0.0303543,0.0976209,-0.0533955,0.52788,0,1.08587,0.576899
3.81723,0.0890334,-0.402103,1.15335,-0.0162204,0.0226128,0.489352,0.987536,0.222932,1.2,0.0570713,-0.0221755,0.102828,-0.0622536,0.555018,0,1.09552,0.598301
3.85301,0.0899524,-0.407671,1.15805,-0.017573,0.0247948,0.507523,0.986244,0.234171,1.2,0.0596898,-0.0142346,0.109862,-0.0670275,0.568528,0,1.1032,0.606415
3.88466,0.090642,-0.412143,1.16208,-0.0184656,0.0272684,0.526793,0.983361,0.257449,1.2,0.0617491,-0.0043427,0.118435,-0.0772846,0.595393,0,1.11657,0.62693
3.91642,0.0915193,-0.41593,1.16632,-0.0189764,0.0285704,0.536684,0.980048,0.281799,1.2,0.0634429,0.00348445,0.126522,-0.088529,0.622046,0,1.13024,0.649401
3.95407,0.092614,-0.419055,1.17075,-0.0201464,0.0314232,0.557179,0.978218,0.294371,1.2,0.0661272,0.0107261,0.130377,-0.0945337,0.635281,0,1.1376,0.657935
3.98647,0.0939421,-0.421495,1.17542,-0.0214019,0.0352943,0.578888,0.974184,0.320308,1.2,0.0702906,0.0196597,0.139605,-0.107336,0.66155,0,1.15139,0.680488
4.01893,0.0955111,-0.423257,1.18033,-0.0218916,0.0372608,0.589861,0.969617,0.34729,1.2,0.0752859,0.0306473,0.145602,-0.121226,0.687519,0,1.16541,0.700926
4.05437,0.0978493,-0.424531,1.18661,-0.0231799,0.0420609,0.612443,0.964471,0.375306,1.2,0.0797033,0.0421194,0.150211,-0.136246,0.713153,0,1.17939,0.720752
4.08604,0.100051,-0.424749,1.19165,-0.0239655,0.0482259,0.636579,0.961667,0.389698,1.2,0.0881482,0.0571597,0.151827,-0.144191,0.725832,0,1.18565,0.723986
4.11757,0.102515,-0.424274,1.19653,-0.024402,0.051605,0.648695,0.955568,0.419231,1.2,0.0945112,0.0725121,0.150641,-0.160972,0.750879,0,1.19967,0.740369
4.15325,0.105269,-0.423142,1.20102,-0.025255,0.0602235,0.67361,0.95226,0.434374,1.2,0.101356,0.0861789,0.141677,-0.169819,0.763239,0,1.20529,0.74298
4.18501,0.108318,-0.421282,1.20517,-0.0262787,0.0705962,0.699347,0.945099,0.465391,1.2,0.107852,0.100118,0.128095,-0.188443,0.787597,0,1.21919,0.759491
4.2169,0.111714,-0.418598,1.20938,-0.0265911,0.0765198,0.71243,0.937168,0.497373,1.2,0.11674,0.118648,0.124705,-0.208337,0.811433,0,1.23307,0.775357
4.25255,0.115854,-0.418139,1.21457,-0.0270464,0.0928403,0.741647,0.932897,0.513719,1.2,0.127192,0.140761,0.131633,-0.218771,0.823139,0,1.23941,0.77631
4.2849,0.119671,-0.417195,1.21924,-0.0284052,0.10818,0.765557,0.923713,0.547108,1.2,0.144531,0.16948,0.14661,-0.24063,0.84609,0,1.25568,0.792239
4.31685,0.12411,-0.414769,1.22485,-0.0290733,0.1161,0.778953,0.91363,0.581396,1.2,0.159966,0.195653,0.168496,-0.263827,0.868371,0,1.27134,0.812737
4.35355,0.130758,-0.409428,1.23422,-0.0295326,0.132037,0.808886,0.908232,0.598874,1.2,0.179304,0.230895,0.20853,-0.27594,0.879245,0,1.2737,0.819201
4.38492,0.135355,-0.405009,1.24127,-0.0295716,0.142609,0.833118,0.896692,0.634475,1.2,0.206879,0.279938,0.27661,-0.301204,0.900415,0,1.28913,0.848324
4.41656,0.142241,-0.397646,1.25259,-0.0293515,0.146057,0.847004,0.884117,0.670897,1.2,0.225097,0.308475,0.322437,-0.327861,0.920749,0,1.3019,0.885781
4.45277,0.152054,-0.385966,1.26999,-0.0281008,0.149121,0.87428,0.877426,0.6894,1.2,0.250548,0.353192,0.396483,-0.341713,0.930578,0,1.29903,0.917249
4.48839,0.160836,-0.374692,1.28592,-0.0265794,0.149659,0.901685,0.863181,0.727018,1.2,0.280957,0.409807,0.477998,-0.370514,0.949541,0,1.30937,0.971704
4.51628,0.170356,-0.361877,1.30298,-0.0264146,0.149529,0.915408,0.847761,0.765362,1.2,0.302974,0.451908,0.520523,-0.400741,0.967482,0,1.31915,1.01586
4.55208,0.180587,-0.347571,1.32056,-0.0262649,0.148479,0.942821,0.839579,0.784825,1.2,0.325004,0.491134,0.544786,-0.416419,0.976059,0,1.31572,1.04003
4.58413,0.191449,-0.331888,1.33826,-0.0258559,0.146937,0.973126,0.822292,0.824167,1.2,0.345232,0.52932,0.554216,-0.448792,0.992312,0,1.32421,1.07331
4.61612,0.202805,-0.314867,1.35568,-0.0257877,0.145941,0.984207,0.803669,0.864163,1.2,0.360597,0.566096,0.551947,-0.482637,1.00735,0,1.33244,1.10018
4.65189,0.214008,-0.299641,1.37454,-0.0259873,0.143452,1.01141,0.793841,0.884384,1.2,0.373036,0.600518,0.535885,-0.500106,1.01439,0,1.32988,1.10492
4.68409,0.222926,-0.287063,1.38861,-0.0268943,0.141202,1.03834,0.773121,0.925225,1.2,0.385363,0.635869,0.505435,-0.536119,1.02743,0,1.34459,1.12157
4.71654,0.23232,-0.272807,1.40207,-0.0273297,0.139944,1.05161,0.75093,0.966563,1.2,0.390508,0.664816,0.482425,-0.573569,1.03902,0,1.35861,1.14114
4.75193,0.242153,-0.256965,1.41464,-0.0285049,0.137108,1.07855,0.739269,0.987393,1.2,0.395357,0.692805,0.452755,-0.592822,1.04424,0,1.35706,1.14236
4.78378,0.252366,-0.239533,1.42642,-0.0304802,0.135288,1.10584,0.714771,1.02935,1.2,0.399563,0.721583,0.418253,-0.632384,1.05347,0,1.36936,1.1619
4.8162,0.262936,-0.220548,1.43753,-0.0313477,0.134974,1.11971,0.688657,1.07165,1.2,0.40362,0.753255,0.392571,-0.673338,1.06101,0,1.3811,1.18687
4.85189,0.276567,-0.194681,1.45105,-0.0346953,0.136784,1.14779,0.674984,1.0929,1.2,0.40604,0.783803,0.372178,-0.694317,1.06411,0,1.37099,1.19494
4.8837,0.287764,-0.172187,1.4624,-0.0398815,0.143256,1.17628,0.646354,1.13557,1.2,0.408161,0.825428,0.36899,-0.737282,1.06891,0,1.38118,1.22779
4.91551,0.299219,-0.148026,1.47458,-0.042683,0.147655,1.19092,0.615985,1.17839,1.2,0.411191,0.863384,0.391866,-0.781533,1.07176,0,1.39108,1.27262
4.95133,0.3108,-0.122097,1.48764,-0.0488397,0.15798,1.22069,0.600129,1.19983,1.2,0.411965,0.903806,0.415845,-0.80413,1.07241,0,1.38345,1.29624
4.98328,0.322403,-0.094319,1.50192,-0.0558552,0.1679,1.25536,0.567044,1.24273,1.2,0.409008,0.949377,0.445212,-0.850235,1.07212,0,1.39237,1.34126
5.01509,0.333916,-0.064726,1.51706,-0.0577818,0.169731,1.26836,0.532095,1.28557,1.2,0.402365,0.996491,0.483927,-0.897493,1.0696,0,1.40111,1.38894
5.05109,0.348035,-0.0303324,1.535,-0.0620264,0.170883,1.30172,0.513907,1.30694,1.2,0.394024,1.04003,0.490945,-0.921535,1.06747,0,1.38854,1.40445
5.08291,0.359091,-0.00195076,1.54718,-0.0663544,0.168102,1.33933,0.476068,1.34953,1.2,0.380775,1.08146,0.442668,-0.970409,1.0614,0,1.40025,1.42199
5.11481,0.369939,0.0277205,1.55557,-0.0678703,0.165855,1.35335,0.436255,1.39182,1.2,0.370365,1.10674,0.352817,-1.02026,1.05283,0,1.41124,1.43569
5.15313,0.380564,0.0582727,1.55853,-0.0708886,0.15771,1.38874,0.415604,1.41282,1.2,0.360276,1.12193,0.202983,-1.04551,1.04757,0,1.40163,1.42231
5.18358,0.390983,0.0896569,1.55579,-0.0737429,0.147044,1.00817,0.372749,1.4545,1.2,0.351232,1.12942,0.0166052,-1.09667,1.03503,0,1.41057,1.45107
5.21542,0.401313,0.121933,1.54779,-0.0756037,0.141225,1.0266,0.327856,1.49559,1.2,0.341425,1.14121,-0.153455,-1.14853,1.01972,0,1.41891,1.50276
5.25166,0.4145,0.163557,1.53232,-0.0793572,0.13082,1.06399,0.304627,1.5159,1.2,0.337942,1.15575,-0.30933,-1.17471,1.01099,0,1.3969,1.55072
5.2835,0.425093,0.197791,1.51633,-0.0795205,0.117325,1.12632,0.256585,1.55595,1.2,0.331126,1.17976,-0.431275,-1.22747,0.991303,0,1.40466,1.62811
5.31534,0.435668,0.232582,1.49445,-0.0779605,0.107772,1.1581,0.206425,1.59516,1.2,0.324261,1.18819,-0.573117,-1.28067,0.968577,0,1.41275,1.71829
5.35117,0.44605,0.268072,1.46823,-0.077972,0.087576,1.22514,0.180539,1.61441,1.2,0.319672,1.19322,-0.769531,-1.3074,0.956038,0,1.39824,1.81543
5.38304,0.455717,0.304526,1.44272,-0.0897708,0.071075,1.29524,0.127219,1.65208,1.2,0.302085,1.21086,-0.822902,-1.36096,0.928583,0,1.4081,1.87685
5.41495,0.4642,0.341897,1.42014,-0.100402,0.0634618,1.33224,0.0716633,1.68865,1.2,0.268615,1.23078,-0.749745,-1.41468,0.897792,0,1.41996,1.87256
5.4514,0.472061,0.389005,1.39993,-0.132094,0.0556122,1.40748,0.0431045,1.70644,1.2,0.224487,1.25068,-0.656262,-1.44149,0.881148,0,1.39986,1.82831
5.48282,0.475769,0.427587,1.38882,-0.173822,0.0648997,1.48152,-0.0156274,1.74098,1.2,0.147728,1.27757,-0.525097,-1.49498,0.84528,0,1.41496,1.77794
5.51473,0.476611,0.467058,1.38275,-0.196914,0.0739454,1.52589,-0.0764918,1.77402,1.2,0.0653034,1.29698,-0.36407,-1.54812,0.805911,0,1.43089,1.72535
5.55071,0.474154,0.507392,1.38141,-0.221914,0.0890927,1.59276,-0.107735,1.78993,1.2,-0.0315481,1.31706,-0.20095,-1.57451,0.784879,0,1.42001,1.64449
5.58255,0.468327,0.548466,1.38367,-0.236963,0.107155,1.66652,-0.171748,1.82044,1.2,-0.140641,1.33708,-0.0504253,-1.62676,0.740132,0,1.43574,1.60232
5.61448,0.459744,0.590015,1.38678,-0.239081,0.116203,1.70303,-0.237852,1.84909,1.2,-0.236888,1.3511,0.0263673,-1.67818,0.691703,0,1.45148,1.58519
5.65048,0.44599,0.642229,1.38812,-0.2356,0.131802,1.77588,-0.271665,1.86267,1.2,-0.314216,1.35894,0.0210987,-1.7035,0.666099,0,1.42825,1.55261
5.68247,0.433169,0.684,1.3851,-0.224625,0.146614,1.84754,-0.34081,1.88824,1.2,-0.38506,1.36068,-0.0869318,-1.75326,0.612067,0,1.44344,1.56204
5.71439,0.41886,0.725694,1.37811,-0.216752,0.153926,1.88292,-0.41191,1.91158,1.2,-0.430334,1.35838,-0.217155,-1.80162,0.554261,0,1.45885,1.60443
5.75035,0.402577,0.767361,1.36935,-0.198223,0.167752,1.9531,-0.448191,1.92237,1.2,-0.48486,1.35662,-0.301598,-1.82521,0.523921,0,1.44448,1.60652
5.78249,0.38382,0.80913,1.36121,-0.178567,0.180009,2.02305,-0.522027,1.94205,1.2,-0.55568,1.36106,-0.316404,-1.87098,0.460481,0,1.45947,1.62516
5.81441,0.362678,0.850942,1.35391,-0.168127,0.18496,2.05785,-0.597826,1.95915,1.2,-0.633748,1.3673,-0.280255,-1.91483,0.393077,0,1.47458,1.63365
5.85038,0.339309,0.899471,1.34918,-0.14658,0.192964,2.13455,-0.636344,1.96666,1.2,-0.709556,1.37105,-0.243568,-1.93591,0.35797,0,1.45363,1.60922
5.88231,0.318489,0.93798,1.34921,-0.131906,0.196339,2.19647,-0.714595,1.97953,1.2,-0.810769,1.37609,-0.132264,-1.97622,0.284927,0,1.47457,1.602
5.91426,0.294773,0.976785,1.35202,-0.124425,0.195132,2.23088,-0.754312,1.98485,1.2,-0.888539,1.37899,-0.0250713,-1.99539,0.246992,0,1.46284,1.5834
5.95085,0.268134,1.01583,1.35797,-0.113543,0.190218,2.29808,-0.834863,1.99317,1.2,-0.963527,1.37824,0.0656939,-2.03158,0.16832,0,1.48215,1.61523
5.9828,0.238761,1.05496,1.36719,-0.105521,0.182135,2.3634,-0.916793,1.99827,1.2,-1.04071,1.37924,0.180213,-2.06468,0.0859719,0,1.50103,1.65938
6.01474,0.20712,1.0939,1.37833,-0.101204,0.175101,2.39538,-0.999995,2,1.2,-1.10725,1.37244,0.276069,-2.09439,5.37125e-06,0,1.51985,1.71296
6.0507,0.165216,1.14201,1.39133,-0.0919628,0.157895,2.45738,-1.04187,1.99956,1.2,-1.15579,1.35868,0.300686,-2.09394,-0.0438471,0,1.493,1.71394
6.08258,0.130026,1.17991,1.39999,-0.0876645,0.140705,2.51785,-1.12557,1.99605,1.2,-1.20171,1.33745,0.253307,-2.09026,-0.131501,0,1.51083,1.73537
6.11448,0.0935144,1.21706,1.40695,-0.0876749,0.132484,2.54667,-1.20904,1.98905,1.2,-1.23437,1.31571,0.206655,-2.08292,-0.218908,0,1.52822,1.76573
6.15046,0.0558116,1.25347,1.41196,-0.0899287,0.11816,2.60339,-1.25066,1.98423,1.2,-1.26156,1.29133,0.152221,-2.07788,-0.262495,0,1.51189,1.7618
6.18319,0.0168783,1.28885,1.41556,-0.0960084,0.109524,2.65693,-1.33352,1.97199,1.2,-1.28722,1.26452,0.0956977,-2.06507,-0.349265,0,1.52864,1.79402
6.21533,-0.0233524,1.32321,1.41882,-0.0997311,0.107282,2.68277,-1.41581,1.9563,1.2,-1.31813,1.22999,0.0786836,-2.04863,-0.43544,0,1.5452,1.8203
6.25095,-0.0737311,1.36127,1.42218,-0.109114,0.108379,2.73209,-1.45669,1.94716,1.2,-1.3489,1.19693,0.0758571,-2.03906,-0.478247,0,1.51829,1.81336
6.28316,-0.115365,1.38975,1.4259,-0.121969,0.115125,2.77987,-1.53783,1.92633,1.2,-1.39111,1.13943,0.104589,-2.01725,-0.563215,0,1.53699,1.81714
6.31475,-0.158513,1.41705,1.43073,-0.128582,0.119441,2.80266,-1.61802,1.90212,1.2,-1.42513,1.09078,0.140674,-1.99189,-0.647184,0,1.55521,1.83344
6.35071,-0.20327,1.44303,1.43665,-0.139216,0.131301,2.84662,-1.65773,1.88875,1.2,-1.46347,1.0399,0.172083,-1.9779,-0.68877,0,1.53952,1.81178
6.38295,-0.26151,1.47344,1.44559,-0.148681,0.145785,2.88845,-1.73623,1.85956,1.2,-1.50454,0.984243,0.205955,-1.94733,-0.770979,0,1.54409,1.82189
6.41457,-0.297745,1.4905,1.45187,-0.152841,0.15553,2.91273,-1.81346,1.8271,1.2,-1.55881,0.911673,0.248642,-1.91333,-0.851851,0,1.57293,1.81591
6.45057,-0.360549,1.51683,1.46487,-0.156839,0.171379,2.94771,-1.85154,1.80966,1.2,-1.59587,0.86458,0.285898,-1.89507,-0.891733,0,1.54239,1.80441
6.48251,-0.413044,1.53588,1.47784,-0.159556,0.189678,2.98923,-1.92659,1.77241,1.2,-1.66632,0.784283,0.374701,-1.85606,-0.97032,0,1.55691,1.80417
6.51439,-0.467554,1.55313,1.4928,-0.159488,0.195101,3.00402,-1.99999,1.73206,1.2,-1.72313,0.716555,0.442745,-1.81381,-1.04718,0,1.57038,1.82072
6.55036,-0.524074,1.56862,1.50925,-0.158894,0.205911,3.04053,-2.03605,1.71073,1.2,-1.78222,0.650657,0.49955,-1.79148,-1.08494,0,1.5498,1.80609
6.58344,-0.582344,1.58252,1.52631,-0.157948,0.213245,3.07631,-2.10676,1.66586,1.2,-1.83837,0.587368,0.532629,-1.74448,-1.159,0,1.56118,1.8282
6.61449,-0.641984,1.59498,1.54236,-0.156476,0.214357,3.09437,-2.17556,1.61804,1.2,-1.88423,0.530406,0.533022,-1.69441,-1.23104,0,1.57149,1.85009
6.65036,-0.713015,1.61143,1.55457,-0.151968,0.21171,3.12974,-2.20919,1.59307,1.2,-1.91729,0.484101,0.469514,-1.66826,-1.26626,0,1.53772,1.82927
6.68224,-0.769948,1.6239,1.55954,-0.146039,0.20364,-3.11499,-2.27483,1.54104,1.2,-1.94082,0.435633,0.326185,-1.61377,-1.335,0,1.54946,1.82989
6.71424,-0.827514,1.63568,1.55927,-0.143462,0.199164,-3.10119,-2.30683,1.514,1.2,-1.95145,0.404214,0.18101,-1.58546,-1.36851,0,1.52717,1.81914
6.75026,-0.885644,1.64674,1.55383,-0.136893,0.185565,-3.06671,-2.36909,1.45794,1.2,-1.95456,0.380899,-0.00809532,-1.52676,-1.4337,0,1.5367,1.86437
6.78306,-0.944573,1.65665,1.54572,-0.132896,0.172568,-3.03279,-2.42894,1.39933,1.2,-1.96438,0.348234,-0.14632,-1.46538,-1.49638,0,1.54566,1.91651
6.81494,-1.00445,1.66503,1.53711,-0.131572,0.166993,-3.01621,-2.48628,1.33827,1.2,-1.98095,0.30102,-0.196803,-1.40144,-1.55643,0,1.55442,1.95568
6.85084,-1.0808,1.67279,1.52911,-0.132626,0.159498,-2.98304,-2.51398,1.30685,1.2,-2.00461,0.244232,-0.186366,-1.36853,-1.58544,0,1.51533,1.94603
6.88293,-1.14305,1.67652,1.52682,-0.136829,0.156173,-2.95031,-2.56738,1.24231,1.2,-2.03489,0.157776,-0.0740987,-1.30094,-1.64135,0,1.52449,1.94449
6.915,-1.20624,1.67799,1.52841,-0.138883,0.154255,-2.93333,-2.61803,1.17557,1.2,-2.05883,0.0846986,0.0451004,-1.23106,-1.6944,0,1.53409,1.96276
6.95085,-1.27014,1.67719,1.53314,-0.144416,0.150206,-2.89893,-2.64229,1.14143,1.2,-2.07791,0.011237,0.153592,-1.19531,-1.71981,0,1.51024,1.94913
6.98282,-1.33449,1.67433,1.53922,-0.152452,0.146749,-2.86321,-2.68865,1.07166,1.2,-2.08916,-0.0602359,0.227553,-1.12224,-1.76835,0,1.52054,1.97595
7.01469,-1.39906,1.66978,1.54434,-0.156793,0.144672,-2.84471,-2.73204,1.00001,1.2,-2.09276,-0.120973,0.228116,-1.04721,-1.81379,0,1.53101,2.00271
7.05252,-1.48011,1.66276,1.54486,-0.166392,0.140666,-2.80713,-2.75257,0.963586,1.2,-2.0921,-0.169716,0.166267,-1.00906,-1.83529,0,1.49229,1.99367
7.08395,-1.54498,1.6557,1.5419,-0.177519,0.13846,-2.76846,-2.79142,0.889284,1.2,-2.0854,-0.225296,0.0564916,-0.931257,-1.87597,0,1.50263,2.01493
7.11594,-1.60969,1.64724,1.53586,-0.183262,0.137371,-2.74871,-2.82709,0.813479,1.2,-2.07787,-0.270624,-0.0406378,-0.851873,-1.91332,0,1.51328,2.05016
7.15173,-1.67418,1.63736,1.52682,-0.194159,0.13456,-2.70852,-2.84372,0.775039,1.2,-2.06683,-0.315011,-0.149425,-0.811619,-1.93074,0,1.48938,2.05146
7.1838,-1.73827,1.62577,1.51575,-0.205462,0.132095,-2.66603,-2.87456,0.69716,1.2,-2.05327,-0.363317,-0.240617,-0.730064,-1.96303,0,1.50106,2.08995
7.21547,-1.80189,1.61242,1.50293,-0.210722,0.130496,-2.64402,-2.90211,0.618046,1.2,-2.03545,-0.419487,-0.301171,-0.647217,-1.99188,0,1.51361,2.11904
7.25139,-1.88057,1.5928,1.48523,-0.222089,0.128109,-2.5993,-2.91463,0.578079,1.2,-2.01566,-0.477499,-0.358929,-0.605362,-2.005,0,1.47658,2.10975
7.28322,-1.94258,1.57441,1.47125,-0.233914,0.128367,-2.54809,-2.93716,0.497393,1.2,-1.98334,-0.566996,-0.386088,-0.520869,-2.02859,0,1.49089,2.10337
7.31517,-2.00354,1.55345,1.45786,-0.237476,0.128933,-2.52909,-2.95629,0.415836,1.2,-1.95105,-0.644454,-0.375811,-0.435463,-2.04862,0,1.50612,2.09998
7.35117,-2.0633,1.52985,1.4454,-0.245596,0.131592,-2.48009,-2.96457,0.37478,1.2,-1.91395,-0.727625,-0.354157,-0.392469,-2.05729,0,1.4855,2.05143
7.383,-2.1216,1.50336,1.43436,-0.252119,0.136811,-2.42977,-2.97854,0.292182,1.2,-1.86927,-0.813245,-0.321118,-0.305972,-2.07192,0,1.50207,2.03255
7.4149,-2.17849,1.47416,1.4245,-0.254541,0.140286,-2.40384,-2.98904,0.209063,1.2,-1.82263,-0.902195,-0.28216,-0.21893,-2.08292,0,1.51916,2.01136
7.45199,-2.25132,1.43444,1.4151,-0.258806,0.148517,-2.35129,-2.99299,0.16736,1.2,-1.77456,-0.986771,-0.251294,-0.175259,-2.08705,0,1.48386,1.95743
7.48282,-2.30818,1.39946,1.40994,-0.26187,0.159908,-2.29846,-2.99824,0.0837705,1.2,-1.70946,-1.10255,-0.189297,-0.0877243,-2.09256,0,1.50043,1.90945
7.51483,-2.36307,1.36153,1.40622,-0.261776,0.165966,-2.27147,-3,1.3689e-05,1.2,-1.65521,-1.19334,-0.13695,-1.43351e-05,-2.0944,0,1.51721,1.88953
7.55086,-2.42889,1.31008,1.40353,-0.260021,0.176776,-2.21646,-2.99956,-0.041871,1.2,-1.60045,-1.2838,-0.0915987,0.0438472,-2.09394,0,1.4815,1.83532
7.58269,-2.46684,1.27709,1.40289,-0.256421,0.185074,-2.15962,-2.99605,-0.125572,1.2,-1.52922,-1.39418,-0.035878,0.131499,-2.09026,0,1.51284,1.80106
7.61469,-2.51573,1.23095,1.40225,-0.253779,0.188063,-2.13054,-2.98904,-0.20908,1.2,-1.48572,-1.45534,-0.0170654,0.218948,-2.08292,0,1.52925,1.81661
7.65066,-2.57411,1.17009,1.40097,-0.247205,0.190773,-2.07069,-2.98423,-0.250658,1.2,-1.42982,-1.52853,-0.0167644,0.262488,-2.07788,0,1.49235,1.77932
7.68262,-2.61856,1.1189,1.39963,-0.241597,0.190972,-2.00994,-2.97199,-0.333521,1.2,-1.35995,-1.61473,-0.0361389,0.349263,-2.06507,0,1.50807,1.76791
7.71456,-2.66109,1.06584,1.39682,-0.238698,0.189888,-1.97919,-2.9563,-0.415807,1.2,-1.30291,-1.67858,-0.0580093,0.435432,-2.04863,0,1.52354,1.77824
7.75172,-2.71167,0.997416,1.39029,-0.232493,0.186296,-1.91686,-2.94716,-0.456688,1.2,-1.24922,-1.72955,-0.118804,0.478243,-2.03906,0,1.48529,1.75899
7.78382,-2.74996,0.941064,1.38293,-0.225412,0.180916,-1.84794,-2.92633,-0.537824,1.2,-1.18127,-1.78393,-0.201701,0.563208,-2.01725,0,1.50056,1.77153
7.81447,-2.77748,0.897987,1.37592,-0.222327,0.178668,-1.82305,-2.90212,-0.618021,1.2,-1.12714,-1.82524,-0.264337,0.64719,-1.99189,0,1.53126,1.80164
7.85074,-2.82524,0.829279,1.36206,-0.213989,0.173435,-1.75481,-2.88876,-0.65772,1.2,-1.08667,-1.85241,-0.320732,0.688762,-1.9779,0,1.49715,1.80852
7.88267,-2.86142,0.773369,1.35098,-0.209087,0.172393,-1.70036,-2.85956,-0.736232,1.2,-1.01069,-1.89939,-0.356784,0.770981,-1.94733,0,1.51713,1.81768
7.91467,-2.89487,0.71585,1.34064,-0.206093,0.172007,-1.67035,-2.8271,-0.813464,1.2,-0.938189,-1.93887,-0.334229,0.851857,-1.91333,0,1.53726,1.82116
7.95133,-2.92543,0.656709,1.33167,-0.202751,0.172713,-1.61074,-2.80966,-0.851546,1.2,-0.862934,-1.97726,-0.30657,0.891737,-1.89507,0,1.51841,1.78315
7.98313,-2.95292,0.595913,1.32504,-0.202163,0.176709,-1.55159,-2.77241,-0.926579,1.2,-0.780061,-2.01854,-0.246647,0.970312,-1.85607,0,1.53825,1.77512
8.01503,-2.97716,0.533553,1.32114,-0.200986,0.179384,-1.51642,-2.73206,-0.999984,1.2,-0.690836,-2.05982,-0.164458,1.04718,-1.81381,0,1.55772,1.76303
8.05107,-3.00266,0.45347,1.32056,-0.200132,0.185127,-1.46452,-2.71073,-1.03604,1.2,-0.596836,-2.09979,-0.0797245,1.08494,-1.79148,0,1.52263,1.71166
8.08376,-3.01901,0.387817,1.32425,-0.201939,0.191886,-1.40127,-2.66588,-1.10673,1.2,-0.468639,-2.14701,0.0589382,1.15896,-1.74451,0,1.54071,1.67766
8.11492,-3.03186,0.320846,1.3313,-0.20198,0.193992,-1.37839,-2.61804,-1.17556,1.2,-0.364514,-2.18273,0.171633,1.23105,-1.69441,0,1.55812,1.67742
8.15094,-3.04133,0.252791,1.34088,-0.200449,0.198076,-1.32147,-2.59307,-1.20919,1.2,-0.263671,-2.21388,0.266146,1.26626,-1.66826,0,1.53564,1.64597
8.18279,-3.04773,0.183964,1.35153,-0.19748,0.199829,-1.26459,-2.54082,-1.2751,1.2,-0.16847,-2.23768,0.326644,1.33528,-1.61354,0,1.55203,1.66058
8.21486,-3.05153,0.114618,1.36145,-0.19526,0.199626,-1.23646,-2.48629,-1.33826,1.2,-0.0863934,-2.25041,0.330971,1.40142,-1.55644,0,1.5673,1.67473
8.2508,-3.06061,0.027872,1.36786,-0.189099,0.199234,-1.18095,-2.45753,-1.36952,1.2,-0.0191053,-2.25914,0.285225,1.43416,-1.52633,0,1.53121,1.65238
8.28272,-3.06637,-0.0418665,1.37067,-0.183817,0.200116,-1.1277,-2.39934,-1.42894,1.2,0.0609068,-2.26856,0.216939,1.49638,-1.46538,0,1.54856,1.65914
8.31461,-3.0696,-0.111872,1.37164,-0.181171,0.200118,-1.10135,-2.33828,-1.48628,1.2,0.119695,-2.27046,0.156838,1.55643,-1.40144,0,1.5663,1.68641
8.35085,-3.07028,-0.182082,1.37109,-0.17533,0.200343,-1.04969,-2.30685,-1.51398,1.2,0.177667,-2.27178,0.0908074,1.58544,-1.36853,0,1.54469,1.67509
8.38289,-3.06833,-0.252353,1.36969,-0.172195,0.199816,-0.999438,-2.2423,-1.56738,1.2,0.239525,-2.26941,0.0472334,1.64136,-1.30094,0,1.56218,1.70449
8.41478,-3.06374,-0.322618,1.36761,-0.171037,0.198754,-0.974964,-2.17561,-1.61801,1.2,0.305681,-2.26462,0.0161968,1.69437,-1.2311,0,1.57953,1.73116
8.45123,-3.05401,-0.410347,1.36533,-0.170417,0.198704,-0.922445,-2.14141,-1.64231,1.2,0.373612,-2.25641,-0.00653909,1.71982,-1.19529,0,1.54204,1.71415
8.48274,-3.04273,-0.48032,1.36505,-0.17248,0.199754,-0.880846,-2.07166,-1.68865,1.2,0.473106,-2.24704,0.0219479,1.76835,-1.12224,0,1.55893,1.71561
8.51475,-3.02828,-0.550001,1.36636,-0.173548,0.200223,-0.85819,-2,-1.73205,1.2,0.557281,-2.23511,0.0629644,1.8138,-1.04719,0,1.57553,1.7303
8.55074,-3.0106,-0.619231,1.36963,-0.175299,0.201692,-0.813694,-1.96351,-1.75261,1.2,0.643514,-2.22038,0.111957,1.83533,-1.00899,0,1.55232,1.70306
8.58267,-2.98968,-0.687883,1.37494,-0.177663,0.203459,-0.770045,-1.88928,-1.79142,1.2,0.733682,-2.20061,0.172884,1.87597,-0.931255,0,1.56821,1.71638
8.61462,-2.96571,-0.755839,1.3819,-0.178335,0.203543,-0.748539,-1.81349,-1.82709,1.2,0.821436,-2.17814,0.227545,1.91332,-0.851881,0,1.58376,1.7329
8.65081,-2.93337,-0.841192,1.392,-0.178225,0.204739,-0.706329,-1.77505,-1.84372,1.2,0.903788,-2.15236,0.267316,1.93074,-0.811627,0,1.5439,1.70987
8.68275,-2.90439,-0.908692,1.40173,-0.178658,0.206139,-0.665139,-1.69715,-1.87456,1.2,1.01137,-2.11536,0.326072,1.96304,-0.73005,0,1.55918,1.71204
8.7152,-2.87252,-0.975203,1.41229,-0.178745,0.206588,-0.644838,-1.61805,-1.90211,1.2,1.08941,-2.08726,0.356645,1.99188,-0.64722,0,1.57414,1.73648
8.75115,-2.8379,-1.0406,1.42337,-0.177194,0.206901,-0.604391,-1.57808,-1.91464,1.2,1.16601,-2.05632,0.370851,2.005,-0.60536,0,1.54952,1.7166
8.78313,-2.80067,-1.10479,1.43466,-0.176145,0.206774,-0.56456,-1.49721,-1.93721,1.2,1.23863,-2.02096,0.379292,2.02864,-0.520682,0,1.56428,1.73747
8.81508,-2.76109,-1.16779,1.44534,-0.175673,0.205785,-0.544753,-1.41584,-1.95629,1.2,1.30646,-1.9848,0.371891,2.04862,-0.435466,0,1.57849,1.75771
8.85109,-2.70835,-1.24474,1.45773,-0.175586,0.203923,-0.505287,-1.37477,-1.96457,1.2,1.36741,-1.94742,0.339828,2.0573,-0.392459,0,1.53721,1.73474
8.88295,-2.6636,-1.30479,1.4671,-0.178201,0.203213,-0.466167,-1.29218,-1.97854,1.2,1.44881,-1.89806,0.321444,2.07193,-0.30597,0,1.55115,1.73964
8.91501,-2.61676,-1.36349,1.47552,-0.179193,0.202372,-0.446803,-1.20913,-1.98904,1.2,1.50807,-1.8578,0.294245,2.08291,-0.219005,0,1.56481,1.76145
8.951,-2.56786,-1.4207,1.48312,-0.180918,0.200291,-0.40775,-1.16737,-1.99298,1.2,1.56547,-1.81521,0.263726,2.08705,-0.175271,0,1.53917,1.74097
8.98389,-2.51695,-1.47635,1.4902,-0.18351,0.198702,-0.368625,-1.08377,-1.99824,1.2,1.6232,-1.76773,0.242057,2.09256,-0.0877209,0,1.55261,1.76106
9.01585,-2.46421,-1.53046,1.49628,-0.184116,0.197414,-0.34871,-1,-2,1.2,1.677,-1.7211,0.218595,2.0944,-4.10137e-06,0,1.56594,1.78443
9.05168,-2.3955,-1.59756,1.50302,-0.185862,0.195736,-0.308716,-0.95827,-1.99956,1.2,1.72599,-1.67184,0.180145,2.07998,0.043408,0,1.52284,1.76064
9.08356,-2.3384,-1.64937,1.50821,-0.188939,0.195519,-0.269065,-0.875685,-1.99613,1.2,1.79235,-1.60299,0.165029,2.04854,0.127579,0,1.53453,1.7572
9.11548,-2.27968,-1.69914,1.5127,-0.190118,0.195115,-0.244963,-0.794424,-1.98941,1.2,1.84299,-1.54496,0.152795,2.01386,0.208103,0,1.54532,1.76798
9.1515,-2.21939,-1.74685,1.51645,-0.191807,0.193505,-0.208372,-0.754332,-1.98485,1.2,1.88878,-1.48662,0.126833,1.9954,0.246973,0,1.51762,1.7415
9.18392,-2.15762,-1.79244,1.51953,-0.193411,0.191218,-0.166923,-0.675294,-1.97347,1.2,1.9343,-1.42629,0.105507,1.95639,0.321898,0,1.52714,1.75151
9.21586,-2.09455,-1.83595,1.52142,-0.193724,0.189362,-0.145761,-0.597862,-1.95915,1.2,1.97354,-1.36407,0.0805172,1.91485,0.393045,0,1.53577,1.75993
9.25177,-2.01394,-1.88726,1.52258,-0.195545,0.185924,-0.103228,-0.558507,-1.95066,1.2,2.01003,-1.30319,0.0390758,1.89248,0.428324,0,1.4921,1.73594
9.28368,-1.948,-1.92565,1.52328,-0.19814,0.184272,-0.0566914,-0.484802,-1.9325,1.2,2.05828,-1.21707,0.02343,1.84828,0.492745,0,1.4985,1.72282
9.31572,-1.88093,-1.96179,1.52328,-0.198533,0.183185,-0.0393833,-0.411928,-1.91159,1.2,2.09385,-1.14719,0.0116365,1.80163,0.554246,0,1.50499,1.72639
9.35161,-1.81283,-1.99561,1.52274,-0.19955,0.180032,0.00405109,-0.37614,-1.90021,1.2,2.12501,-1.08096,-0.0119283,1.77765,0.583621,0,1.47559,1.70048
9.38381,-1.74387,-2.027,1.52158,-0.200648,0.177131,0.0519121,-0.306009,-1.87573,1.2,2.15316,-1.00751,-0.0280324,1.72856,0.639538,0,1.48112,1.70113
9.41586,-1.67423,-2.05614,1.51907,-0.201013,0.175606,0.0697051,-0.23787,-1.8491,1.2,2.17648,-0.93539,-0.0548459,1.67819,0.691689,0,1.48586,1.70255
9.45176,-1.58511,-2.09103,1.51398,-0.201933,0.171455,0.114138,-0.204553,-1.83501,1.2,2.1921,-0.871316,-0.114416,1.65259,0.716372,0,1.43877,1.68075
9.48386,-1.5131,-2.11651,1.50845,-0.203078,0.169191,0.159094,-0.139493,-1.80542,1.2,2.21262,-0.786072,-0.17576,1.60074,0.762951,0,1.44178,1.67474
9.51575,-1.44086,-2.13974,1.50092,-0.202569,0.167428,0.186312,-0.0765153,-1.77403,1.2,2.22493,-0.71738,-0.220464,1.54814,0.805895,0,1.4442,1.68138
9.55173,-1.36851,-2.16079,1.49118,-0.201638,0.164214,0.227725,-0.0458124,-1.7577,1.2,2.2321,-0.654917,-0.290012,1.52162,0.826026,0,1.41308,1.66796
9.58366,-1.29609,-2.1796,1.47952,-0.199785,0.160968,0.273883,0.0139898,-1.7239,1.2,2.23585,-0.59119,-0.355643,1.46828,0.863637,0,1.41496,1.6829
9.61559,-1.22372,-2.19624,1.46573,-0.198207,0.159124,0.29722,0.0716449,-1.68866,1.2,2.23846,-0.524529,-0.412612,1.41469,0.897781,0,1.41641,1.69464
9.65188,-1.13342,-2.21396,1.44565,-0.194689,0.156227,0.344294,0.0996823,-1.67054,1.2,2.23786,-0.462624,-0.482364,1.38784,0.91359,0,1.36974,1.68795
9.68416,-1.06142,-2.22557,1.42822,-0.190753,0.154742,0.392048,0.154114,-1.63341,1.2,2.23224,-0.378578,-0.54281,1.33419,0.942698,0,1.37123,1.68728
9.71606,-0.98968,-2.23494,1.40955,-0.188436,0.153942,0.416148,0.206408,-1.59517,1.2,2.22634,-0.31015,-0.572007,1.28069,0.968569,0,1.37253,1.69014
9.75192,-0.918263,-2.24216,1.38956,-0.182831,0.151605,0.464829,0.231761,-1.57568,1.2,2.21773,-0.245264,-0.615222,1.25404,0.980322,0,1.34264,1.67608
9.78386,-0.847232,-2.24715,1.36865,-0.176503,0.150192,0.513963,0.280859,-1.53603,1.2,2.20874,-0.180192,-0.648764,1.20104,1.00151,0,1.34414,1.68309
9.8158,-0.776667,-2.25004,1.34659,-0.172834,0.148824,0.539169,0.327848,-1.4956,1.2,2.19604,-0.113785,-0.675486,1.14854,1.01972,0,1.34559,1.68474
9.85169,-0.685722,-2.25147,1.32004,-0.164816,0.146383,0.594927,0.354301,-1.47169,1.2,2.18213,-0.0531748,-0.719392,1.11819,1.029,0,1.30542,1.67946
9.88366,-0.613237,-2.2503,1.29855,-0.157818,0.146074,0.645675,0.394757,-1.43341,1.2,2.1632,0.0282816,-0.750378,1.0706,1.04174,0,1.30118,1.66851
9.91651,-0.541684,-2.24707,1.27649,-0.154541,0.145555,0.666119,0.436248,-1.39183,1.2,2.14534,0.0917057,-0.758867,1.02027,1.05283,0,1.3014,1.66295
9.95155,-0.471009,-2.24173,1.25406,-0.146982,0.144409,0.717855,0.456404,-1.37073,1.2,2.12537,0.151493,-0.769372,0.995226,1.05743,0,1.27345,1.64009
9.98348,-0.401226,-2.23438,1.23163,-0.139681,0.143818,0.769716,0.495222,-1.32827,1.2,2.10669,0.214714,-0.766206,0.945858,1.06474,0,1.275,1.63008
10.0155,-0.332387,-2.22511,1.20901,-0.135281,0.143271,0.796149,0.532083,-1.28558,1.2,2.08478,0.273372,-0.757588,0.897508,1.0696,0,1.27675,1.61788
10.0514,-0.247687,-2.21095,1.18039,-0.126567,0.141685,0.849155,0.549796,-1.26417,1.2,2.06232,0.328193,-0.767204,0.873736,1.07115,0,1.23804,1.59791
10.0836,-0.181036,-2.19762,1.15753,-0.117983,0.139238,0.907945,0.583807,-1.22129,1.2,2.03232,0.396891,-0.760064,0.827047,1.07254,0,1.24097,1.57698
10.1152,-0.115433,-2.18267,1.13425,-0.114788,0.137967,0.929527,0.615976,-1.1784,1.2,2.00488,0.447939,-0.759666,0.781545,1.07176,0,1.24413,1.56933
10.1528,-0.0508184,-2.16617,1.11063,-0.107219,0.134859,0.984041,0.631383,-1.15697,1.2,1.97961,0.495229,-0.772561,0.75926,1.07059,0,1.22142,1.55471
10.1845,0.0127602,-2.14815,1.08701,-0.0995484,0.13207,1.03821,0.661577,-1.11318,1.2,1.95309,0.541666,-0.773823,0.714594,1.06663,0,1.22674,1.55186
10.2163,0.0752927,-2.12869,1.06335,-0.0958459,0.130075,1.06542,0.688651,-1.07166,1.2,1.92411,0.587088,-0.76382,0.673348,1.06101,0,1.22971,1.54027
10.2523,0.155018,-2.10328,1.0351,-0.088223,0.126669,1.12014,0.701912,-1.05047,1.2,1.8964,0.628558,-0.768104,0.652701,1.05746,0,1.19779,1.52339
10.2842,0.217975,-2.08148,1.0134,-0.0808913,0.124131,1.17443,0.727475,-1.00788,1.2,1.86069,0.682295,-0.736328,0.612012,1.04897,0,1.20292,1.49526
10.3161,0.279663,-2.05837,0.992157,-0.0769014,0.122815,1.2018,0.750924,-0.966574,1.2,1.83239,0.723406,-0.714053,0.573579,1.03902,0,1.20719,1.48125
10.3519,0.340114,-2.03401,0.971527,-0.0688893,0.120383,1.25606,0.762206,-0.945849,1.2,1.80398,0.759363,-0.695071,0.554678,1.03342,0,1.18931,1.45567
10.3841,0.399358,-2.00845,0.951569,-0.061323,0.117216,1.31044,0.783657,-0.904746,1.2,1.77444,0.794663,-0.669086,0.517939,1.02109,0,1.19481,1.44143
10.4164,0.457458,-1.98179,0.932251,-0.0572751,0.115232,1.33757,0.803665,-0.864172,1.2,1.74635,0.828632,-0.645944,0.482645,1.00736,0,1.20026,1.43043
10.4527,0.528458,-1.9469,0.909607,-0.0493381,0.112501,1.39186,0.81315,-0.844089,1.2,1.71861,0.86084,-0.615163,0.465533,0.999991,0,1.1754,1.40285
10.4848,0.583928,-1.91781,0.892914,-0.0423586,0.111146,1.44545,0.831097,-0.804415,1.2,1.68166,0.900491,-0.564702,0.432425,0.984332,0,1.18112,1.3735
10.5165,0.638256,-1.88772,0.877563,-0.0390782,0.110196,1.47241,0.847758,-0.765368,1.2,1.6513,0.930808,-0.521496,0.400746,0.967485,0,1.18639,1.35543
10.5532,0.69148,-1.85669,0.863434,-0.032065,0.108437,1.52598,0.855617,-0.746113,1.2,1.62167,0.95974,-0.479732,0.385457,0.95865,0,1.17201,1.32604
10.585,0.743597,-1.82479,0.850464,-0.0245289,0.107305,1.57925,0.870441,-0.708133,1.2,1.59327,0.986638,-0.438779,0.355948,0.940191,0,1.17694,1.31364
10.6168,0.794648,-1.79204,0.838409,-0.0208966,0.107116,1.60584,0.884116,-0.670901,1.2,1.56404,1.01189,-0.40405,0.327863,0.920751,0,1.1814,1.30372
10.6527,0.857616,-1.74808,0.823608,-0.0129682,0.107585,1.66359,0.890534,-0.652596,1.2,1.53582,1.03703,-0.371335,0.314364,0.910696,0,1.15881,1.28289
10.6846,0.906966,-1.71179,0.812927,-0.0067568,0.107758,1.71058,0.902586,-0.616576,1.2,1.50311,1.06878,-0.322024,0.288403,0.889933,0,1.16161,1.26933
10.7166,0.955372,-1.67487,0.803253,-0.00327306,0.10778,1.73643,0.913627,-0.581406,1.2,1.47861,1.09216,-0.290231,0.263834,0.868378,0,1.16397,1.26885
10.7526,1.00285,-1.63734,0.794525,0.00352119,0.108074,1.78781,0.918784,-0.564152,1.2,1.45374,1.11527,-0.263259,0.252067,0.857325,0,1.15031,1.25693
10.7843,1.04938,-1.59921,0.786774,0.00882846,0.107779,1.83853,0.928411,-0.530312,1.2,1.42999,1.1374,-0.232552,0.229542,0.834702,0,1.15236,1.25968
10.8165,1.09501,-1.56046,0.779968,0.011128,0.107524,1.86357,0.93716,-0.497403,1.2,1.40492,1.15914,-0.205286,0.208357,0.811455,0,1.15388,1.26285
10.8522,1.15082,-1.51109,0.773224,0.0156291,0.1077,1.91306,0.94123,-0.481277,1.2,1.38095,1.18246,-0.175836,0.198238,0.799595,0,1.13428,1.25551
10.8841,1.19446,-1.47081,0.769318,0.0190858,0.106835,1.96676,0.94877,-0.449772,1.2,1.35204,1.21201,-0.124513,0.178981,0.775489,0,1.13506,1.25783
10.916,1.2372,-1.42983,0.766754,0.0204045,0.106736,1.99109,0.955566,-0.419242,1.2,1.32676,1.23737,-0.0836787,0.160978,0.750887,0,1.13504,1.26599
10.952,1.27904,-1.38821,0.765625,0.0223402,0.106552,2.0341,0.958702,-0.404335,1.2,1.30075,1.26029,-0.0449464,0.152429,0.738405,0,1.12219,1.26215
10.9841,1.31997,-1.34595,0.765747,0.0237515,0.106487,2.08114,0.964469,-0.375314,1.2,1.27541,1.2819,-0.00314742,0.13625,0.713161,0,1.1212,1.27325
11.0162,1.35994,-1.30309,0.766937,0.0241482,0.106367,2.1047,0.969615,-0.347299,1.2,1.24875,1.30353,0.0307311,0.121231,0.687528,0,1.11957,1.28519
11.0519,1.40734,-1.24723,0.768524,0.0244407,0.10669,2.1516,0.971968,-0.333678,1.2,1.22003,1.3241,0.0620032,0.114146,0.674582,0,1.10014,1.28402
11.0839,1.44395,-1.2017,0.77121,0.0247634,0.107989,2.19849,0.976263,-0.307219,1.2,1.18203,1.34897,0.112037,0.100806,0.648461,0,1.09667,1.29318
11.1161,1.4796,-1.15568,0.775421,0.0245345,0.108479,2.22163,0.980047,-0.281804,1.2,1.15067,1.37053,0.154257,0.0885314,0.622051,0,1.09247,1.30849
11.1518,1.51428,-1.1092,0.781158,0.0246045,0.108863,2.26814,0.981759,-0.269498,1.2,1.12005,1.3903,0.196316,0.0827846,0.608757,0,1.07893,1.31349
11.1838,1.54792,-1.06225,0.788361,0.0254437,0.110801,2.31447,0.984853,-0.245683,1.2,1.08801,1.40946,0.241441,0.0720386,0.581994,0,1.07391,1.33236
11.2157,1.58049,-1.01487,0.796753,0.0255903,0.111544,2.33739,0.987535,-0.222941,1.2,1.05443,1.42794,0.279777,0.0622575,0.555029,0,1.06834,1.3508
11.2517,1.61964,-0.955038,0.808655,0.0265746,0.112439,2.38356,0.988735,-0.211975,1.2,1.01897,1.44466,0.311704,0.057715,0.541478,0,1.05039,1.35533
11.2844,1.64972,-0.906749,0.81897,0.027564,0.112225,2.42981,0.990872,-0.190859,1.2,0.974482,1.46555,0.341731,0.0493006,0.514261,0,1.04487,1.37029
11.3161,1.67871,-0.858093,0.829529,0.0278187,0.111656,2.45297,0.992691,-0.170832,1.2,0.939261,1.4801,0.353758,0.0417421,0.486904,0,1.03932,1.3846
11.3522,1.70663,-0.809151,0.839996,0.0285948,0.109909,2.49901,0.99349,-0.161238,1.2,0.905024,1.4939,0.353046,0.0382728,0.473192,0,1.02857,1.38483
11.3842,1.73355,-0.759955,0.85025,0.0290963,0.107871,2.54472,0.994891,-0.142859,1.2,0.871378,1.50472,0.345822,0.0319154,0.445668,0,1.02408,1.39495
11.4163,1.75948,-0.710628,0.860168,0.0289523,0.106447,2.5675,0.996053,-0.125582,1.2,0.840382,1.51325,0.335522,0.0263019,0.418054,0,1.02009,1.40526
11.4521,1.79119,-0.647795,0.870453,0.0279534,0.103549,2.61241,0.996554,-0.117361,1.2,0.807502,1.51972,0.319606,0.023761,0.404223,0,1.01065,1.40026
11.4845,1.81546,-0.597304,0.878082,0.0263661,0.102314,2.65721,0.99741,-0.101746,1.2,0.766095,1.52686,0.301102,0.019179,0.376508,0,1.00917,1.40423
11.5176,1.83859,-0.546813,0.885651,0.0251854,0.102061,2.67952,0.998096,-0.0872398,1.2,0.732674,1.5328,0.289497,0.0152263,0.348736,0,1.0082,1.41441
11.5523,1.86054,-0.496399,0.893219,0.0216641,0.101675,2.72446,0.998383,-0.0804047,1.2,0.69691,1.53513,0.282915,0.0134721,0.334836,0,1.00522,1.4099
11.5859,1.88126,-0.446097,0.90094,0.0172239,0.102859,2.76902,0.998858,-0.0675681,1.2,0.660392,1.53616,0.280704,0.0103779,0.307007,0,1.00566,1.4185
11.6161,1.90078,-0.395959,0.908997,0.0139243,0.104033,2.79585,0.99922,-0.0558439,1.2,0.623117,1.53524,0.284672,0.00779732,0.279145,0,1.00656,1.42738
11.6531,1.92349,-0.333549,0.919769,0.0092053,0.106023,2.83597,0.999365,-0.0504024,1.2,0.587502,1.53262,0.294138,0.00668579,0.265213,0,1.00634,1.42484
11.685,1.94023,-0.283888,0.929047,0.00432123,0.11037,2.88507,0.999593,-0.0403501,1.2,0.539617,1.52836,0.309458,0.00478889,0.237319,0,1.00872,1.43129
11.7167,1.9556,-0.234527,0.939026,0.0026309,0.112226,2.90304,0.999753,-0.0314155,1.2,0.497723,1.52183,0.326896,0.00328987,0.209417,0,1.01143,1.44006
11.7526,1.96961,-0.18547,0.949615,-0.00109429,0.116748,2.94794,0.999813,-0.0273673,1.2,0.456576,1.51492,0.3449,0.0026749,0.195463,0,1.014,1.43734
11.7846,1.98222,-0.136839,0.960785,-0.00353209,0.121889,2.99279,0.999899,-0.0200922,1.2,0.413698,1.50609,0.360774,0.00168267,0.167486,0,1.01775,1.4463
11.8164,1.99337,-0.0887068,0.972412,-0.00479498,0.125343,3.01989,0.999951,-0.0139632,1.2,0.369603,1.49318,0.374253,0.000974841,0.139626,0,1.0219,1.45191
11.8528,2.00486,-0.0275187,0.986938,-0.00688478,0.129826,3.06051,0.999968,-0.0113101,1.2,0.323411,1.47886,0.385181,0.000710644,0.125664,0,1.02736,1.44348
11.8846,2.0123,0.0209897,0.998688,-0.00853266,0.135255,3.10606,0.999988,-0.00684262,1.2,0.26557,1.46197,0.391136,0.000334417,0.0977446,0,1.03251,1.44376
11.9167,2.01826,0.0687617,1.0105,-0.00930248,0.137902,3.1288,0.999997,-0.00349106,1.2,0.217913,1.44415,0.392515,0.000121868,0.0698171,0,1.03827,1.44578
11.9527,2.02281,0.11578,1.02216,-0.0108788,0.14233,-3.10844,0.999999,-0.00223418,1.2,0.171682,1.42686,0.390083,6.23925e-05,0.0558525,0,1.04485,1.43571
11.9845,2.02595,0.162041,1.03357,-0.0115844,0.145823,-3.06219,1,-0.000558771,1.2,0.127788,1.40786,0.381071,7.80378e-06,0.0279319,0,1.052,1.43727
12.0165,2.02764,0.207435,1.04465,-0.0117096,0.147303,-3.03869,1,-1.18808e-11,1.2,0.0826082,1.38789,0.369473,2.41946e-17,4.0729e-06,0,1.05981,1.4386
12.0523,2.02775,0.262928,1.05792,-0.0115291,0.150262,-2.99179,1,-4.89859e-16,1.2,0.0369516,1.36339,0.354641,0,0,0,1.07032,1.40924
12.0842,2.02621,0.306251,1.06824,-0.0111518,0.152992,-2.94451,1,-4.89859e-16,1.2,-0.0196416,1.33311,0.337755,0,0,0,1.079,1.37538
12.1162,2.02325,0.348583,1.07828,-0.0107246,0.154215,-2.92072,1,-4.89859e-16,1.2,-0.0653408,1.30526,0.328306,0,0,0,1.08783,1.3475
12.1521,2.0189,0.389926,1.08804,-0.00957606,0.155775,-2.8729,1,-4.89859e-16,1.2,-0.109588,1.27792,0.317442,0,0,0,1.09669,1.32131
12.184,2.01318,0.430246,1.0976,-0.00823618,0.15654,-2.82481,1,-4.89859e-16,1.2,-0.152916,1.24908,0.308119,0,0,0,1.1055,1.29557
12.2172,2.00608,0.46952,1.10699,-0.00730303,0.156537,-2.80046,1,-4.89859e-16,1.2,-0.197408,1.21883,0.301264,0,0,0,1.11414,1.27093
12.2531,1.99616,0.519516,1.1185,-0.00558976,0.156724,-2.75215,1,-4.89859e-16,1.2,-0.24012,1.18861,0.293134,0,0,0,1.12644,1.24755
12.2851,1.98687,0.558546,1.12772,-0.0034077,0.157052,-2.70395,1,-4.89859e-16,1.2,-0.291361,1.14782,0.289034,0,0,0,1.13627,1.21899
12.317,1.97626,0.596254,1.1369,-0.00193485,0.156739,-2.67974,1,-4.89859e-16,1.2,-0.330181,1.11603,0.290037,0,0,0,1.14568,1.19945
12.3528,1.96433,0.632651,1.146,0.000668104,0.156391,-2.63184,1,-4.89859e-16,1.2,-0.370858,1.08167,0.287119,0,0,0,1.1546,1.17897
12.3848,1.95109,0.667741,1.15503,0.00375921,0.156248,-2.58371,1,-4.89859e-16,1.2,-0.410598,1.04797,0.284085,0,0,0,1.16296,1.16083
12.4165,1.93665,0.701473,1.16397,0.00546688,0.15601,-2.5596,1,-4.89859e-16,1.2,-0.44806,1.01343,0.281559,0,0,0,1.17076,1.14327
12.4525,1.91695,0.74179,1.17493,0.0082236,0.15526,-2.51201,1,-4.89859e-16,1.2,-0.48484,0.975319,0.275741,0,0,0,1.17969,1.12354
12.4844,1.89998,0.772608,1.18344,0.0114396,0.155314,-2.4648,1,-4.89859e-16,1.2,-0.528033,0.932356,0.268922,0,0,0,1.18624,1.10473
12.5166,1.88194,0.802135,1.1915,0.0129835,0.155118,-2.44128,1,-4.89859e-16,1.2,-0.558593,0.897111,0.258292,0,0,0,1.19219,1.08791
12.5549,1.86283,0.830336,1.1991,0.0165433,0.154566,-2.39484,1,-4.89859e-16,1.2,-0.592492,0.860001,0.241671,0,0,0,1.19747,1.07194
12.5894,1.84273,0.857215,1.20627,0.0199327,0.154258,-2.34873,1,-4.89859e-16,1.2,-0.623427,0.822779,0.227641,0,0,0,1.2021,1.05709
12.6211,1.82167,0.882809,1.21301,0.0218992,0.153553,-2.32614,1,-4.89859e-16,1.2,-0.652767,0.784947,0.215212,0,0,0,1.20609,1.04334
12.657,1.79575,0.914458,1.22098,0.0262008,0.15198,-2.28129,1,-4.89859e-16,1.2,-0.682619,0.749298,0.200051,0,0,0,1.21239,1.03317
12.6884,1.77417,0.938528,1.22684,0.0315829,0.150345,-2.23771,1,-4.89859e-16,1.2,-0.716864,0.703542,0.18207,0,0,0,1.21692,1.02079
12.72,1.7516,0.961295,1.23221,0.034619,0.149322,-2.21622,1,-4.89859e-16,1.2,-0.744038,0.668543,0.169144,0,0,0,1.22067,1.01447
12.7556,1.72806,0.98281,1.237,0.0401972,0.146118,-2.17404,1,-4.89859e-16,1.2,-0.7686,0.634372,0.153013,0,0,0,1.22367,1.00826
12.7874,1.70357,1.00304,1.24124,0.0457661,0.142628,-2.133,1,-4.89859e-16,1.2,-0.79571,0.599829,0.134877,0,0,0,1.22588,1.00556
12.8191,1.67816,1.02201,1.24493,0.0485255,0.140608,-2.11279,1,-4.89859e-16,1.2,-0.819509,0.565598,0.120143,0,0,0,1.22736,1.00296
12.8548,1.64509,1.04397,1.24887,0.0535312,0.136326,-2.0734,1,-4.89859e-16,1.2,-0.846241,0.529756,0.101512,0,0,0,1.22817,1.00353
12.8868,1.61764,1.06023,1.25162,0.057821,0.13282,-2.03542,1,-4.89859e-16,1.2,-0.877602,0.488123,0.0851452,0,0,0,1.2281,1.00782
12.9193,1.58937,1.07536,1.25391,0.0594057,0.130659,-2.01667,1,-4.89859e-16,1.2,-0.901534,0.455609,0.0738579,0,0,0,1.22746,1.01282
12.9548,1.56028,1.08937,1.2558,0.0620822,0.126516,-1.98028,1,-4.89859e-16,1.2,-0.924184,0.424283,0.0599061,0,0,0,1.22627,1.01869
12.9866,1.53047,1.10224,1.25754,0.0626974,0.122957,-1.94528,1,-4.89859e-16,1.2,-0.946442,0.392163,0.050802,0,0,0,1.2246,1.02573
13.0183,1.5,1.11399,1.25909,0.0626222,0.120572,-1.9246,1,-4.89859e-16,1.2,-0.965455,0.359474,0.0452331,0,0,0,1.22249,1.0312
13.054,1.46311,1.12677,1.26138,0.0624615,0.117963,-1.89428,1,-4.89859e-16,1.2,-0.984409,0.327509,0.039879,0,0,0,1.21978,1.03823
13.0858,1.43315,1.13574,1.26331,0.0608765,0.11592,-1.85864,1,-4.89859e-16,1.2,-1.00816,0.288187,0.0399118,0,0,0,1.21718,1.0493
13.1176,1.40248,1.14366,1.26508,0.0599921,0.115051,-1.84573,1,-4.89859e-16,1.2,-1.02323,0.257128,0.0403174,0,0,0,1.21416,1.05582
13.1535,1.3712,1.15052,1.26648,0.0571007,0.1131,-1.81422,1,-4.89859e-16,1.2,-1.03746,0.224646,0.0317927,0,0,0,1.21074,1.06198
13.1853,1.33934,1.15635,1.26736,0.0545943,0.111414,-1.78391,1,-4.89859e-16,1.2,-1.04889,0.192848,0.0218558,0,0,0,1.207,1.06669
13.2172,1.30701,1.16123,1.26761,0.0531837,0.110583,-1.76895,1,-4.89859e-16,1.2,-1.06125,0.162938,0.00625275,0,0,0,1.20303,1.0737
13.2531,1.26605,1.16599,1.26691,0.0497606,0.108914,-1.73649,1,-4.89859e-16,1.2,-1.06822,0.134622,-0.0155333,0,0,0,1.19783,1.07678
13.2849,1.23294,1.16863,1.26575,0.0467081,0.107989,-1.71027,1,-4.89859e-16,1.2,-1.07675,0.0971096,-0.0396038,0,0,0,1.19343,1.08185
13.3172,1.19955,1.17027,1.26413,0.0446858,0.107037,-1.69575,1,-4.89859e-16,1.2,-1.08122,0.0653003,-0.05308,0,0,0,1.18889,1.08449
13.353,1.16594,1.17094,1.26184,0.0406461,0.104728,-1.6673,1,-4.89859e-16,1.2,-1.08611,0.0342963,-0.0711937,0,0,0,1.18426,1.08899
13.3848,1.13216,1.17066,1.25909,0.0363377,0.102242,-1.63926,1,-4.89859e-16,1.2,-1.08732,0.00541868,-0.0906318,0,0,0,1.17958,1.0911
13.4167,1.09829,1.16949,1.25592,0.0340347,0.100132,-1.62514,1,-4.89859e-16,1.2,-1.08897,-0.023243,-0.102044,0,0,0,1.17495,1.09398
13.4526,1.05648,1.1661,1.25177,0.0299767,0.0955416,-1.59728,1,-4.89859e-16,1.2,-1.08864,-0.0508329,-0.115532,0,0,0,1.16862,1.09593
13.4849,1.0231,1.1623,1.2482,0.0259872,0.0907704,-1.56637,1,-4.89859e-16,1.2,-1.08656,-0.0838681,-0.13053,0,0,0,1.16353,1.09758
13.5175,0.989798,1.15766,1.24442,0.024445,0.0890486,-1.555,1,-4.89859e-16,1.2,-1.08108,-0.112063,-0.133653,0,0,0,1.15856,1.09506
13.5536,0.956592,1.15225,1.24051,0.0211472,0.084188,-1.52666,1,-4.89859e-16,1.2,-1.07456,-0.138437,-0.13874,0,0,0,1.15378,1.09229
13.5854,0.923539,1.14608,1.23651,0.0181925,0.0793031,-1.49773,1,-4.89859e-16,1.2,-1.0679,-0.163315,-0.140996,0,0,0,1.1492,1.08948
13.6173,0.890692,1.13919,1.23257,0.0164818,0.0765062,-1.48304,1,-4.89859e-16,1.2,-1.05881,-0.188188,-0.137739,0,0,0,1.14489,1.08419
13.6531,0.849941,1.12965,1.22778,0.0136954,0.0720116,-1.45312,1,-4.89859e-16,1.2,-1.05004,-0.210172,-0.134571,0,0,0,1.13991,1.07929
13.685,0.817682,1.12131,1.22412,0.0108571,0.0677971,-1.42244,1,-4.89859e-16,1.2,-1.03594,-0.236428,-0.129458,0,0,0,1.1363,1.07043
13.7169,0.785754,1.11242,1.22058,0.00930694,0.0659178,-1.40669,1,-4.89859e-16,1.2,-1.02358,-0.256061,-0.124047,0,0,0,1.13305,1.06239
13.7533,0.746341,1.10049,1.21625,0.00591146,0.0627694,-1.37497,1,-4.89859e-16,1.2,-1.0114,-0.274714,-0.120112,0,0,0,1.12946,1.0549
13.7853,0.722998,1.09295,1.21371,0.00311377,0.0607951,-1.33916,1,-4.89859e-16,1.2,-0.994882,-0.296846,-0.118248,0,0,0,1.12759,1.04494
13.8172,0.692283,1.08244,1.21042,0.00199687,0.0601298,-1.32584,1,-4.89859e-16,1.2,-0.982759,-0.308657,-0.114225,0,0,0,1.12538,1.0364
13.853,0.653955,1.06628,1.20663,-0.0010242,0.0585635,-1.29194,1,-4.89859e-16,1.2,-0.965291,-0.325503,-0.109048,0,0,0,1.12104,1.02451
13.8852,0.623768,1.05258,1.2037,-0.00340207,0.0583339,-1.25704,1,-4.89859e-16,1.2,-0.944564,-0.342457,-0.105061,0,0,0,1.11781,1.01021
13.9171,0.594146,1.03866,1.20087,-0.0042324,0.0583057,-1.23913,1,-4.89859e-16,1.2,-0.928331,-0.35701,-0.100758,0,0,0,1.11514,0.999703
13.953,0.565136,1.0245,1.19794,-0.00581611,0.0578325,-1.19924,1,-4.89859e-16,1.2,-0.910172,-0.370532,-0.100532,0,0,0,1.11297,0.987833
13.9849,0.536757,1.01007,1.19492,-0.00673554,0.0577565,-1.16619,1,-4.89859e-16,1.2,-0.890728,-0.384509,-0.103938,0,0,0,1.11124,0.975729
14.0168,0.508997,0.995399,1.19174,-0.00675664,0.0577079,-1.14728,1,-4.89859e-16,1.2,-0.872046,-0.397886,-0.107707,0,0,0,1.10994,0.964561
14.0527,0.475193,0.976863,1.18756,-0.00607025,0.0575468,-1.10916,1,-4.89859e-16,1.2,-0.852017,-0.407989,-0.112525,0,0,0,1.10898,0.951341
