timestamp,drone_x,drone_y,drone_z,drone_roll,drone_pitch,drone_yaw,target_x,target_y,target_z,drone_vx,drone_vy,drone_vz,target_vx,target_vy,target_vz,distance_error,velocity_error
0.00851228,-0.010024,0.0572178,1.18753,0.00102287,0.00080148,0.000206677,1,0,1,0.00840035,-0.0682862,0.0123564,0,0,0,1.02888,0.0699017
0.0445025,-0.0106098,0.0584719,1.18753,0.00105575,0.00106135,0.00018862,1,0,1,0.00894869,-0.0673757,0.0138547,0,0,0,1.02952,0.0693651
0.0764533,-0.0111237,0.0597164,1.18774,0.00100096,0.000936243,0.000156328,1,0,1,0.00906809,-0.0652826,0.016834,0,0,0,1.03014,0.0680252
0.108426,-0.0116118,0.0607142,1.18857,0.00101602,0.00096419,-2.67371e-05,1,0,1,0.00855158,-0.0626697,0.0306268,0,0,0,1.03083,0.0702753
0.144932,-0.0121882,0.0615965,1.1904,0.000914506,0.00114643,0.000430085,1,0,1,0.00629547,-0.0594317,0.0475133,0,0,0,1.03178,0.0763497
0.176586,-0.0125182,0.0619387,1.19196,0.00107824,0.00122808,0.000784678,1,0,1,0.00580884,-0.0587753,0.0701421,0,0,0,1.03241,0.0916962
0.208548,-0.0129619,0.0622104,1.19446,0.00120827,0.0011179,0.000930688,1,0,1,0.00452701,-0.0567623,0.0799792,0,0,0,1.03333,0.098179
0.245037,-0.0134338,0.062202,1.19815,0.00192136,0.00102748,0.00136469,1,0,1,0.00284521,-0.0571379,0.0957716,0,0,0,1.0345,0.111557
0.276971,-0.0137371,0.0619811,1.20123,0.00193342,0.00156992,0.00122799,1,0,1,0.00454854,-0.0573629,0.100714,0,0,0,1.03537,0.115994
0.309005,-0.014004,0.0616378,1.20471,0.00189689,0.00176365,0.00127122,1,0,1,0.00469844,-0.0564711,0.108463,0,0,0,1.0363,0.122373
0.344901,-0.0142179,0.0610685,1.20853,0.00192618,0.00173575,0.00120336,1,0,1,0.00422202,-0.056899,0.120707,0,0,0,1.03723,0.133512
0.377095,-0.0144221,0.0601042,1.21347,0.00269357,0.001802,0.00102601,1,0,1,0.00532578,-0.0577885,0.127603,0,0,0,1.03838,0.14018
0.408866,-0.0144989,0.0593952,1.21658,0.00290949,0.00189022,0.00102464,1,0,1,0.00593761,-0.0601891,0.134247,0,0,0,1.03906,0.147242
0.445691,-0.014752,0.0606248,1.22147,0.00301535,0.00170885,0.00100576,1,0,1,0.00625121,-0.0600115,0.138907,0,0,0,1.04041,0.151445
0.477727,-0.0149225,0.0618103,1.22552,0.00258953,0.00147436,0.00068865,1,0,1,0.00571399,-0.0573491,0.1456,0,0,0,1.04151,0.156592
0.510565,-0.0150837,0.0626624,1.22995,0.00266232,0.0014076,0.000750487,1,0,1,0.00584163,-0.0564414,0.151078,0,0,0,1.04269,0.161383
0.545959,-0.0152362,0.0632153,1.23538,0.00238616,0.00140168,0.00100207,1,0,1,0.00383139,-0.0568451,0.165546,0,0,0,1.04408,0.175076
0.578379,-0.0153588,0.0634683,1.24213,0.00231663,0.00187063,0.000986718,1,0,1,0.00394022,-0.0580613,0.203491,0,0,0,1.04576,0.211649
0.610085,-0.0154967,0.0635265,1.25018,0.00268085,0.0020414,0.000941264,1,0,1,0.00364422,-0.0576975,0.243571,0,0,0,1.04779,0.250338
0.646545,-0.015648,0.063279,1.26205,0.00271583,0.00185928,0.00081242,1,0,1,0.00346801,-0.0580538,0.283429,0,0,0,1.05082,0.289335
0.678442,-0.0156299,0.0628846,1.27124,0.00314605,0.00444283,0.000739588,1,0,1,0.00442533,-0.0584508,0.323809,0,0,0,1.0531,0.329072
0.710314,-0.0155146,0.0623622,1.2771,0.00322127,0.0076305,0.000511734,1,0,1,0.00798478,-0.056838,0.252872,0,0,0,1.05449,0.259304
0.746064,-0.0151971,0.0615957,1.27991,0.00371612,0.0189519,0.000431077,1,0,1,0.0110044,-0.057114,0.133504,0,0,0,1.05488,0.145624
0.778046,-0.0144876,0.0602152,1.28171,0.0113263,0.0345972,0.000449801,1,0,1,0.0171996,-0.0605622,0.0678924,0,0,0,1.05459,0.0925904
0.809787,-0.0138534,0.0591782,1.28186,0.0168156,0.0423211,0.000228658,1,0,1,0.0261663,-0.0674966,0.0255958,0,0,0,1.05397,0.0767829
0.845702,-0.0125951,0.0608982,1.27948,0.0288334,0.0559994,0.000155681,1,0,1,0.0331441,-0.0702616,-0.00648915,0,0,0,1.05222,0.0779572
0.877593,-0.0112288,0.0623779,1.27551,0.0378687,0.0624564,0.000108648,1,0,1,0.047279,-0.0771872,-0.0667744,0,0,0,1.04994,0.112481
0.910229,-0.00950335,0.0633486,1.26874,0.0399899,0.0620965,2.06059e-05,1,0,1,0.0566556,-0.0803787,-0.135241,0,0,0,1.04658,0.167215
0.947027,-0.0074933,0.063805,1.2583,0.0399295,0.0551699,-0.000640048,1,0,1,0.0667861,-0.0826763,-0.245258,0,0,0,1.04203,0.267296
0.979128,-0.00461797,0.0636296,1.24136,0.0348696,0.0410177,-0.00187868,1,0,1,0.0743184,-0.0888252,-0.356165,0,0,0,1.03516,0.374522
1.01043,-0.00270169,0.0631851,1.22934,0.0312582,0.0317835,-0.00277222,1,0,1,0.0834298,-0.0958103,-0.45583,0,0,0,1.03053,0.473203
1.04654,0.000677871,0.0618979,1.20627,0.0231959,0.0118399,-0.00409239,1,0,1,0.0885446,-0.099097,-0.511739,0,0,0,1.02226,0.528712
1.07879,0.00344091,0.0604747,1.18521,0.0149732,-0.00676643,-0.00505493,1,0,1,0.0913637,-0.104294,-0.612251,0,0,0,1.01543,0.627754
1.11024,0.00611927,0.0587368,1.16193,0.0107959,-0.0163011,-0.00562451,1,0,1,0.0904903,-0.108393,-0.682083,0,0,0,1.0087,0.696545
1.1461,0.00866481,0.0568148,1.13663,0.0054441,-0.0270638,-0.00646064,1,0,1,0.0862908,-0.109005,-0.747722,0,0,0,1.00232,0.760537
1.17865,0.0110501,0.0547478,1.11005,0.00253378,-0.0293562,-0.00714419,1,0,1,0.0818962,-0.108357,-0.805185,0,0,0,0.996559,0.81656
1.20989,0.0131952,0.05249,1.08362,0.00224227,-0.0290846,-0.00739722,1,0,1,0.0747519,-0.108103,-0.824782,0,0,0,0.991731,0.835188
1.24576,0.0147974,0.0531512,1.05554,0.00245009,-0.0249828,-0.00760998,1,0,1,0.0678945,-0.109892,-0.796492,0,0,0,0.988197,0.806898
1.27766,0.0156514,0.053949,1.03659,0.00234292,-0.0176206,-0.00753439,1,0,1,0.0576779,-0.107183,-0.709111,0,0,0,0.986505,0.719481
1.30957,0.0162887,0.0543241,1.021,0.00239978,-0.0136619,-0.00765091,1,0,1,0.0467512,-0.107019,-0.603164,0,0,0,0.985434,0.614366
1.34548,0.0168235,0.0543254,1.00882,0.00347709,-0.00719956,-0.00751423,1,0,1,0.0397479,-0.106245,-0.490797,0,0,0,0.984716,0.503736
1.3781,0.0173928,0.0540526,0.999695,0.00431732,-0.00140665,-0.00721726,1,0,1,0.0362665,-0.104746,-0.381182,0,0,0,0.984093,0.396972
1.4093,0.0179971,0.0535216,0.992828,0.00451593,0.00124397,-0.00699773,1,0,1,0.035324,-0.101901,-0.295028,0,0,0,0.983486,0.314123
1.4465,0.0188499,0.052435,0.986877,0.00522701,0.00625286,-0.00615503,1,0,1,0.0352804,-0.101488,-0.223486,0,0,0,0.982638,0.247973
1.47837,0.0196048,0.0512751,0.983124,0.00614913,0.00989359,-0.00519032,1,0,1,0.0366714,-0.101426,-0.160736,0,0,0,0.98188,0.193567
1.51025,0.0204564,0.0498761,0.97934,0.00686533,0.0108536,-0.00465295,1,0,1,0.0385808,-0.10144,-0.149186,0,0,0,0.98103,0.184486
1.54617,0.0213318,0.0482485,0.974915,0.00835284,0.0112093,-0.00350828,1,0,1,0.038702,-0.101256,-0.154536,0,0,0,0.980178,0.188765
1.57818,0.0222596,0.0463643,0.969696,0.00892084,0.0094304,-0.00251833,1,0,1,0.0389457,-0.102925,-0.17469,0,0,0,0.979308,0.206463
1.61005,0.0233111,0.044271,0.963623,0.00877659,0.00772624,-0.00218036,1,0,1,0.0411841,-0.104114,-0.200324,0,0,0,0.978368,0.22949
1.64601,0.023468,0.0445202,0.953278,0.00865852,0.0032929,-0.00181772,1,0,1,0.0423034,-0.105872,-0.22417,0,0,0,0.978662,0.251497
1.67894,0.0235252,0.0448652,0.944244,0.00861493,-0.000772098,-0.00204123,1,0,1,0.042529,-0.105616,-0.251293,0,0,0,0.979094,0.275883
1.71081,0.0236756,0.0447451,0.935394,0.00838946,-0.00281346,-0.00231793,1,0,1,0.0425572,-0.107663,-0.253242,0,0,0,0.979482,0.27845
1.7464,0.023909,0.0442983,0.926941,0.00804578,-0.00550828,-0.0027968,1,0,1,0.042324,-0.108605,-0.245169,0,0,0,0.979823,0.271467
1.77854,0.0241822,0.0435697,0.919159,0.00810993,-0.00673075,-0.00355124,1,0,1,0.0403921,-0.106094,-0.229867,0,0,0,0.98013,0.256371
1.81028,0.0244405,0.0425053,0.912384,0.00802585,-0.00683835,-0.00395019,1,0,1,0.0385998,-0.106376,-0.20457,0,0,0,0.980408,0.233783
1.8469,0.0247022,0.0407132,0.905518,0.00804662,-0.00703522,-0.00509165,1,0,1,0.0343196,-0.109398,-0.174328,0,0,0,0.980709,0.208653
1.87873,0.0249311,0.0390204,0.901428,0.00787961,-0.00631319,-0.00643887,1,0,1,0.0304747,-0.110302,-0.128536,0,0,0,0.980815,0.172095
1.91065,0.0251805,0.0370552,0.89856,0.0077891,-0.00558649,-0.00737126,1,0,1,0.0292873,-0.110619,-0.0916494,0,0,0,0.980784,0.146608
1.94642,0.025438,0.03483,0.89682,0.00759918,-0.00436748,-0.00868151,1,0,1,0.0261283,-0.112343,-0.0573952,0,0,0,0.980628,0.128833
1.97828,0.0256688,0.0323821,0.895905,0.00780976,-0.00245301,-0.0101083,1,0,1,0.0251065,-0.115476,-0.0277176,0,0,0,0.980411,0.121381
2.01021,0.0258932,0.0297269,0.895599,0.00797555,-0.00190079,-0.0106216,1,0,1,0.022126,-0.115437,-0.00766697,0,0,0,0.980136,0.117788
2.04602,0.0259944,0.0299471,0.894897,0.00732539,-0.000664415,-0.0116351,1,0,1,0.0207079,-0.117356,0.0109066,0,0,0,0.980117,0.119667
2.07792,0.0261018,0.030423,0.894501,0.00648212,0.000387213,-0.0124438,1,0,1,0.0198309,-0.114478,0.0243059,0,0,0,0.980068,0.118698
2.10986,0.0262742,0.03051,0.894318,0.00610962,0.000802881,-0.0125904,1,0,1,0.0200624,-0.113706,0.0279127,0,0,0,0.979919,0.118789
2.1457,0.0264967,0.0302321,0.894196,0.00548472,0.00119887,-0.0130542,1,0,1,0.0217151,-0.112567,0.0277338,0,0,0,0.979703,0.117949
2.17765,0.026794,0.0296559,0.894135,0.00530145,0.00113346,-0.013022,1,0,1,0.0205499,-0.111488,0.0266732,0,0,0,0.979396,0.116462
2.20957,0.0271485,0.0287749,0.894104,0.00515674,0.00110795,-0.0130262,1,0,1,0.0221374,-0.111599,0.0241642,0,0,0,0.979021,0.116311
2.24593,0.0276086,0.0273953,0.894073,0.00499888,0.00111691,-0.0124347,1,0,1,0.0221918,-0.109581,0.0219575,0,0,0,0.978527,0.113941
2.27785,0.0279516,0.026029,0.894104,0.00492234,0.000586267,-0.0118542,1,0,1,0.0192765,-0.107331,0.019546,0,0,0,0.978146,0.110786
2.30977,0.0283023,0.0244577,0.894196,0.00506213,0.000264294,-0.011631,1,0,1,0.0189037,-0.106574,0.0193451,0,0,0,0.977747,0.109952
2.34577,0.0287194,0.022704,0.894348,0.00482316,0.000302852,-0.010635,1,0,1,0.0184847,-0.104759,0.0199412,0,0,0,0.977274,0.10823
2.37777,0.0291231,0.0207569,0.894714,0.00503067,5.93197e-05,-0.00991606,1,0,1,0.0184967,-0.104084,0.0234658,0,0,0,0.97679,0.108288
2.4097,0.0295062,0.0186337,0.895325,0.00523225,0.000109323,-0.00942946,1,0,1,0.0177194,-0.104865,0.0288669,0,0,0,0.9763,0.110199
2.44559,0.0292183,0.0179559,0.896057,0.00541433,0.000129262,-0.00827751,1,0,1,0.0163056,-0.104454,0.0350819,0,0,0,0.976496,0.111388
2.47746,0.0288891,0.0175555,0.89682,0.00576258,-0.000151272,-0.00721821,1,0,1,0.0153998,-0.103077,0.0396545,0,0,0,0.976735,0.11151
2.5094,0.0285921,0.0168212,0.897766,0.00593448,-0.000605202,-0.00642442,1,0,1,0.0132568,-0.102523,0.0433801,0,0,0,0.976918,0.112109
2.54543,0.0283747,0.0158245,0.898804,0.00618818,-0.00126482,-0.00506839,1,0,1,0.013009,-0.101966,0.0441112,0,0,0,0.977009,0.111857
2.57736,0.0281621,0.0142322,0.900146,0.00640033,-0.00124008,-0.00329212,1,0,1,0.0130868,-0.101934,0.0461217,0,0,0,0.977058,0.112646
2.60936,0.028092,0.0131216,0.900909,0.00646532,-0.00116139,-0.00252946,1,0,1,0.0131852,-0.101904,0.0429525,0,0,0,0.977034,0.11137
2.64583,0.0279976,0.0109957,0.902313,0.00634597,-0.00092348,-0.000794199,1,0,1,0.0126717,-0.100958,0.0418161,0,0,0,0.976961,0.110008
2.67768,0.0279535,0.00900846,0.903473,0.00644073,-0.00128281,0.00126509,1,0,1,0.0110574,-0.102437,0.0428276,0,0,0,0.976869,0.111579
2.70967,0.0279351,0.00679371,0.904602,0.0066902,-0.00114551,0.00225576,1,0,1,0.0110106,-0.105186,0.0423221,0,0,0,0.976758,0.113914
2.74558,0.0279637,0.00436556,0.905731,0.00687371,-0.000692526,0.00415198,1,0,1,0.0108418,-0.107485,0.041414,0,0,0,0.976607,0.115697
2.77752,0.028065,0.00176946,0.906921,0.00678943,-0.000609796,0.0056502,1,0,1,0.0111567,-0.109928,0.0417713,0,0,0,0.976383,0.118125
2.81027,0.028214,-0.000957061,0.908081,0.00659266,-0.000677119,0.00652206,1,0,1,0.0116863,-0.110132,0.0385804,0,0,0,0.976124,0.117278
2.84609,0.0276231,-0.00318046,0.908752,0.00649288,-0.00115417,0.00863222,1,0,1,0.0126177,-0.110627,0.0360468,0,0,0,0.976654,0.117034
2.87822,0.0270755,-0.0049308,0.909027,0.0062591,-0.00114035,0.0102143,1,0,1,0.0113607,-0.109373,0.0290239,0,0,0,0.977181,0.113728
2.91081,0.0266165,-0.00689178,0.90918,0.00601557,-0.00112042,0.0111789,1,0,1,0.011576,-0.110609,0.0233569,0,0,0,0.977636,0.11364
2.94594,0.0262044,-0.00901986,0.909271,0.00587719,-0.0012027,0.0128424,1,0,1,0.0110952,-0.109668,0.0195085,0,0,0,0.978055,0.111941
2.9778,0.0258467,-0.0113415,0.909363,0.00537306,-0.00167986,0.0153925,1,0,1,0.00987458,-0.108674,0.0162667,0,0,0,0.978427,0.110327
3.00982,0.0255955,-0.0138747,0.909454,0.00523713,-0.00157187,0.0163262,1,0,1,0.0102468,-0.110198,0.0145396,0,0,0,0.978701,0.111625
3.0483,0.0253937,-0.0172537,0.909576,0.00474484,-0.00120094,0.0188875,0.999945,0.0193082,1,0.0110293,-0.111348,0.013089,-0.000114775,0.0199862,0,0.97942,0.132454
3.08444,0.0252872,-0.0201092,0.90979,0.00455868,-0.00118394,0.0215042,0.999909,0.0247039,1,0.0117612,-0.111474,0.0145229,-0.000442263,0.0599879,0,0.979813,0.172508
3.11176,0.0252086,-0.0230696,0.910126,0.00395387,-0.00158896,0.023359,0.999909,0.0247039,1,0.01113,-0.111649,0.0175328,-0.000589692,0.0799848,0,0.980001,0.192791
3.1475,0.0251296,-0.0261026,0.910492,0.00299116,-0.00173814,0.0262167,0.999909,0.0247039,1,0.00987056,-0.109586,0.0181524,-0.000884567,0.119981,0,0.980198,0.230535
3.17928,0.0250563,-0.0292374,0.910919,0.00231575,-0.00178664,0.0302622,0.999909,0.0247039,1,0.00836939,-0.110308,0.0182508,-0.00117945,0.159978,0,0.9804,0.27107
3.2111,0.0250252,-0.0324441,0.911346,0.00201431,-0.00176347,0.0317378,0.999909,0.0247039,1,0.00762158,-0.109854,0.0173481,-0.00132694,0.179984,0,0.980574,0.290495
3.24697,0.0243661,-0.0344131,0.911346,0.000707142,-0.00219606,0.0361079,0.999778,0.03856,1,0.0075483,-0.109377,0.0170628,-0.00255363,0.219971,0,0.982147,0.329944
3.2787,0.0237879,-0.0357978,0.911438,-0.000345101,-0.002362,0.0402199,0.999635,0.0493158,1,0.00472261,-0.10841,0.0186094,-0.00388602,0.259954,0,0.983547,0.368934
3.31067,0.0232479,-0.037428,0.911713,-0.000536786,-0.0022453,0.0431107,0.999635,0.0493158,1,0.00433676,-0.108228,0.0224864,-0.00418506,0.279958,0,0.984201,0.388931
3.3465,0.022809,-0.0391873,0.91217,-0.000791389,-0.00160098,0.048932,0.999174,0.0738313,1,0.00368744,-0.107558,0.0261621,-0.00727266,0.319904,0,0.986801,0.428401
3.37857,0.0224286,-0.0411239,0.91272,-0.00148293,-0.0012901,0.0543751,0.999174,0.0738313,1,0.00428667,-0.104844,0.0280103,-0.00818307,0.35995,0,0.987352,0.465804
3.41033,0.0221059,-0.0432207,0.913452,-0.002147,-0.00112858,0.0579567,0.999174,0.0738313,1,0.00420125,-0.105202,0.0319151,-0.00865444,0.380684,0,0.987853,0.487103
3.4464,0.0217457,-0.0459882,0.914581,-0.00345749,-0.000959478,0.0651969,0.998522,0.0982475,1,0.00423647,-0.104398,0.0365349,-0.0129013,0.419784,0,0.991056,0.525733
3.47821,0.0215662,-0.0482876,0.915741,-0.00455805,-0.000304274,0.0732809,0.998522,0.0982475,1,0.00395453,-0.101156,0.0423604,-0.0135158,0.439779,0,0.991471,0.542872
3.51004,0.0214581,-0.050577,0.916992,-0.00536296,-0.000171759,0.0779718,0.997675,0.122559,1,0.00543752,-0.0979585,0.0467851,-0.018682,0.47962,0,0.99492,0.579972
3.54603,0.0214268,-0.0528769,0.918274,-0.0062075,0.000391125,0.0879994,0.99663,0.146766,1,0.00677758,-0.0939925,0.0467871,-0.0246183,0.519404,0,0.998779,0.615979
3.57793,0.0214278,-0.055163,0.919556,-0.00757109,0.000681889,0.0994294,0.99663,0.146766,1,0.00656764,-0.0900875,0.0481139,-0.0255651,0.539379,0,0.999133,0.63212
3.61008,0.0214384,-0.0573587,0.920776,-0.00888586,0.000743659,0.105365,0.995384,0.170865,1,0.00650607,-0.0858885,0.04607,-0.032495,0.579491,0,1.00346,0.668111
3.64662,0.0198587,-0.0587756,0.921265,-0.0110059,0.00154622,0.118657,0.993933,0.194852,1,0.00597219,-0.0805004,0.0434174,-0.0402093,0.618679,0,1.00963,0.702047
3.67793,0.0184729,-0.0596876,0.92157,-0.0133036,0.00257939,0.133328,0.992273,0.218722,1,0.00604927,-0.0751772,0.0396811,-0.047328,0.638237,0,1.01585,0.716508
3.7102,0.0172574,-0.0606054,0.922028,-0.0146152,0.00323222,0.140706,0.9904,0.242475,1,0.00641924,-0.0700278,0.0393916,-0.0566296,0.677625,0,1.02222,0.75134
3.74666,0.0162205,-0.061502,0.92276,-0.0176195,0.00525922,0.157127,0.988311,0.266107,1,0.00805688,-0.0639128,0.0421605,-0.0668475,0.716878,0,1.02871,0.785508
3.77851,0.0153173,-0.0623525,0.923706,-0.0200274,0.00714948,0.174668,0.986003,0.289614,1,0.00802933,-0.0589225,0.0479843,-0.0780123,0.755973,0,1.03534,0.820829
3.81115,0.0145605,-0.0631347,0.924896,-0.0216051,0.00799911,0.184007,0.983472,0.312991,1,0.00815713,-0.0530075,0.0532867,-0.0879003,0.775017,0,1.04207,0.835279
3.847,0.013852,-0.0639339,0.926605,-0.0249825,0.0106265,0.203976,0.980534,0.337688,1,0.0105998,-0.0462371,0.0573602,-0.101382,0.813696,0,1.04936,0.869089
3.87884,0.0134492,-0.0643685,0.928131,-0.0280508,0.0133725,0.225567,0.974502,0.38233,1,0.0115369,-0.036855,0.0638136,-0.124111,0.850986,0,1.06223,0.900408
3.91068,0.0132528,-0.0645588,0.92981,-0.0297478,0.0148793,0.236987,0.971042,0.405165,1,0.0149828,-0.0261888,0.067203,-0.136714,0.869306,0,1.06908,0.910736
3.94653,0.0131967,-0.0644727,0.931671,-0.0333308,0.0187671,0.261324,0.967341,0.427858,1,0.0182018,-0.0148874,0.0700515,-0.153324,0.90713,0,1.07585,0.940449
3.97845,0.0132983,-0.0640834,0.933777,-0.0369801,0.0232443,0.289237,0.963395,0.450404,1,0.0198971,-0.00321763,0.0745526,-0.167529,0.925011,0,1.08248,0.949892
4.01053,0.0135381,-0.0633966,0.936127,-0.0381649,0.0249428,0.300062,0.954754,0.495042,1,0.0233829,0.00802879,0.0814164,-0.198046,0.959766,0,1.09628,0.980542
4.04634,0.0114099,-0.0613977,0.938782,-0.0413875,0.029688,0.327714,0.946825,0.531538,1,0.0251117,0.0198451,0.0899996,-0.227097,0.994383,0,1.1092,1.01066
4.0782,0.00961827,-0.0592767,0.941193,-0.0442576,0.0345531,0.356475,0.94509,0.539057,1,0.0286122,0.0378625,0.10322,-0.236079,1.01284,0,1.11201,1.01552
4.11018,0.00818574,-0.056708,0.944092,-0.0463291,0.0378211,0.374342,0.934375,0.582421,1,0.0326906,0.053622,0.113099,-0.273168,1.04487,0,1.12669,1.04351
4.14612,0.00698761,-0.0528607,0.94812,-0.0488888,0.0433777,0.401677,0.92258,0.625111,1,0.0357664,0.0714827,0.121903,-0.31346,1.07523,0,1.14046,1.06973
4.17795,0.00660638,-0.0501522,0.950806,-0.0504253,0.0494467,0.433508,0.916269,0.646196,1,0.0454318,0.093883,0.132575,-0.334836,1.08971,0,1.14665,1.07417
4.20987,0.00642543,-0.046038,0.954681,-0.0510943,0.0524606,0.449989,0.9028,0.687824,1,0.0497325,0.108984,0.138418,-0.380081,1.1171,0,1.15935,1.10462
4.24575,0.00679749,-0.0400915,0.959869,-0.0522365,0.0585552,0.483659,0.880427,0.748879,1,0.0561978,0.129318,0.144906,-0.446955,1.13517,0,1.17784,1.13397
4.27774,0.00757245,-0.0346328,0.964355,-0.0534548,0.0651602,0.518352,0.872378,0.768845,1,0.0668877,0.153781,0.153216,-0.473077,1.1462,0,1.18099,1.14014
4.31007,0.00870503,-0.0284743,0.969238,-0.0541601,0.0688541,0.536087,0.855366,0.808186,1,0.0740878,0.176974,0.159939,-0.527842,1.16608,0,1.19071,1.16886
4.34582,0.0102336,-0.021496,0.97467,-0.0555925,0.0768558,0.571501,0.827519,0.865662,1,0.0814574,0.203339,0.17426,-0.60697,1.17219,0,1.2065,1.20124
4.37775,0.0122423,-0.0136958,0.980743,-0.0571088,0.086067,0.606669,0.8176,0.8844,1,0.0897362,0.230554,0.191294,-0.637664,1.17854,0,1.20646,1.21012
4.40977,0.0147527,-0.0049847,0.98764,-0.0577658,0.0905235,0.624355,0.796788,0.921223,1,0.102333,0.259117,0.211572,-0.70134,1.18848,0,1.21227,1.24674
4.44577,0.0142541,0.00650201,0.996735,-0.0594783,0.0992871,0.66044,0.763075,0.974785,1,0.114971,0.288559,0.243121,-0.790986,1.17928,0,1.22406,1.29354
4.47791,0.0138739,0.0167553,1.00525,-0.0614931,0.107885,0.701251,0.751159,0.992178,1,0.129275,0.328963,0.290692,-0.825533,1.17985,0,1.22273,1.31155
4.5097,0.0142707,0.0281129,1.01483,-0.0619638,0.110196,0.716294,0.71332,1.04294,1,0.139249,0.363194,0.325237,-0.920054,1.15925,0,1.23238,1.36441
4.54575,0.0153898,0.0405878,1.02502,-0.0623392,0.114583,0.754185,0.672275,1.0915,1,0.149906,0.397364,0.346548,-1.0167,1.1299,0,1.23957,1.42045
4.5776,0.017175,0.0541103,1.03531,-0.0617543,0.116007,0.792994,0.657863,1.10718,1,0.159981,0.430369,0.356859,-1.05375,1.12302,0,1.23316,1.44231
4.6097,0.0195128,0.0686086,1.04474,-0.0609727,0.115564,0.81242,0.61239,1.15268,1,0.168891,0.461372,0.342404,-1.15161,1.08174,0,1.23641,1.4986
4.64552,0.023045,0.0879164,1.05392,-0.0597445,0.11283,0.851919,0.563483,1.19578,1,0.174262,0.4897,0.296319,-1.24865,1.0321,0,1.23383,1.55135
4.67748,0.0262853,0.104172,1.0582,-0.0582307,0.107401,0.892236,0.528921,1.22314,1,0.17915,0.52124,0.204755,-1.30697,0.990659,0,1.22806,1.57189
4.70979,0.029817,0.120964,1.05829,-0.0571807,0.103335,0.912755,0.474074,1.26205,1,0.181301,0.538652,0.0948682,-1.39977,0.928999,0,1.22591,1.6313
4.7454,0.0335499,0.138079,1.05328,-0.0546018,0.0915147,0.958188,0.415533,1.29834,1,0.181548,0.552314,-0.0553572,-1.48885,0.861207,0,1.22269,1.69962
4.77736,0.0373829,0.155556,1.04413,-0.0526831,0.0777967,0.999997,0.395181,1.30984,1,0.1804,0.56145,-0.214342,-1.52345,0.840671,0,1.20927,1.73983
4.80973,0.0412364,0.173479,1.0318,-0.0524636,0.0717057,1.01718,0.331564,1.3425,1,0.175056,0.574728,-0.325346,-1.60668,0.766107,0,1.20495,1.82128
4.84608,0.0436873,0.196261,1.01498,-0.0526668,0.0545574,1.06579,0.264025,1.37234,1,0.170224,0.587224,-0.412548,-1.68489,0.688101,0,1.19663,1.90311
4.87804,0.0451973,0.215001,1.00201,-0.0547597,0.0420429,1.10733,0.216775,1.39062,1,0.162069,0.603219,-0.445259,-1.72824,0.632587,0,1.18807,1.94227
4.90996,0.0465274,0.234161,0.990875,-0.0566398,0.0352097,1.13107,0.167708,1.40758,1,0.147894,0.617869,-0.401654,-1.78739,0.58273,0,1.1797,1.97684
4.94602,0.0475249,0.25365,0.982269,-0.0615743,0.0224628,1.18485,0.0906456,1.4305,1,0.130214,0.628467,-0.331828,-1.85359,0.500551,0,1.17777,2.01542
4.97803,0.0481045,0.273419,0.976562,-0.0663782,0.0136245,1.23619,0.0369167,1.44406,1,0.108049,0.636884,-0.242477,-1.88847,0.444125,0,1.17093,2.0204
5.00988,0.0481467,0.293418,0.973816,-0.0685759,0.0108373,1.25727,-0.045475,1.46141,1,0.085963,0.645195,-0.148409,-1.94619,0.364297,0,1.17204,2.05683
5.04625,0.0472746,0.318591,0.974335,-0.073967,0.00636428,1.31163,-0.105842,1.47175,1,0.0592964,0.648993,-0.0578402,-1.97622,0.307472,0,1.16356,2.06478
5.07818,0.0457661,0.338786,0.977234,-0.0797892,0.00520153,1.36798,-0.137765,1.47646,1,0.02281,0.650891,0.0468171,-1.9807,0.277168,0,1.15261,2.03861
5.11011,0.0435693,0.358967,0.981384,-0.0822094,0.00505968,1.3971,-0.228972,1.48731,1,-0.0056902,0.650625,0.103297,-1.99032,0.196509,0,1.16094,2.03854
5.14603,0.0407122,0.379058,0.985748,-0.0852721,0.00508551,1.45646,-0.326676,1.495,1,-0.0316502,0.647487,0.124346,-1.99646,0.118885,0,1.17495,2.03847
5.17798,0.0372124,0.399007,0.98941,-0.0875668,0.00595795,1.51779,-0.36028,1.49679,1,-0.057619,0.643807,0.117322,-1.99779,0.094072,0,1.16758,2.01996
5.20992,0.0331622,0.418739,0.991699,-0.0885667,0.00657965,1.54903,-0.429075,1.49919,1,-0.0823907,0.637864,0.0830923,-1.99947,0.0460092,0,1.17521,2.00808
5.24604,0.0267377,0.446366,0.989655,-0.0915265,0.00886836,1.61188,-0.499998,1.5,1,-0.106284,0.632517,0.037137,-2,1.07288e-06,0,1.17801,1.9969
5.27791,0.0208436,0.468673,0.98645,-0.0949586,0.0117084,1.67585,-0.555593,1.5,1,-0.136007,0.625714,-0.0132126,-2,-0.000312461,0,1.18156,1.96636
5.31252,0.0142978,0.490576,0.982544,-0.0966941,0.01371,1.70831,-0.63972,1.49995,1,-0.159377,0.621357,-0.0443201,-2,-0.0021259,0,1.20286,1.94386
5.34824,0.00703495,0.512093,0.978241,-0.10037,0.0187729,1.77433,-0.706409,1.49984,1,-0.185804,0.615466,-0.0697525,-1.99999,-0.00493527,0,1.21865,1.91861
5.3804,-0.0010825,0.533174,0.973999,-0.106003,0.0262569,1.84167,-0.802566,1.49945,1,-0.213731,0.609012,-0.0806302,-1.99997,-0.0116504,0,1.25569,1.89271
5.41212,-0.0101485,0.55384,0.970245,-0.109285,0.0311754,1.87591,-0.8336,1.49925,1,-0.246226,0.601237,-0.0771418,-1.99995,-0.0146195,0,1.2541,1.86031
5.44786,-0.0230098,0.579089,0.966675,-0.115162,0.0425265,1.94513,-0.908984,1.49854,1,-0.280896,0.592297,-0.0614648,-1.99986,-0.0238078,0,1.27728,1.82707
5.47965,-0.0346186,0.598876,0.965057,-0.120652,0.0561892,2.01556,-0.981275,1.49747,1,-0.328723,0.5836,-0.0291371,-1.99968,-0.0357654,0,1.3057,1.78229
5.51152,-0.0475636,0.618326,0.964935,-0.122842,0.0639809,2.05125,-1.03692,1.49632,1,-0.370377,0.57584,0.00675808,-1.99943,-0.0475536,0,1.32322,1.74427
5.54808,-0.0619861,0.637454,0.966736,-0.126015,0.081722,2.12312,-1.1168,1.494,1,-0.416794,0.56943,0.0586785,-1.9988,-0.0694029,0,1.3592,1.70713
5.57988,-0.0780173,0.656321,0.970764,-0.127293,0.104141,2.20313,-1.19247,1.49087,1,-0.467359,0.564147,0.122729,-1.99765,-0.0969217,0,1.3926,1.67149
5.61166,-0.0957868,0.674977,0.976807,-0.12733,0.113407,2.23224,-1.21677,1.48963,1,-0.519965,0.559538,0.186638,-1.99711,-0.1075,0,1.38593,1.63148
5.6475,-0.119406,0.701899,0.986237,-0.128099,0.140433,2.30477,-1.30949,1.48354,1,-0.580482,0.557422,0.251257,-1.99377,-0.157776,0,1.42389,1.60375
5.67964,-0.140408,0.723805,0.995758,-0.128006,0.170992,2.3763,-1.37964,1.47711,1,-0.659986,0.55585,0.329369,-1.98902,-0.209282,0,1.45024,1.56852
5.71146,-0.163795,0.745472,1.00735,-0.127479,0.187778,2.41184,-1.41553,1.47305,1,-0.726987,0.5597,0.377949,-1.98536,-0.241539,0,1.44785,1.53894
5.74734,-0.19007,0.766953,1.02231,-0.126687,0.223288,2.48855,-1.50195,1.46045,1,-0.807663,0.565627,0.455026,-1.9707,-0.341083,0,1.48407,1.54332
5.78115,-0.227638,0.793619,1.04761,-0.124032,0.241319,2.551,-1.58017,1.44443,1,-0.904306,0.570011,0.578918,-1.9445,-0.467876,0,1.50172,1.57936
5.81105,-0.252824,0.809573,1.06653,-0.118178,0.245288,2.58542,-1.61239,1.43611,1,-1.03972,0.578711,0.768131,-1.92741,-0.533922,0,1.49847,1.6174
5.84689,-0.298825,0.836015,1.10269,-0.0971412,0.24414,2.65253,-1.68934,1.41058,1,-1.12061,0.583419,0.876284,-1.85984,-0.735523,0,1.50805,1.74755
5.87903,-0.33819,0.856979,1.13223,-0.0743488,0.23358,2.71697,-1.76307,1.37522,1,-1.2321,0.587184,0.972102,-1.73044,-1.00279,0,1.52196,1.92908
5.91097,-0.378693,0.877724,1.15808,-0.0628624,0.225369,2.74813,-1.79679,1.35367,1,-1.28048,0.588059,0.907346,-1.63456,-1.15248,0,1.50416,1.99452
5.94687,-0.419963,0.89823,1.1788,-0.0421343,0.206456,2.80801,-1.85537,1.30339,1,-1.30585,0.588214,0.752476,-1.38224,-1.44548,0,1.50217,2.16978
5.97887,-0.462009,0.91844,1.19492,-0.0281932,0.18528,2.86457,-1.90498,1.23929,1,-1.32947,0.585456,0.592224,-1.05757,-1.69751,0,1.49101,2.37415
6.01097,-0.504795,0.93841,1.20721,-0.0231157,0.174606,2.89155,-1.92525,1.20296,1,-1.35029,0.582288,0.459313,-0.892547,-1.78979,0,1.45967,2.45912
6.04748,-0.553531,0.964967,1.21622,-0.0181765,0.155097,2.94263,-1.95475,1.13022,1,-1.37495,0.580814,0.358722,-0.619403,-1.90167,0,1.4274,2.61959
6.07932,-0.592606,0.986166,1.22156,-0.0207932,0.134894,2.98974,-1.97574,1.04949,1,-1.40353,0.576392,0.298884,-0.397918,-1.96002,0,1.4022,2.7448
6.11119,-0.632637,1.00688,1.22528,-0.0241158,0.124392,3.01243,-1.98347,1.00612,1,-1.41997,0.570457,0.248048,-0.306852,-1.97632,0,1.36949,2.79046
6.14707,-0.673397,1.02703,1.22668,-0.0365918,0.102823,3.06027,-1.99227,0.934821,1,-1.43112,0.56344,0.171656,-0.188696,-1.99108,0,1.34139,2.84581
6.17894,-0.714816,1.04652,1.22607,-0.0513843,0.0903783,3.09781,-1.99768,0.856968,1,-1.43971,0.551635,0.0879438,-0.0929736,-1.99784,0,1.31635,2.88466
6.2115,-0.756756,1.0652,1.22382,-0.0613286,0.0853678,3.1185,-1.99917,0.815496,1,-1.44727,0.534996,0.0254429,-0.0525277,-1.99931,0,1.28687,2.89287
6.24728,-0.809677,1.08726,1.2182,-0.0829133,0.07643,-3.12298,-2,0.727501,1,-1.44955,0.514741,-0.0323437,0,-2,0,1.2625,2.90279
6.27915,-0.852213,1.10384,1.21005,-0.106631,0.0685379,-3.08069,-2,0.637501,1,-1.44761,0.484045,-0.139468,0,-2,0,1.25659,2.87845
6.31228,-0.894806,1.11947,1.19757,-0.118907,0.0643816,-3.05872,-2,0.609375,1,-1.44137,0.459973,-0.272858,0,-2,0,1.23316,2.86417
6.34796,-0.93743,1.13404,1.18121,-0.143121,0.0562302,-3.01275,-2,0.525,1,-1.43295,0.434299,-0.407531,0,-2,0,1.23807,2.85399
6.38033,-0.980079,1.14744,1.16116,-0.170861,0.0535234,-2.96422,-2,0.451172,1,-1.42704,0.403748,-0.532274,0,-2,0,1.24539,2.84566
6.41245,-1.0226,1.1593,1.13864,-0.185086,0.0540658,-2.93907,-2,0.4125,1,-1.41769,0.366995,-0.640591,0,-2,0,1.23783,2.83246
6.44792,-1.08224,1.17671,1.11127,-0.214514,0.0589215,-2.88656,-2,0.3225,1,-1.40507,0.314414,-0.691765,0,-2,0,1.2587,2.79451
6.48189,-1.13038,1.18843,1.09055,-0.239693,0.0686806,-2.83038,-2,0.255,1,-1.38911,0.229878,-0.694094,0,-2,0,1.27896,2.71731
6.51243,-1.17751,1.19661,1.07217,-0.253137,0.0748834,-2.79454,-2,0.209999,1,-1.37124,0.143849,-0.639746,0,-2,0,1.28651,2.62405
6.55056,-1.23473,1.20115,1.05411,-0.269443,0.0847821,-2.73755,-2,0.12,1,-1.34741,0.0413033,-0.546118,0,-2,0,1.32569,2.50613
6.58036,-1.26809,1.20062,1.04633,-0.284357,0.10011,-2.66396,-2,0.0525001,1,-1.30814,-0.106602,-0.391341,0,-2,0,1.36236,2.33438
6.61237,-1.31129,1.19594,1.0397,-0.287803,0.106685,-2.63623,-2,0.0074991,1,-1.28184,-0.204158,-0.290456,0,-2,0,1.37415,2.22543
6.64811,-1.36323,1.18386,1.03665,-0.289955,0.123159,-2.56433,-2,-0.0825008,1,-1.24346,-0.333042,-0.162296,0,-2,0,1.41792,2.08597
6.68013,-1.40301,1.16912,1.03818,-0.290618,0.144969,-2.49084,-2,-0.15,1,-1.19234,-0.492466,-0.0232664,0,-2,0,1.44843,1.9222
6.71178,-1.44115,1.14985,1.0434,-0.290317,0.1607,-2.44648,-2,-0.194999,1,-1.14677,-0.62932,0.0969592,0,-2,0,1.45699,1.78976
6.74758,-1.47773,1.12647,1.05103,-0.28387,0.184392,-2.3783,-2,-0.269531,1,-1.10218,-0.755115,0.195119,0,-2,0,1.49137,1.6741
6.77941,-1.51297,1.09932,1.06006,-0.269512,0.213227,-2.29457,-2,-0.352501,1,-1.06235,-0.871138,0.255816,0,-2,0,1.53251,1.5711
6.81155,-1.55515,1.0602,1.07269,-0.263193,0.22472,-2.26387,-2,-0.397499,1,-1.02742,-0.975492,0.27774,0,-2,0,1.5258,1.47728
6.84714,-1.59702,1.04149,1.08109,-0.246491,0.255463,-2.18707,-2,-0.465001,1,-0.98024,-1.12065,0.338096,0,-2,0,1.56156,1.35957
6.87908,-1.63703,1.01748,1.09241,-0.227917,0.279345,-2.10784,-2,-0.555001,1,-0.950039,-1.23458,0.40969,0,-2,0,1.61647,1.28697
6.91097,-1.67536,0.98861,1.10559,-0.215747,0.287022,-2.06704,-2,-0.6,1,-0.92373,-1.34243,0.475555,0,-2,0,1.62488,1.22957
6.94763,-1.71191,0.954695,1.1214,-0.194249,0.298449,-1.9857,-2,-0.667499,1,-0.895356,-1.45278,0.531965,0,-2,0,1.65204,1.17648
6.9795,-1.74673,0.915973,1.14001,-0.173138,0.305565,-1.90453,-2,-0.757499,1,-0.859669,-1.57122,0.614369,0,-2,0,1.69831,1.14032
7.01141,-1.77987,0.872792,1.16077,-0.162458,0.30813,-1.86457,-2,-0.8025,1,-0.82821,-1.67747,0.677221,0,-2,0,1.69732,1.1174
7.04783,-1.81852,0.811745,1.19278,-0.14793,0.312635,-1.78653,-2,-0.87,1,-0.789142,-1.79297,0.761961,0,-2,0,1.70246,1.11633
7.07956,-1.84727,0.757684,1.22302,-0.130749,0.308286,-1.71043,-2,-0.959999,1,-0.731665,-1.95283,0.944151,0,-2,0,1.73882,1.1954
7.11151,-1.87446,0.700257,1.25388,-0.118843,0.302084,-1.67341,-2,-0.990234,1,-0.691359,-2.05113,1.02176,0,-2,0,1.71405,1.23474
7.14731,-1.90042,0.640555,1.28214,-0.0940779,0.284322,-1.60193,-2,-1.0725,1,-0.663757,-2.10945,0.972597,0,-2,0,1.73899,1.18258
7.17967,-1.92534,0.579082,1.30658,-0.070324,0.259817,-1.52743,-2,-1.1625,1,-0.643615,-2.1473,0.859156,0,-2,0,1.76994,1.08355
7.21147,-1.94936,0.516276,1.32608,-0.0621387,0.249446,-1.50164,-2,-1.185,1,-0.625198,-2.17455,0.7243,0,-2,0,1.73298,0.9726
7.24735,-1.98438,0.448132,1.33646,-0.0400527,0.222462,-1.43977,-2,-1.275,1,-0.614297,-2.18666,0.531735,0,-2,0,1.75574,0.833634
7.27916,-2.01249,0.394042,1.33765,-0.0198121,0.202452,-1.38232,-2,-1.32,1,-0.611393,-2.18759,0.245646,0,-2,0,1.74703,0.685079
7.31112,-2.03942,0.338181,1.33566,-0.0130207,0.194843,-1.35539,-2,-1.3875,1,-0.598675,-2.19989,0.114353,0,-2,0,1.75847,0.64144
7.34712,-2.07168,0.266268,1.32767,-0.00230549,0.177108,-1.30487,-2,-1.4775,1,-0.587023,-2.20624,-0.00868801,0,-2,0,1.77573,0.622259
7.37943,-2.09024,0.221887,1.32153,0.00437341,0.166212,-1.25893,-1.93295,-1.49978,1,-0.573892,-2.21759,-0.155844,1.99995,0.0134449,0,1.75848,3.40976
7.41136,-2.11975,0.145959,1.31165,0.00436519,0.161408,-1.2378,-1.86679,-1.49911,1,-0.560338,-2.23277,-0.162512,1.99982,0.0271171,0,1.69332,3.41875
7.44768,-2.14216,0.0837415,1.30319,0.000971162,0.148151,-1.199,-1.80153,-1.498,1,-0.539418,-2.24678,-0.177724,1.99958,0.0410205,0,1.64616,3.4223
7.47944,-2.16346,0.020248,1.29437,-0.00586839,0.138308,-1.16466,-1.73715,-1.49645,1,-0.521913,-2.25961,-0.205703,1.99924,0.0551598,0,1.60274,3.4288
7.51152,-2.18364,-0.0442396,1.28488,-0.0116109,0.134121,-1.14874,-1.67366,-1.49447,1,-0.501009,-2.26778,-0.223936,1.99879,0.0695382,0,1.56346,3.42961
7.54732,-2.20259,-0.109567,1.27441,-0.0286549,0.128558,-1.11914,-1.61104,-1.49206,1,-0.480227,-2.27018,-0.261205,1.99823,0.0841632,0,1.52857,3.4284
7.57914,-2.22017,-0.175575,1.26318,-0.0561931,0.129011,-1.08975,-1.54929,-1.48923,1,-0.451948,-2.27081,-0.292028,1.99755,0.0990382,0,1.49834,3.42074
7.61102,-2.23626,-0.242108,1.25113,-0.0689288,0.130944,-1.07975,-1.48841,-1.48598,1,-0.419053,-2.26725,-0.322132,1.99674,0.114168,0,1.47294,3.40749
7.64767,-2.25506,-0.330313,1.2348,-0.109091,0.140146,-1.05598,-1.42841,-1.48232,1,-0.379981,-2.26148,-0.351177,1.9958,0.129556,0,1.43722,3.38891
7.67974,-2.26815,-0.40168,1.21982,-0.156671,0.15415,-1.03349,-1.31095,-1.47377,1,-0.321321,-2.25247,-0.41587,1.9935,0.161132,0,1.45393,3.36999
7.71163,-2.279,-0.472804,1.20309,-0.182232,0.162093,-1.02205,-1.31095,-1.47377,1,-0.269992,-2.24184,-0.476732,1.9935,0.161132,0,1.40723,3.33541
7.74749,-2.28725,-0.543529,1.18475,-0.235075,0.17762,-0.99825,-1.1969,-1.46362,1,-0.206304,-2.22843,-0.532506,1.99059,0.193804,0,1.43859,3.31317
7.77996,-2.29215,-0.61369,1.16656,-0.282233,0.192056,-0.972101,-1.14114,-1.45796,1,-0.12759,-2.20901,-0.567709,1.98888,0.210565,0,1.43713,3.26437
7.81208,-2.29246,-0.683045,1.15082,-0.302744,0.199244,-0.957743,-1.08622,-1.45191,1,-0.0128775,-2.18359,-0.527176,1.98701,0.227614,0,1.43837,3.17669
7.84796,-2.28487,-0.767965,1.13684,-0.339881,0.212517,-0.925531,-1.03213,-1.44547,1,0.140741,-2.14747,-0.422291,1.98494,0.244957,0,1.43078,3.0501
7.87974,-2.27224,-0.834102,1.12991,-0.369336,0.220397,-0.886932,-0.926427,-1.43147,1,0.361033,-2.08703,-0.262093,1.98023,0.28054,0,1.47815,2.88026
7.91206,-2.25353,-0.898243,1.12677,-0.382084,0.221756,-0.864729,-0.874805,-1.42392,1,0.539801,-2.02863,-0.14621,1.97755,0.298792,0,1.48097,2.7396
7.94806,-2.22865,-0.960031,1.1272,-0.400343,0.220064,-0.815348,-0.823999,-1.416,1,0.723858,-1.95799,-0.0387385,1.97466,0.317357,0,1.48228,2.59677
7.98133,-2.19777,-1.01918,1.13126,-0.408179,0.213936,-0.759849,-0.724815,-1.39909,1,0.913034,-1.87613,0.0794042,1.96816,0.355438,0,1.52682,2.46972
8.01234,-2.16174,-1.07563,1.13739,-0.408138,0.209047,-0.730219,-0.676425,-1.3901,1,1.08421,-1.79007,0.171513,1.96454,0.374965,0,1.52444,2.34345
8.04818,-2.12962,-1.15202,1.1427,-0.40702,0.198664,-0.669185,-0.628831,-1.38077,1,1.22863,-1.70414,0.211686,1.96064,0.394821,0,1.52481,2.233
8.08032,-2.10119,-1.21072,1.14853,-0.410945,0.193515,-0.609512,-0.536019,-1.36108,1,1.38592,-1.59205,0.247386,1.952,0.435532,0,1.57938,2.11961
8.11221,-2.06686,-1.26504,1.15765,-0.410494,0.190689,-0.572732,-0.490788,-1.35074,1,1.5239,-1.47913,0.332194,1.94723,0.456396,0,1.58625,2.00893
8.14819,-2.02777,-1.31558,1.16785,-0.402792,0.184947,-0.509799,-0.446335,-1.34006,1,1.64477,-1.36788,0.402124,1.94214,0.477601,0,1.5905,1.91205
8.18015,-1.98467,-1.36261,1.1777,-0.394858,0.183668,-0.454626,-0.359751,-1.31775,1,1.73557,-1.27325,0.395662,1.93094,0.521045,0,1.63522,1.84775
8.21185,-1.9379,-1.40616,1.18713,-0.391013,0.184756,-0.424296,-0.317607,-1.30612,1,1.81284,-1.18163,0.361321,1.9248,0.54329,0,1.63413,1.7659
8.24775,-1.87371,-1.4546,1.20102,-0.387123,0.192516,-0.36548,-0.235596,-1.28193,1,1.89611,-1.07699,0.366992,1.91136,0.588826,0,1.65941,1.70583
8.27967,-1.81762,-1.48805,1.2153,-0.384179,0.205309,-0.307657,-0.156594,-1.25653,1,2.01993,-0.913345,0.454574,1.89626,0.635757,0,1.69085,1.61915
8.31148,-1.75751,-1.51681,1.23221,-0.381249,0.212671,-0.278749,-0.118207,-1.24339,1,2.11817,-0.778492,0.536673,1.88805,0.659745,0,1.67809,1.55226
8.34827,-1.67696,-1.54592,1.25751,-0.372951,0.22922,-0.220609,-0.0436473,-1.21625,1,2.21219,-0.641624,0.612691,1.87021,0.708752,0,1.68603,1.52179
8.37934,-1.62578,-1.55962,1.27515,-0.363196,0.241814,-0.153558,0.0280003,-1.188,1,2.3304,-0.457986,0.734333,1.85034,0.759113,0,1.71721,1.50034
8.41125,-1.55494,-1.57419,1.29971,-0.356217,0.244197,-0.121416,0.0627419,-1.17347,1,2.39499,-0.354605,0.790573,1.83959,0.784787,0,1.69331,1.49388
8.44776,-1.47146,-1.6017,1.32538,-0.3419,0.244742,-0.0619313,0.13008,-1.14361,1,2.45117,-0.247458,0.780132,1.81639,0.837086,0,1.69725,1.47912
8.47961,-1.40391,-1.6227,1.34164,-0.327481,0.242116,0.00389106,0.194595,-1.11272,1,2.48737,-0.164521,0.648285,1.79077,0.890595,0,1.71231,1.42085
8.51155,-1.33471,-1.64099,1.35297,-0.32053,0.239323,0.0370533,0.252541,-1.08286,1,2.50556,-0.110463,0.508506,1.76439,0.941775,0,1.71914,1.38388
8.54748,-1.26415,-1.65695,1.3587,-0.306628,0.232605,0.103353,0.315287,-1.04801,1,2.51426,-0.0730582,0.329318,1.73156,1.00085,0,1.73035,1.36906
8.57978,-1.1923,-1.67034,1.35992,-0.294846,0.22626,0.168475,0.371538,-1.01426,1,2.52056,-0.0345269,0.152322,1.69766,1.05733,0,1.73365,1.37569
8.61162,-1.11923,-1.68085,1.3577,-0.290537,0.223619,0.200666,0.407824,-0.991091,1,2.53092,0.0216605,0.0271813,1.67316,1.09569,0,1.71336,1.37478
8.64848,-1.02632,-1.68955,1.35156,-0.284088,0.220718,0.26404,0.476031,-0.944157,1,2.53836,0.0859999,-0.072825,1.62049,1.17219,0,1.71355,1.42394
8.68024,-0.950918,-1.69257,1.34521,-0.278277,0.218003,0.332848,0.547535,-0.889433,1,2.54799,0.18162,-0.152871,1.55389,1.25914,0,1.73481,1.47399
8.71216,-0.874762,-1.69194,1.3382,-0.27576,0.216733,0.357888,0.570084,-0.87081,1,2.55231,0.270059,-0.181159,1.52996,1.2881,0,1.69594,1.4541
8.74793,-0.798045,-1.68762,1.33072,-0.26945,0.212756,0.420415,0.633947,-0.813845,1,2.55148,0.361592,-0.201323,1.45287,1.37447,0,1.70981,1.50779
8.77977,-0.720969,-1.67957,1.32327,-0.26256,0.209236,0.48833,0.692219,-0.755344,1,2.54783,0.455485,-0.21287,1.36774,1.4592,0,1.71924,1.56377
8.81179,-0.624469,-1.66454,1.31332,-0.259834,0.207889,0.512852,0.710423,-0.735521,1,2.53743,0.549676,-0.219731,1.33759,1.48689,0,1.65625,1.53827
8.84771,-0.544821,-1.65234,1.30762,-0.25339,0.206118,0.573037,0.761432,-0.675157,1,2.51916,0.659569,-0.245521,1.24195,1.56766,0,1.66006,1.58624
8.87944,-0.46559,-1.63643,1.30145,-0.248499,0.206291,0.636907,0.807136,-0.613536,1,2.50031,0.754502,-0.245315,1.13887,1.64408,0,1.66042,1.6447
8.91139,-0.386883,-1.61735,1.29376,-0.244753,0.205315,0.665997,0.834718,-0.571817,1,2.48022,0.834234,-0.270508,1.06632,1.69203,0,1.63455,1.67574
8.9472,-0.308746,-1.5954,1.28403,-0.235301,0.202104,0.718102,0.87185,-0.508375,1,2.45741,0.903566,-0.325501,0.952405,1.75867,0,1.62976,1.7613
8.97917,-0.231327,-1.57075,1.27209,-0.224471,0.197381,0.77492,0.908581,-0.433865,1,2.43124,0.968671,-0.384839,0.814309,1.82672,0,1.63277,1.87051
9.01107,-0.154605,-1.54368,1.25751,-0.217841,0.193386,0.808187,0.922726,-0.400626,1,2.40505,1.02891,-0.458306,0.751623,1.85339,0,1.5917,1.90358
9.04717,-0.0599128,-1.50645,1.23639,-0.206634,0.188604,0.857821,0.953842,-0.312942,1,2.3779,1.08289,-0.538068,0.584496,1.91269,0,1.58368,2.04802
9.0791,0.0146616,-1.47393,1.21796,-0.197302,0.183343,0.910905,0.971777,-0.246502,1,2.33454,1.15968,-0.593691,0.457431,1.94699,0,1.57167,2.12034
9.11113,0.0881859,-1.43917,1.19785,-0.193138,0.178994,0.942416,0.981228,-0.201953,1,2.2992,1.21574,-0.638232,0.37263,1.96498,0,1.53863,2.16342
9.147,0.160461,-1.40226,1.17648,-0.187951,0.172651,0.988533,0.991738,-0.134838,1,2.2601,1.26822,-0.686916,0.246206,1.98479,0,1.52595,2.24524
9.17897,0.2313,-1.36313,1.15454,-0.184029,0.166748,1.03832,0.999094,-0.044994,1,2.21693,1.32325,-0.713429,0.0807663,1.99837,0,1.53325,2.35116
9.21239,0.300648,-1.32186,1.13217,-0.183584,0.163677,1.06302,1,-1.07288e-06,1,2.16897,1.37973,-0.722654,1.90735e-06,2,0,1.50129,2.36884
9.25198,0.388091,-1.26857,1.1069,-0.183657,0.15916,1.11069,1,0,1,2.11936,1.43373,-0.731855,0,0,0,1.41249,2.66137
9.28349,0.456322,-1.22361,1.08807,-0.18641,0.159112,1.15624,1,0,1,2.05318,1.50545,-0.715229,0,0,0,1.34185,2.64452
9.3151,0.522256,-1.17638,1.07089,-0.187912,0.159031,1.17862,1,0,1,1.98988,1.56465,-0.65763,0,0,0,1.27167,2.61539
9.35147,0.601629,-1.11453,1.05005,-0.189143,0.156285,1.22417,1,0,1,1.92503,1.62181,-0.605386,0,0,0,1.18464,2.58892
9.38284,0.647868,-1.07631,1.03629,-0.183938,0.148157,1.27581,1,0,1,1.85278,1.67734,-0.616211,0,0,0,1.13303,2.57409
9.41453,0.708433,-1.02467,1.01367,-0.179746,0.142886,1.29506,1,0,1,1.81996,1.69527,-0.690958,0,0,0,1.06544,2.5814
9.45019,0.782753,-0.959597,0.976532,-0.16534,0.123099,1.34479,1,0,1,1.79269,1.70314,-0.869139,0,0,0,0.984161,2.62104
9.48205,0.841017,-0.907252,0.940308,-0.1464,0.0910583,1.39766,1,0,1,1.75981,1.70384,-1.10995,0,0,0,0.923008,2.68923
9.51387,0.897842,-0.854654,0.901245,-0.134609,0.0693477,1.42497,1,0,1,1.72775,1.70432,-1.25455,0,0,0,0.866385,2.73198
9.54958,0.952793,-0.802048,0.862579,-0.107397,0.00775264,1.48705,1,0,1,1.6784,1.70284,-1.28024,0,0,0,0.815103,2.71214
9.58144,1.00562,-0.749899,0.827118,-0.0854093,-0.0520136,1.53905,1,0,1,1.61863,1.69251,-1.21519,0,0,0,0.769589,2.63842
9.61316,1.05639,-0.699035,0.796478,-0.072031,-0.0938028,1.57409,1,0,1,1.55643,1.65924,-1.07451,0,0,0,0.730241,2.51598
9.64906,1.11917,-0.63432,0.771484,-0.0598863,-0.152722,1.62624,1,0,1,1.49889,1.60185,-0.920157,0,0,0,0.684677,2.37892
9.68073,1.16799,-0.584876,0.756317,-0.058734,-0.202444,1.68363,1,0,1,1.44202,1.50643,-0.755809,0,0,0,0.6555,2.21811
9.71252,1.21542,-0.538437,0.743286,-0.065376,-0.219141,1.71792,1,0,1,1.40479,1.42026,-0.651471,0,0,0,0.634208,2.10119
9.74947,1.2615,-0.49556,0.733643,-0.0804624,-0.226426,1.76827,1,0,1,1.36988,1.32718,-0.560801,0,0,0,0.62041,1.98808
9.78126,1.30624,-0.456689,0.728607,-0.0959855,-0.214149,1.82863,1,0,1,1.33594,1.21127,-0.409074,0,0,0,0.613188,1.84912
9.81301,1.34953,-0.421943,0.728912,-0.101081,-0.205732,1.85003,1,0,1,1.29829,1.08502,-0.235,0,0,0,0.611305,1.70823
9.84887,1.40157,-0.383922,0.736755,-0.110583,-0.179388,1.90319,1,0,1,1.25774,0.963332,-0.0485795,0,0,0,0.614778,1.58502
9.88075,1.44162,-0.357402,0.748322,-0.112842,-0.14937,1.95559,1,0,1,1.20815,0.821344,0.168213,0,0,0,0.621374,1.47055
9.91253,1.48032,-0.333745,0.763611,-0.111741,-0.134235,1.98186,1,0,1,1.17034,0.726482,0.311881,0,0,0,0.630854,1.41235
9.94828,1.51777,-0.312352,0.780945,-0.108307,-0.103943,2.03482,1,0,1,1.13354,0.648616,0.414962,0,0,0,0.643142,1.37034
9.98018,1.55404,-0.292687,0.798828,-0.103794,-0.0701011,2.09346,1,0,1,1.0996,0.589424,0.464752,0,0,0,0.658101,1.33137
10.0121,1.58935,-0.274297,0.815247,-0.102028,-0.057178,2.11488,1,0,1,1.06903,0.546066,0.462179,0,0,0,0.675798,1.28632
10.0479,1.63589,-0.238719,0.825806,-0.0961381,-0.0240131,2.16865,1,0,1,1.04445,0.515585,0.389366,0,0,0,0.701207,1.22813
10.08,1.67271,-0.209137,0.827637,-0.0886963,0.0103932,2.22287,1,0,1,1.02005,0.502243,0.214375,0,0,0,0.725251,1.15702
10.1117,1.70856,-0.180838,0.823608,-0.0850164,0.0279142,2.25046,1,0,1,1.00102,0.498625,0.0323456,0,0,0,0.752249,1.1188
10.1476,1.74355,-0.153673,0.813446,-0.0776421,0.0616045,2.30638,1,0,1,0.984168,0.49768,-0.165241,0,0,0,0.781845,1.11516
10.1802,1.77747,-0.127485,0.798431,-0.0731512,0.0926174,2.36392,1,0,1,0.966807,0.497305,-0.355824,0,0,0,0.813233,1.14396
10.212,1.81001,-0.102188,0.780334,-0.0728387,0.105939,2.39333,1,0,1,0.9367,0.496752,-0.481729,0,0,0,0.84547,1.16457
10.248,1.84835,-0.07162,0.755402,-0.0752985,0.127937,2.45345,1,0,1,0.897549,0.497879,-0.554567,0,0,0,0.885804,1.16663
10.2798,1.87677,-0.0478692,0.735199,-0.0811186,0.146413,2.52214,1,0,1,0.83653,0.501814,-0.604429,0,0,0,0.917134,1.14758
10.3117,1.9028,-0.0246796,0.716339,-0.0837691,0.153332,2.55416,1,0,1,0.773558,0.505876,-0.584292,0,0,0,0.946635,1.09348
10.3526,1.9261,-0.00206103,0.700134,-0.0888542,0.165488,2.61318,1,0,1,0.700205,0.509305,-0.525319,0,0,0,0.973443,1.01274
10.3804,1.94645,0.0199937,0.687622,-0.0881808,0.176046,2.68835,1,0,1,0.616329,0.509721,-0.424601,0,0,0,0.996865,0.905518
10.4126,1.96353,0.0414156,0.679688,-0.0868556,0.178678,2.71632,1,0,1,0.524949,0.509179,-0.303076,0,0,0,1.01623,0.791637
10.4488,1.9868,0.0642994,0.678864,-0.0781168,0.182271,2.7879,1,0,1,0.424106,0.505311,-0.146989,0,0,0,1.03973,0.675878
10.4807,2.00273,0.0816087,0.683289,-0.0598993,0.181491,2.86078,1,0,1,0.30854,0.498397,0.0353261,0,0,0,1.05472,0.587235
10.5138,2.01559,0.0986713,0.690247,-0.0477942,0.179378,2.8977,1,0,1,0.222721,0.493732,0.15741,0,0,0,1.06635,0.564051
10.5486,2.0261,0.115597,0.696686,-0.0187888,0.172634,2.97117,1,0,1,0.158823,0.491319,0.185506,0,0,0,1.07622,0.548663
10.5805,2.03479,0.132506,0.700684,0.0139862,0.160847,3.04395,1,0,1,0.111401,0.493564,0.145829,0,0,0,1.08533,0.526576
10.6125,2.04211,0.149474,0.700226,0.0313493,0.15279,3.07967,1,0,1,0.0780109,0.499025,0.0347184,0,0,0,1.09462,0.506278
10.6485,2.04953,0.170809,0.692871,0.0690159,0.132734,-3.12652,1,0,1,0.0533489,0.503222,-0.118054,0,0,0,1.10681,0.51963
10.6811,2.05404,0.188054,0.682953,0.094749,0.116845,-3.06591,1,0,1,0.0205588,0.511985,-0.287847,0,0,0,1.11664,0.587713
10.7129,2.05716,0.205769,0.671387,0.106763,0.10833,-3.03317,1,0,1,-0.00775442,0.524612,-0.367012,0,0,0,1.12601,0.640293
10.7489,2.05872,0.224213,0.660034,0.127554,0.0913999,-2.96383,1,0,1,-0.043558,0.545486,-0.388818,0,0,0,1.13435,0.671291
10.7808,2.05866,0.243737,0.650696,0.140268,0.077234,-2.90472,1,0,1,-0.0838377,0.575775,-0.351072,0,0,0,1.14113,0.679557
10.8128,2.05698,0.264499,0.644409,0.144502,0.0716151,-2.88221,1,0,1,-0.125231,0.615438,-0.266217,0,0,0,1.14613,0.682142
10.8487,2.05562,0.286048,0.645172,0.15335,0.0601475,-2.82791,1,0,1,-0.168825,0.658802,-0.161108,0,0,0,1.14981,0.698912
10.8809,2.05304,0.304171,0.650909,0.160199,0.0505722,-2.77674,1,0,1,-0.223982,0.716016,0.00125158,0,0,0,1.15034,0.750232
10.913,2.04863,0.324213,0.660248,0.162683,0.0460944,-2.75271,1,0,1,-0.267668,0.762216,0.137109,0,0,0,1.14898,0.819401
10.949,2.0425,0.346031,0.672485,0.165574,0.0374891,-2.70162,1,0,1,-0.308096,0.805178,0.249085,0,0,0,1.14622,0.897373
10.9807,2.03475,0.369568,0.687073,0.166144,0.0329325,-2.66139,1,0,1,-0.347872,0.84854,0.339147,0,0,0,1.14246,0.977781
11.0136,2.02552,0.394648,0.703339,0.165688,0.0312208,-2.63978,1,0,1,-0.384969,0.88899,0.415372,0,0,0,1.13818,1.05406
11.0497,2.0121,0.427808,0.724609,0.163629,0.0291795,-2.5972,1,0,1,-0.417834,0.923049,0.457199,0,0,0,1.13278,1.11159
11.0815,1.9999,0.455613,0.741577,0.159541,0.0299244,-2.55613,1,0,1,-0.457423,0.959205,0.476925,0,0,0,1.12879,1.1648
11.1133,1.98645,0.48437,0.757812,0.156473,0.0310318,-2.53605,1,0,1,-0.488519,0.982952,0.471219,0,0,0,1.12533,1.19453
11.1498,1.97184,0.513992,0.77301,0.148624,0.0352641,-2.49332,1,0,1,-0.517872,1.00274,0.445367,0,0,0,1.12258,1.21327
11.1816,1.95608,0.544364,0.78714,0.140113,0.0414148,-2.4558,1,0,1,-0.54737,1.02204,0.416572,0,0,0,1.12059,1.23195
11.2147,1.93917,0.575288,0.800446,0.1364,0.0441169,-2.44135,1,0,1,-0.576284,1.03542,0.389659,0,0,0,1.11929,1.24741
11.2506,1.91907,0.606309,0.815063,0.126121,0.0521613,-2.40597,1,0,1,-0.607356,1.04523,0.37645,0,0,0,1.11647,1.26614
11.2822,1.90188,0.630442,0.826813,0.115105,0.0613498,-2.37248,1,0,1,-0.647703,1.04743,0.384389,0,0,0,1.11393,1.29011
11.314,1.88331,0.65529,0.838745,0.108361,0.0673542,-2.35316,1,0,1,-0.680209,1.04648,0.394614,0,0,0,1.1116,1.30901
11.3498,1.86348,0.680607,0.850189,0.096123,0.0784732,-2.32164,1,0,1,-0.709963,1.04015,0.390114,0,0,0,1.10962,1.31839
11.3816,1.84245,0.706175,0.86084,0.0840138,0.0907757,-2.29426,1,0,1,-0.738572,1.02892,0.367146,0,0,0,1.10805,1.3187
11.4135,1.82029,0.731818,0.870422,0.0772661,0.0985371,-2.27974,1,0,1,-0.764409,1.01473,0.335132,0,0,0,1.1069,1.31389
11.4493,1.79098,0.763631,0.881226,0.0656334,0.115737,-2.2511,1,0,1,-0.791936,0.995072,0.300104,0,0,0,1.10584,1.30667
11.4813,1.76616,0.788621,0.889679,0.0570056,0.132568,-2.22359,1,0,1,-0.828518,0.963402,0.2777,0,0,0,1.10503,1.30065
11.5132,1.74013,0.81297,0.898651,0.0533802,0.139505,-2.21007,1,0,1,-0.860485,0.930876,0.282331,0,0,0,1.10407,1.29872
11.5491,1.71288,0.836465,0.908691,0.0481897,0.145256,-2.18398,1,0,1,-0.890923,0.892947,0.309206,0,0,0,1.10282,1.29873
11.581,1.68446,0.859021,0.919586,0.044781,0.143108,-2.15632,1,0,1,-0.924985,0.851142,0.34175,0,0,0,1.1013,1.30263
11.6132,1.65504,0.880645,0.930725,0.0437075,0.141224,-2.14631,1,0,1,-0.953334,0.809587,0.360261,0,0,0,1.09974,1.30156
11.6491,1.62013,0.904536,0.943298,0.0415165,0.132109,-2.12179,1,0,1,-0.976553,0.770142,0.34902,0,0,0,1.09816,1.29174
11.6813,1.59178,0.922619,0.951355,0.0403098,0.120411,-2.09739,1,0,1,-0.99753,0.727902,0.282361,0,0,0,1.09718,1.26674
11.7131,1.56261,0.940204,0.957581,0.0396373,0.112201,-2.08286,1,0,1,-1.01245,0.696897,0.227047,0,0,0,1.0965,1.24991
11.7491,1.53275,0.957279,0.962006,0.0377636,0.0991274,-2.06064,1,0,1,-1.02493,0.667504,0.170321,0,0,0,1.0962,1.23493
11.7819,1.50226,0.97387,0.964996,0.0352083,0.0854379,-2.03609,1,0,1,-1.03593,0.639599,0.116248,0,0,0,1.09632,1.22301
11.8138,1.47121,0.989992,0.967163,0.0335104,0.0794486,-2.02364,1,0,1,-1.04613,0.61338,0.0798677,0,0,0,1.09691,1.21532
11.8496,1.43169,1.00944,0.969666,0.0298429,0.0686557,-1.99834,1,0,1,-1.05515,0.588337,0.0651647,0,0,0,1.09829,1.20985
11.8814,1.39967,1.02441,0.971985,0.0252167,0.0608125,-1.97212,1,0,1,-1.06316,0.556387,0.0662788,0,0,0,1.09997,1.20177
11.9143,1.36734,1.03883,0.974976,0.0227004,0.0586879,-1.95859,1,0,1,-1.06674,0.531992,0.0839903,0,0,0,1.10215,1.19499
11.9507,1.33485,1.05273,0.978607,0.0164846,0.0568405,-1.93074,1,0,1,-1.06783,0.506731,0.106286,0,0,0,1.10491,1.18673
11.9824,1.30223,1.06617,0.982788,0.00896966,0.0585883,-1.89875,1,0,1,-1.06701,0.484848,0.122815,0,0,0,1.10831,1.17842
12.0144,1.26957,1.07904,0.987274,0.00608886,0.0602771,-1.88657,1,0,1,-1.06489,0.462529,0.135708,0,0,0,1.11228,1.16891
12.0501,1.22979,1.09237,0.992706,-0.00139237,0.0657517,-1.85545,1,0,1,-1.06046,0.438534,0.143509,0,0,0,1.1163,1.1565
12.082,1.1982,1.10199,0.996735,-0.00872915,0.0727849,-1.82257,1,0,1,-1.05236,0.403865,0.142235,0,0,0,1.11968,1.13614
12.1138,1.16666,1.111,1.00018,-0.0123912,0.0768586,-1.80564,1,0,1,-1.04448,0.375305,0.126036,0,0,0,1.12343,1.11699
12.15,1.13522,1.11938,1.00281,-0.0196945,0.0838416,-1.77099,1,0,1,-1.03592,0.347418,0.103291,0,0,0,1.12752,1.0975
12.1825,1.10397,1.12705,1.00461,-0.0253739,0.089353,-1.73472,1,0,1,-1.02672,0.318544,0.0736843,0,0,0,1.13184,1.07752
12.2143,1.073,1.13396,1.00568,-0.027477,0.0919306,-1.71597,1,0,1,-1.01408,0.288248,0.0494693,0,0,0,1.13632,1.05541
12.2501,1.03478,1.14142,1.00662,-0.0292224,0.0945762,-1.67734,1,0,1,-0.99893,0.257691,0.0321401,0,0,0,1.14197,1.03213
12.2823,1.00467,1.14639,1.00739,-0.029612,0.0965706,-1.63813,1,0,1,-0.980339,0.21627,0.029496,0,0,0,1.14642,1.00434
12.3142,0.974993,1.15048,1.00812,-0.0290803,0.096479,-1.618,1,0,1,-0.961542,0.18302,0.0290251,0,0,0,1.15078,0.979235
12.35,0.945762,1.15368,1.00876,-0.0253591,0.093985,-1.57308,1,0,1,-0.94684,0.151614,0.0260858,0,0,0,1.15499,0.959257
12.3818,0.916984,1.156,1.00934,-0.0210484,0.0906002,-1.53166,1,0,1,-0.928466,0.118084,0.0210378,0,0,0,1.15901,0.936181
12.4138,0.881571,1.15768,1.00995,-0.019185,0.0888853,-1.51513,1,0,1,-0.912256,0.0873493,0.0199474,0,0,0,1.16376,0.916645
12.4495,0.853011,1.1584,1.01035,-0.013667,0.0847481,-1.47442,1,0,1,-0.894533,0.0496611,0.0165294,0,0,0,1.16773,0.896063
12.4815,0.824962,1.15834,1.01053,-0.00757091,0.0816534,-1.43413,1,0,1,-0.878192,0.0219198,0.0114675,0,0,0,1.17153,0.87854
12.5133,0.797409,1.15756,1.01059,-0.00404395,0.0794443,-1.41052,1,0,1,-0.861361,-0.00375808,0.00719508,0,0,0,1.1752,0.8614
12.5493,0.770242,1.15606,1.01089,0.00152996,0.0769907,-1.3756,1,0,1,-0.848071,-0.028152,0.0064608,0,0,0,1.17872,0.848563
12.5811,0.74352,1.15381,1.01187,0.00864989,0.0762338,-1.33449,1,0,1,-0.835302,-0.0533133,0.0209056,0,0,0,1.18203,0.837263
12.6131,0.717218,1.15071,1.01385,0.0110774,0.0763172,-1.32001,1,0,1,-0.820903,-0.0790861,0.0467366,0,0,0,1.18503,0.826027
12.6489,0.684816,1.14565,1.01767,0.0178567,0.0786979,-1.28501,1,0,1,-0.808864,-0.108559,0.0817883,0,0,0,1.18834,0.820205
12.681,0.659183,1.1407,1.02109,0.025198,0.0826918,-1.25105,1,0,1,-0.79669,-0.141996,0.107616,0,0,0,1.19071,0.81637
12.7129,0.633824,1.13497,1.02448,0.0283764,0.084252,-1.23471,1,0,1,-0.790022,-0.167895,0.108695,0,0,0,1.19283,0.814947
12.7489,0.608768,1.12843,1.02792,0.0330021,0.0861028,-1.20346,1,0,1,-0.780861,-0.193252,0.107743,0,0,0,1.19465,0.811603
12.7807,0.583987,1.12104,1.03137,0.0359954,0.0869775,-1.1733,1,0,1,-0.771518,-0.219995,0.111283,0,0,0,1.19615,0.809951
12.8127,0.559466,1.11281,1.03458,0.0370316,0.0868224,-1.15897,1,0,1,-0.763111,-0.248301,0.10605,0,0,0,1.19734,0.809468
12.8489,0.530386,1.1011,1.03754,0.0384519,0.0859404,-1.13121,1,0,1,-0.756163,-0.274281,0.0968916,0,0,0,1.19765,0.810186
12.8808,0.507595,1.09083,1.03915,0.0393574,0.0847804,-1.10443,1,0,1,-0.745658,-0.305208,0.0742733,0,0,0,1.19746,0.80912
12.9127,0.485003,1.07987,1.0401,0.0394125,0.0839283,-1.0914,1,0,1,-0.73629,-0.329021,0.052887,0,0,0,1.19706,0.808192
12.9487,0.462671,1.06822,1.04041,0.038993,0.0812524,-1.06341,1,0,1,-0.726392,-0.352988,0.0301302,0,0,0,1.19643,0.808179
12.9807,0.440614,1.05587,1.04019,0.0374525,0.0791971,-1.04113,1,0,1,-0.714979,-0.37466,0.0101897,0,0,0,1.19557,0.80726
13.0126,0.418786,1.04281,1.03967,0.0360004,0.0781837,-1.02886,1,0,1,-0.704837,-0.398781,-0.00298684,0,0,0,1.1945,0.809834
13.0522,0.391903,1.02546,1.0387,0.0332306,0.0768524,-1.00485,1,0,1,-0.695732,-0.422822,-0.013143,0,0,0,1.19283,0.814245
13.0839,0.370748,1.01086,1.03781,0.0303666,0.0763753,-0.981579,1,0,1,-0.681313,-0.451163,-0.0208452,0,0,0,1.19131,0.817417
13.1158,0.349965,0.995646,1.03696,0.0285525,0.0762258,-0.97024,1,0,1,-0.66911,-0.471103,-0.0201566,0,0,0,1.18963,0.818567
13.1514,0.329601,0.979864,1.03616,0.0243934,0.0753822,-0.947714,1,0,1,-0.654592,-0.490424,-0.0173245,0,0,0,1.1878,0.818112
13.1833,0.30973,0.963509,1.03537,0.021237,0.0741933,-0.92605,1,0,1,-0.639238,-0.507619,-0.0179675,0,0,0,1.18578,0.816471
13.2149,0.290321,0.946642,1.03461,0.0197989,0.0734155,-0.91528,1,0,1,-0.622798,-0.525809,-0.0187918,0,0,0,1.18363,0.815295
13.2507,0.268165,0.92448,1.0336,0.0168956,0.0706658,-0.893886,1,0,1,-0.607609,-0.541278,-0.0183635,0,0,0,1.17957,0.813946
13.2825,0.251192,0.906175,1.03262,0.0147893,0.0672507,-0.872563,1,0,1,-0.586296,-0.559593,-0.0246265,0,0,0,1.17598,0.81086
13.3144,0.234623,0.887482,1.03159,0.0138944,0.0650629,-0.861915,1,0,1,-0.568456,-0.57532,-0.0280884,0,0,0,1.17236,0.809274
13.3511,0.218472,0.868475,1.03027,0.0118551,0.0598049,-0.84005,1,0,1,-0.550911,-0.587181,-0.0333443,0,0,0,1.16874,0.805851
13.3834,0.202751,0.849169,1.02863,0.0101907,0.0534715,-0.815644,1,0,1,-0.533537,-0.597922,-0.0430926,0,0,0,1.16512,0.802514
13.4153,0.187378,0.829632,1.02661,0.0094968,0.0510382,-0.80681,1,0,1,-0.517867,-0.607221,-0.0543431,0,0,0,1.16162,0.799911
13.451,0.168663,0.804936,1.02353,0.00793848,0.0451928,-0.784103,1,0,1,-0.503798,-0.615139,-0.0647215,0,0,0,1.15741,0.797745
13.4828,0.154103,0.785031,1.02084,0.00677462,0.040182,-0.761017,1,0,1,-0.48553,-0.622736,-0.0779809,0,0,0,1.15423,0.793487
13.5147,0.139897,0.765064,1.01813,0.00613108,0.0380829,-0.749087,1,0,1,-0.471778,-0.625998,-0.0801732,0,0,0,1.15127,0.787957
13.5505,0.126003,0.745008,1.01553,0.00411032,0.0338208,-0.722473,1,0,1,-0.460041,-0.629422,-0.0804886,0,0,0,1.14854,0.783766
13.5822,0.11244,0.724923,1.013,0.00302117,0.0315469,-0.700221,1,0,1,-0.447214,-0.631032,-0.0792296,0,0,0,1.14606,0.777482
13.6141,0.0992978,0.704793,1.0108,0.0021216,0.0305574,-0.687693,1,0,1,-0.433934,-0.632599,-0.0731232,0,0,0,1.14373,0.770602
13.65,0.08334,0.677267,1.00858,0.0012846,0.0293771,-0.662152,1,0,1,-0.41925,-0.634007,-0.0605152,0,0,0,1.13975,0.762494
13.6822,0.0710034,0.654961,1.00739,-9.89284e-05,0.029567,-0.636236,1,0,1,-0.402857,-0.636968,-0.0409378,0,0,0,1.13669,0.754784
13.7146,0.0590565,0.632882,1.00671,-0.000729169,0.0296423,-0.623137,1,0,1,-0.388882,-0.636584,-0.0236942,0,0,0,1.134,0.746344
13.7503,0.0474294,0.610943,1.00635,-0.00114244,0.0299448,-0.596734,1,0,1,-0.376562,-0.637069,-0.0132674,0,0,0,1.13167,0.740157
13.7827,0.0360828,0.589225,1.0062,-0.00124365,0.0300949,-0.5698,1,0,1,-0.365759,-0.637413,-0.00509664,0,0,0,1.12976,0.734916
13.8146,0.0250472,0.567687,1.00613,-0.00152978,0.0300136,-0.556552,1,0,1,-0.356631,-0.635042,-0.00113773,0,0,0,1.1282,0.72833
13.8503,0.0117358,0.540978,1.00607,-0.00136914,0.0295159,-0.529534,1,0,1,-0.344032,-0.634463,-0.000839923,0,0,0,1.12666,0.721735
13.8832,0.00148023,0.519796,1.00589,-0.0014162,0.029619,-0.502184,1,0,1,-0.329717,-0.633515,-0.00348768,0,0,0,1.12573,0.714189
13.9143,-0.00840163,0.498819,1.00571,-0.00138227,0.0296631,-0.488595,1,0,1,-0.317634,-0.629681,-0.00699731,0,0,0,1.12505,0.705293
13.9501,-0.0179231,0.477957,1.00543,-0.00135656,0.0299057,-0.461456,1,0,1,-0.305524,-0.628818,-0.0109237,0,0,0,1.12456,0.699197
13.982,-0.0270085,0.457253,1.005,-0.000958711,0.030062,-0.434474,1,0,1,-0.293549,-0.627921,-0.0140899,0,0,0,1.12421,0.693292
14.0139,-0.0357173,0.436773,1.00452,-0.000684641,0.0301604,-0.42109,1,0,1,-0.281037,-0.623249,-0.0171058,0,0,0,1.12406,0.683896
14.0498,-0.0447537,0.410736,1.00369,-5.49172e-05,0.030378,-0.394162,1,0,1,-0.267473,-0.620937,-0.0184793,0,0,0,1.1226,0.676348
14.0817,-0.0514214,0.389991,1.00299,0.000624621,0.0308263,-0.367207,1,0,1,-0.252676,-0.619134,-0.0215331,0,0,0,1.12142,0.669056
14.1137,-0.0577845,0.36948,1.00232,0.000731753,0.0310259,-0.353993,1,0,1,-0.239392,-0.615112,-0.0187222,0,0,0,1.12046,0.660319
14.1494,-0.0638392,0.349142,1.00168,0.00124698,0.0310245,-0.327529,1,0,1,-0.225725,-0.613258,-0.0182405,0,0,0,1.11967,0.653735
14.1815,-0.0695611,0.328996,1.00113,0.00214286,0.0309342,-0.30147,1,0,1,-0.212071,-0.610652,-0.0155007,0,0,0,1.11902,0.646614
14.214,-0.0749536,0.308975,1.00073,0.00249938,0.0309766,-0.288536,1,0,1,-0.199579,-0.608584,-0.0124693,0,0,0,1.11848,0.640595
14.2501,-0.081219,0.284188,1.00021,0.00342017,0.0303674,-0.263029,1,0,1,-0.1856,-0.607066,-0.0115319,0,0,0,1.11794,0.634909
14.2826,-0.085909,0.264524,0.999908,0.00388504,0.0294579,-0.238191,1,0,1,-0.171616,-0.603096,-0.0103374,0,0,0,1.11766,0.627123
14.3144,-0.0902999,0.244989,0.999573,0.00431997,0.0290144,-0.223292,1,0,1,-0.159306,-0.601472,-0.00890697,0,0,0,1.11749,0.622275
14.3502,-0.0943788,0.225602,0.999176,0.00530543,0.0283118,-0.201668,1,0,1,-0.148685,-0.599308,-0.00878911,0,0,0,1.11739,0.617539
14.3821,-0.0981063,0.206326,0.99881,0.00646593,0.0278773,-0.177866,1,0,1,-0.135999,-0.596493,-0.00910921,0,0,0,1.11732,0.611868
14.414,-0.101529,0.187134,0.998505,0.00685486,0.0273731,-0.166229,1,0,1,-0.124043,-0.594954,-0.00760343,0,0,0,1.11731,0.607795
14.4499,-0.105202,0.162842,0.998383,0.0072585,0.0264643,-0.143427,1,0,1,-0.114375,-0.59213,-0.00485246,0,0,0,1.11714,0.603094
14.4818,-0.107768,0.143484,0.998352,0.00769085,0.0260965,-0.121032,1,0,1,-0.100834,-0.588225,-0.00155609,0,0,0,1.11702,0.596807
14.5139,-0.110056,0.124304,0.998322,0.00784575,0.0254812,-0.107793,1,0,1,-0.0897288,-0.585743,-0.0004353,0,0,0,1.11699,0.592576
14.5498,-0.112061,0.105343,0.99823,0.00808935,0.024654,-0.0886973,1,0,1,-0.0804259,-0.582804,-0.00145681,0,0,0,1.11704,0.588329
14.5817,-0.113784,0.0865704,0.998169,0.0084726,0.0240124,-0.0656809,1,0,1,-0.0688488,-0.577358,-0.00301638,0,0,0,1.11714,0.581456
14.6137,-0.115241,0.0679665,0.998077,0.00835976,0.0237109,-0.0574373,1,0,1,-0.0591831,-0.574954,-0.00302716,0,0,0,1.11731,0.577999
14.6497,-0.116691,0.044891,0.997955,0.00862446,0.023163,-0.0370019,1,0,1,-0.0496178,-0.571254,-0.00147394,0,0,0,1.1176,0.573407
14.6815,-0.117598,0.0266141,0.997864,0.00884909,0.0227897,-0.0166015,1,0,1,-0.0391473,-0.568213,-0.000711662,0,0,0,1.11792,0.569561
14.7134,-0.118315,0.00848203,0.997772,0.00853867,0.0226393,-0.0048574,1,0,1,-0.0313193,-0.564221,-0.00116873,0,0,0,1.11835,0.56509
14.7493,-0.118907,-0.0140508,0.997467,0.00815993,0.0222635,0.0128323,1,0,1,-0.025613,-0.562288,-0.00435005,0,0,0,1.119,0.562888
14.7813,-0.119074,-0.0274716,0.997253,0.00781816,0.0219345,0.0338353,1,0,1,-0.0139826,-0.558559,-0.00724877,0,0,0,1.11941,0.558781
14.8131,-0.119111,-0.0452259,0.99707,0.00756989,0.0219041,0.0412489,1,0,1,-0.00879813,-0.5557,-0.00638141,0,0,0,1.12003,0.555807
14.8494,-0.11918,-0.0669084,0.996979,0.00656203,0.0220936,0.0596745,1,0,1,-0.00163391,-0.552442,-0.00291755,0,0,0,1.12118,0.552452
14.8811,-0.119002,-0.0840245,0.997162,0.00631217,0.0223667,0.0779177,1,0,1,0.00864711,-0.546456,0.00336641,0,0,0,1.12216,0.546535
14.9132,-0.118565,-0.100962,0.997559,0.00577524,0.0225156,0.0872341,1,0,1,0.0167972,-0.541333,0.0104467,0,0,0,1.12312,0.541695
14.9491,-0.117847,-0.117726,0.998169,0.00480749,0.0230318,0.105618,1,0,1,0.024915,-0.536197,0.0179338,0,0,0,1.12403,0.537075
14.9815,-0.116812,-0.134359,0.998962,0.00474198,0.0228019,0.124011,1,0,1,0.034524,-0.530802,0.0232877,0,0,0,1.12487,0.532433
15.0136,-0.115538,-0.150835,0.999939,0.00485064,0.0225478,0.133254,1,0,1,0.0430097,-0.526233,0.0259793,0,0,0,1.12569,0.528626
