timestamp,drone_x,drone_y,drone_z,drone_roll,drone_pitch,drone_yaw,target_x,target_y,target_z,drone_vx,drone_vy,drone_vz,target_vx,target_vy,target_vz,predicted_target_vx,predicted_target_vy,predicted_target_vz,distance_error,velocity_error
0.0160581,-0.0235236,-0.0667567,1.19519,-0.00253564,0.00441578,0.000172683,1,0,1.2,-0.0173446,0.0627205,0.000761971,0,0,0,0,0,0,1.02571,0.065079
0.0480285,-0.0254756,-0.0680266,1.19458,-0.00243679,0.00465263,-0.000105389,1,0,1.2,-0.0165398,0.0620039,0.000225972,0,0,0,0,0,0,1.02774,0.0641724
0.081318,-0.0272756,-0.0690025,1.19452,-0.00220411,0.00471238,-0.000208258,1,0,1.2,-0.0157559,0.0605452,0.00939704,0,0,0,0,0,0,1.02961,0.0632635
0.115886,-0.028916,-0.0696953,1.19513,-0.00214416,0.00463347,-0.000559032,1,0,1.2,-0.0150527,0.0600831,0.0266817,0,0,0,0,0,0,1.03129,0.0674424
0.148014,-0.0303636,-0.0701385,1.19644,-0.00229855,0.00470199,-0.000611478,1,0,1.2,-0.0128722,0.0598748,0.0467326,0,0,0,0,0,0,1.03275,0.0770365
0.180467,-0.0317135,-0.0703659,1.19839,-0.00243549,0.00512402,-0.0010122,1,0,1.2,-0.00994568,0.0601701,0.0667251,0,0,0,0,0,0,1.03411,0.0903969
0.216515,-0.0332187,-0.0703524,1.20151,-0.00246483,0.00477778,-0.00117361,1,0,1.2,-0.0106054,0.0583837,0.0794378,0,0,0,0,0,0,1.03561,0.0991539
0.248385,-0.0343021,-0.0701427,1.20462,-0.00243181,0.00476152,-0.00116846,1,0,1.2,-0.00758857,0.0585968,0.100324,0,0,0,0,0,0,1.03669,0.116431
0.280323,-0.0353136,-0.0697419,1.20819,-0.00241736,0.00479186,-0.00120909,1,0,1.2,-0.00823179,0.0583303,0.113717,0,0,0,0,0,0,1.03769,0.128069
0.316326,-0.0362034,-0.0691813,1.21191,-0.00280062,0.0046432,-0.00101677,1,0,1.2,-0.00617983,0.0586369,0.125961,0,0,0,0,0,0,1.03858,0.139078
0.349046,-0.0369858,-0.0684634,1.21585,-0.00293112,0.00458749,-0.000952671,1,0,1.2,-0.00504109,0.0580392,0.128601,0,0,0,0,0,0,1.03936,0.141181
0.380861,-0.0376556,-0.0675612,1.22025,-0.00272967,0.00473201,-0.000640602,1,0,1.2,-0.00267683,0.0590183,0.134759,0,0,0,0,0,0,1.04005,0.14714
0.416751,-0.0385055,-0.0685103,1.22659,-0.00304586,0.00486668,-0.000633464,1,0,1.2,-0.00152796,0.0616183,0.16004,0,0,0,0,0,0,1.0411,0.1715
0.448608,-0.0391849,-0.0701208,1.23282,-0.00292718,0.00492411,-0.000596085,1,0,1.2,-0.00220931,0.0618368,0.208268,0,0,0,0,0,0,1.04206,0.217265
0.480644,-0.0397791,-0.0714162,1.24042,-0.00283119,0.00496851,-0.000436512,1,0,1.2,-0.00225823,0.0610084,0.246884,0,0,0,0,0,0,1.04301,0.25432
0.516543,-0.0402799,-0.0724635,1.24945,-0.00304409,0.00485841,-0.000894252,1,0,1.2,-0.000667611,0.0588349,0.28685,0,0,0,0,0,0,1.04397,0.292822
0.548892,-0.0406566,-0.0732051,1.25983,-0.0029814,0.00499926,-0.00104031,1,0,1.2,0.00197404,0.0571547,0.327284,0,0,0,0,0,0,1.04494,0.332243
0.580874,-0.0410269,-0.0736865,1.27155,-0.00297743,0.00487986,-0.00124546,1,0,1.2,0.00287867,0.0579827,0.367525,0,0,0,0,0,0,1.04608,0.372081
0.616679,-0.0413766,-0.0739612,1.28799,-0.00264059,0.00499696,-0.00142931,1,0,1.2,0.00159834,0.0586246,0.406945,0,0,0,0,0,0,1.0477,0.411149
0.648501,-0.0415527,-0.0739134,1.30258,-0.00253592,0.00490893,-0.00150598,1,0,1.2,0.00476914,0.059168,0.453407,0,0,0,0.000407598,-0.0620307,-0.0545087,1.0492,0.457276
0.680454,-0.0416366,-0.0736934,1.31665,-0.0022253,0.00624034,-0.00149971,1,0,1.2,0.00638828,0.0592415,0.478923,0,0,0,0.011042,-0.108659,-0.0370263,1.05074,0.482616
0.716369,-0.0416738,-0.0733536,1.32727,0.00198956,0.0104099,-0.00126342,1,0,1.2,0.00827422,0.0576796,0.411404,0,0,0,0.0155606,-0.120413,-0.0302993,1.05198,0.41551
0.748305,-0.0415707,-0.0729021,1.33563,0.00610804,0.0134221,-0.0011491,1,0,1.2,0.00923664,0.0559522,0.279753,0,0,0,0.0221592,-0.117151,-0.0423377,1.05289,0.285443
0.780265,-0.0411718,-0.0723952,1.34756,0.0090268,0.0247011,-0.00127855,1,0,1.2,0.0152159,0.0526008,0.300593,0,0,0,0.0215225,-0.129625,-0.041863,1.05407,0.305539
0.816195,-0.0408921,-0.0740895,1.37006,0.00766889,0.0407901,-0.00123994,1,0,1.2,0.0271858,0.0495043,0.472957,0,0,0,-0.0116098,-0.140818,-0.087952,1.05729,0.476317
0.848756,-0.0402039,-0.0765965,1.39462,0.00870797,0.0520775,-0.00110087,1,0,1.2,0.0492904,0.041056,0.719636,0,0,0,-0.0352759,-0.142669,-0.118551,1.06102,0.722489
0.880661,-0.0384219,-0.0789983,1.42471,0.0145864,0.0748266,-0.00122605,1,0,1.2,0.0778102,0.0297046,0.906631,0,0,0,-0.0777936,-0.166901,-0.165261,1.06539,0.910448
0.916548,-0.0355763,-0.0812776,1.45709,0.0198708,0.104002,-0.0010193,1,0,1.2,0.110034,0.023481,1.04163,0,0,0,-0.132849,-0.167727,-0.191579,1.0701,1.04769
0.948675,-0.0320151,-0.0833912,1.48596,0.0218083,0.116809,-0.000823538,1,0,1.2,0.136189,0.0166482,1.02568,0,0,0,-0.121133,-0.17478,-0.187633,1.07414,1.03481
0.9804,-0.0281786,-0.0853019,1.50705,0.0249075,0.136462,-0.000638532,1,0,1.2,0.147649,0.0147667,0.825011,0,0,0,-0.137785,-0.190641,-0.220501,1.07643,0.838249
1.01639,-0.0232094,-0.0874966,1.52084,0.027676,0.14992,-0.000430415,1,0,1.2,0.15058,0.011746,0.549209,0,0,0,-0.167701,-0.222167,-0.249192,1.0759,0.569598
1.04827,-0.0191549,-0.0890712,1.52151,0.0291956,0.154403,-0.000328779,1,0,1.2,0.150743,0.00850333,0.190146,0,0,0,-0.165902,-0.22363,-0.252904,1.07237,0.242799
1.08217,-0.0150409,-0.0905008,1.51306,0.0318876,0.158718,-0.000159999,1,0,1.2,0.15063,0.00715573,-0.100019,0,0,0,-0.132976,-0.228734,-0.242962,1.06607,0.180954
1.11797,-0.0107669,-0.0917708,1.49625,0.0343918,0.151441,-0.000282575,1,0,1.2,0.152683,0.0062872,-0.381193,0,0,0,-0.104954,-0.236756,-0.257197,1.05728,0.410682
1.14979,-0.00615016,-0.0929535,1.47305,0.0348087,0.144172,-0.000485834,1,0,1.2,0.158203,0.00472055,-0.618267,0,0,0,-0.111682,-0.242801,-0.269478,1.04668,0.638204
1.18186,0.000235033,-0.0944012,1.43677,0.0337252,0.11624,-0.214889,1,0,1.2,0.170638,0.00172129,-0.788925,0,0,0,-0.119316,-0.255292,-0.295417,1.03175,0.807169
1.21782,0.00440092,-0.0963692,1.40811,0.0285762,0.0791763,-0.215529,1,0,1.2,0.184983,-0.00425768,-0.996558,0,0,0,-0.137147,-0.259742,-0.295919,1.02167,1.01359
1.24965,0.0084683,-0.0985019,1.37482,0.0229736,0.0542376,-0.210041,1,0,1.2,0.189997,-0.00820657,-1.18429,0,0,0,-0.11732,-0.273641,-0.29437,1.01163,1.19946
1.28483,0.0127821,-0.100412,1.3349,0.00906859,0.0150473,-0.199617,1,0,1.2,0.192531,-0.00877603,-1.37564,0,0,0,-0.107707,-0.290341,-0.272717,1.00144,1.38908
1.32044,0.0172574,-0.10204,1.29025,-0.0147739,-0.0234852,-0.185547,1,0,1.2,0.192937,-0.00839052,-1.54552,0,0,0,-0.0945323,-0.310043,-0.26099,0.992139,1.55753
1.35206,0.0217151,-0.103245,1.24503,-0.0297331,-0.0382791,-0.177215,1,0,1.2,0.192036,-0.00284283,-1.61118,0,0,0,-0.0924164,-0.309648,-0.248727,0.984748,1.62259
1.38373,0.0258229,-0.103658,1.20233,-0.0637311,-0.0592226,-0.158961,1,0,1.2,0.181466,0.0101698,-1.55089,0,0,0,-0.0862234,-0.311187,-0.255829,0.979679,1.56151
1.42007,0.0301764,-0.102559,1.15424,-0.0953609,-0.0663559,-0.138713,1,0,1.2,0.161613,0.0365325,-1.43088,0,0,0,-0.0732415,-0.299455,-0.251814,0.976305,1.44044
1.4517,0.0330215,-0.100046,1.12045,-0.107649,-0.0645533,-0.129153,1,0,1.2,0.134555,0.0821761,-1.25536,0,0,0,-0.0727716,-0.294786,-0.250282,0.975389,1.26522
1.48346,0.0352361,-0.0958104,1.09109,-0.124469,-0.0585674,-0.109065,1,0,1.2,0.112817,0.129316,-1.10822,0,0,0,-0.0535335,-0.27671,-0.225433,0.975607,1.12143
1.5202,0.0368637,-0.0898295,1.06616,-0.125849,-0.0523465,-0.0898164,1,0,1.2,0.0894906,0.181253,-0.956688,0,0,0,-0.0568317,-0.264851,-0.227778,0.976531,0.97781
1.55087,0.0379769,-0.0822126,1.0455,-0.119413,-0.0485779,-0.0805637,1,0,1.2,0.0691995,0.231387,-0.809172,0,0,0,-0.056398,-0.249612,-0.219401,0.977812,0.844446
1.58265,0.038618,-0.0731474,1.02878,-0.0978587,-0.0409188,-0.0628167,1,0,1.2,0.0531434,0.278842,-0.672346,0,0,0,-0.0624895,-0.246919,-0.206145,0.979246,0.729813
1.61849,0.0415073,-0.0651109,1.01022,-0.0694245,-0.0339329,-0.046757,1,0,1.2,0.03536,0.319053,-0.544491,0,0,0,-0.0614738,-0.247086,-0.203263,0.979267,0.632072
1.65016,0.0445696,-0.0600148,0.997955,-0.0509523,-0.0296811,-0.0382113,1,0,1.2,0.0168149,0.35219,-0.4016,0,0,0,-0.0521642,-0.241915,-0.205305,0.978402,0.534419
1.68206,0.0470256,-0.0540698,0.989563,-0.0245748,-0.0232395,-0.0266941,1,0,1.2,0.00737237,0.366537,-0.2906,0,0,0,-0.0643523,-0.230472,-0.196765,0.977429,0.467816
1.71803,0.0488793,-0.0476774,0.984802,0.00131737,-0.0180227,-0.0159433,1,0,1.2,-0.00222653,0.37164,-0.172471,0,0,0,-0.0806613,-0.239462,-0.200785,0.976327,0.409717
1.74978,0.0502052,-0.041141,0.983154,0.0131811,-0.0153404,-0.0115497,1,0,1.2,-0.0109317,0.367019,-0.0701947,0,0,0,-0.0822975,-0.232387,-0.204061,0.975102,0.373831
1.78171,0.0510877,-0.0346751,0.984253,0.0327291,-0.00978618,-0.00449914,1,0,1.2,-0.0176962,0.355587,0.0200361,0,0,0,-0.0965836,-0.234269,-0.209934,0.973747,0.35659
1.81758,0.0516315,-0.0269992,0.988342,0.0460844,-0.00595206,0.000182808,1,0,1.2,-0.0226863,0.340766,0.0945645,0,0,0,-0.101277,-0.231653,-0.20993,0.972075,0.354371
1.84943,0.0516788,-0.0213245,0.992981,0.0508504,-0.00522167,0.0018184,1,0,1.2,-0.0282949,0.313081,0.151304,0,0,0,-0.111072,-0.229405,-0.221108,0.970889,0.348875
1.88163,0.0514312,-0.0160762,0.998199,0.057798,-0.00477986,0.00329116,1,0,1.2,-0.0311187,0.290198,0.176793,0,0,0,-0.125235,-0.23804,-0.233373,0.96993,0.341232
1.91752,0.0508965,-0.0112825,1.00345,0.0615606,-0.00614872,0.00239965,1,0,1.2,-0.0351292,0.267316,0.187829,0,0,0,-0.131752,-0.23091,-0.235748,0.969308,0.32859
1.94983,0.050072,-0.00684501,1.00769,0.0622073,-0.008069,0.00145943,1,0,1.2,-0.0378203,0.24626,0.170484,0,0,0,-0.141036,-0.232899,-0.238555,0.969223,0.301893
1.98168,0.0490113,-0.00272221,1.01025,0.0613038,-0.0145011,-0.00211751,1,0,1.2,-0.041984,0.22657,0.124365,0,0,0,-0.139461,-0.227009,-0.24372,0.969737,0.261846
2.01766,0.045216,0.00138343,1.00861,0.0580124,-0.0205767,-0.0055621,1,0,1.2,-0.0457625,0.209873,0.0660757,0,0,0,-0.140235,-0.223366,-0.250576,0.973779,0.224738
2.04937,0.0409774,0.00405765,1.00421,0.0546034,-0.0251203,-0.00791472,1,0,1.2,-0.0515078,0.188171,-0.0118082,0,0,0,-0.13917,-0.224407,-0.243782,0.978813,0.195451
2.08121,0.0366613,0.00647798,0.998535,0.0471226,-0.0311304,-0.0124243,1,0,1.2,-0.0578642,0.171667,-0.0705467,0,0,0,-0.129274,-0.219872,-0.235744,0.984201,0.194409
2.11716,0.0321723,0.00862347,0.992584,0.0390772,-0.0333713,-0.0165822,1,0,1.2,-0.0672901,0.154003,-0.106372,0,0,0,-0.119204,-0.224377,-0.230284,0.989841,0.198897
2.1495,0.0274721,0.010552,0.987732,0.0337143,-0.0333426,-0.0188494,1,0,1.2,-0.0779404,0.137594,-0.101286,0,0,0,-0.115328,-0.226704,-0.228101,0.99548,0.187791
2.18147,0.0225114,0.0123179,0.984985,0.023284,-0.0294957,-0.0234987,1,0,1.2,-0.0905006,0.12444,-0.0573061,0,0,0,-0.107081,-0.228034,-0.224041,1.00093,0.164194
2.21732,0.0160182,0.0143287,0.985382,0.0138546,-0.0216578,-0.0281564,1,0,1.2,-0.102443,0.111902,0.0155272,0,0,0,-0.0997784,-0.225482,-0.229372,1.00722,0.152505
2.24911,0.0107104,0.0158724,0.989014,0.00973532,-0.0167067,-0.0301656,1,0,1.2,-0.114162,0.0996879,0.12212,0,0,0,-0.0965604,-0.225308,-0.22964,1.01166,0.194638
2.281,0.00549689,0.0174854,0.995483,0.00252992,-0.00527249,-0.0340119,1,0,1.2,-0.119313,0.0943528,0.209264,0,0,0,-0.0962132,-0.22304,-0.229421,1.01547,0.258708
2.31721,-0.000777249,0.0197201,1.00684,-0.00350401,0.00642486,-0.0372659,1,0,1.2,-0.117272,0.0916058,0.28736,0,0,0,-0.0934288,-0.222622,-0.233072,1.01944,0.323605
2.34939,-0.00438772,0.0211518,1.01495,-0.00532459,0.0112637,-0.0388541,1,0,1.2,-0.115725,0.0912098,0.361457,0,0,0,-0.0918004,-0.21962,-0.236465,1.02151,0.390337
2.3813,-0.00898482,0.0232011,1.02667,-0.00735694,0.0198603,-0.041403,1,0,1.2,-0.112031,0.0910918,0.390775,0,0,0,-0.095114,-0.220087,-0.236554,1.02403,0.416598
2.41715,-0.014153,0.024083,1.03912,-0.00833079,0.0259684,-0.0433929,1,0,1.2,-0.106956,0.0923276,0.409697,0,0,0,-0.092974,-0.220399,-0.239352,1.02712,0.433377
2.44908,-0.0178458,0.0240928,1.04727,-0.00828844,0.0276969,-0.0438849,1,0,1.2,-0.0983532,0.093187,0.395236,0,0,0,-0.0947132,-0.220808,-0.238839,1.02952,0.417814
2.48122,-0.0212241,0.0244508,1.05441,-0.0078185,0.0289944,-0.0447801,1,0,1.2,-0.0902649,0.0924488,0.358131,0,0,0,-0.0962629,-0.221271,-0.236325,1.03184,0.380726
2.51726,-0.024274,0.0250777,1.06055,-0.00718353,0.0283851,-0.0456275,1,0,1.2,-0.0824882,0.0935092,0.31315,0,0,0,-0.0977539,-0.224465,-0.237279,1.03403,0.337062
2.54924,-0.0270282,0.0259773,1.06558,-0.00656776,0.0270294,-0.0459753,1,0,1.2,-0.0744664,0.0924846,0.270562,0,0,0,-0.0980582,-0.225702,-0.237167,1.03611,0.29547
2.5813,-0.0295103,0.0271261,1.0697,-0.0059575,0.0236464,-0.0465677,1,0,1.2,-0.0673185,0.0934309,0.228474,0,0,0,-0.098062,-0.227179,-0.236885,1.03808,0.255855
2.6173,-0.0322662,0.028899,1.07397,-0.00510561,0.0191076,-0.0471497,1,0,1.2,-0.0608813,0.0938308,0.192609,0,0,0,-0.10016,-0.232694,-0.235823,1.04033,0.222731
2.65034,-0.0341826,0.0305443,1.07715,-0.00481988,0.0170118,-0.0471444,1,0,1.2,-0.0528251,0.0941761,0.168038,0,0,0,-0.100404,-0.233782,-0.236588,1.0419,0.19974
2.6821,-0.0358904,0.0323541,1.08041,-0.0033498,0.012742,-0.0474629,1,0,1.2,-0.0475697,0.094371,0.158949,0,0,0,-0.101176,-0.237366,-0.238045,1.04327,0.190875
2.71807,-0.0374022,0.0342978,1.08414,-0.00182351,0.00958851,-0.0479034,1,0,1.2,-0.0412524,0.0933505,0.161117,0,0,0,-0.104165,-0.240424,-0.239489,1.04442,0.190722
2.75026,-0.0387785,0.036361,1.08853,-0.00105958,0.00801618,-0.0480089,1,0,1.2,-0.0377302,0.0926781,0.1733,0,0,0,-0.105177,-0.241881,-0.240523,1.04537,0.200114
2.78221,-0.0400243,0.0385535,1.09354,0.0014241,0.00571103,-0.0483327,1,0,1.2,-0.0350066,0.0921987,0.189687,0,0,0,-0.107212,-0.244038,-0.241354,1.04617,0.213793
2.81813,-0.042733,0.0387015,1.10065,0.00369223,0.00363344,-0.048744,1,0,1.2,-0.032413,0.0915986,0.203061,0,0,0,-0.108901,-0.243602,-0.241865,1.04817,0.22511
2.8499,-0.04537,0.0377113,1.10678,0.00472669,0.00274802,-0.0488582,1,0,1.2,-0.0319442,0.0890846,0.216134,0,0,0,-0.109751,-0.244108,-0.242062,1.0502,0.235946
2.88174,-0.0478029,0.0370045,1.11316,0.00636549,0.00118385,-0.0491382,1,0,1.2,-0.0310179,0.0851203,0.2235,0,0,0,-0.110771,-0.243961,-0.241282,1.05205,0.241163
2.91872,-0.0505497,0.0364712,1.12131,0.00822664,0.000391656,-0.0498361,1,0,1.2,-0.0298225,0.0822275,0.225244,0,0,0,-0.109785,-0.24267,-0.240282,1.05412,0.241631
2.9495,-0.0520542,0.0362726,1.12616,0.00921201,0.000741881,-0.0501603,1,0,1.2,-0.0274474,0.0760686,0.223795,0,0,0,-0.109945,-0.242488,-0.239775,1.05527,0.237958
2.98535,-0.0543101,0.0361229,1.13412,0.00999152,0.0010814,-0.0507234,1,0,1.2,-0.026069,0.072616,0.220724,0,0,0,-0.110566,-0.241577,-0.238862,1.05698,0.23382
3.0177,-0.0559695,0.036135,1.14023,0.0100747,0.00164834,-0.0514611,1,0,1.2,-0.023572,0.0670179,0.211366,0,0,0,-0.110048,-0.240233,-0.239529,1.05828,0.222986
3.04988,-0.0574938,0.0362858,1.14612,0.00987585,0.00217692,-0.0516103,1.00038,0.000381685,1.2,-0.0230753,0.0628295,0.204145,0.0141342,0.0141342,0,-0.109888,-0.239285,-0.239083,1.05986,0.213145
3.0818,-0.0588449,0.0365657,1.15167,0.0092207,0.00315383,-0.0522099,1.00086,0.00085903,1.2,-0.0213372,0.0600646,0.193207,0.0212043,0.0212043,0,-0.109893,-0.239334,-0.238523,1.06141,0.201616
3.11747,-0.0600874,0.0369482,1.15677,0.00809634,0.00374956,-0.0523394,1.00239,0.00238698,1.2,-0.0189217,0.0572145,0.180125,0.0353463,0.0353464,0,-0.110317,-0.239638,-0.23945,1.06392,0.189389
3.14987,-0.0612169,0.0374145,1.16132,0.00720335,0.00393635,-0.0525445,1.00468,0.00467936,1.2,-0.0187152,0.0539134,0.162679,0.0494894,0.0494896,0,-0.109696,-0.239779,-0.24011,1.0671,0.176454
3.18187,-0.0622558,0.0380022,1.16534,0.00571059,0.00445591,-0.0529585,1.00611,0.00611183,1.2,-0.0171554,0.0516536,0.143685,0.0565594,0.0565597,0,-0.10899,-0.240581,-0.240325,1.06941,0.161566
3.21812,-0.0653301,0.0365729,1.16968,0.00484736,0.00524356,-0.0530077,1.00956,0.00955816,1.2,-0.0169568,0.0500134,0.124932,0.0707301,0.0707312,0,-0.108215,-0.242103,-0.240221,1.07566,0.154033
3.24994,-0.0685032,0.0345493,1.17267,0.00448073,0.00596734,-0.0528099,1.01375,0.0137531,1.2,-0.0166493,0.0476676,0.103504,0.0848427,0.0848454,0,-0.107582,-0.243108,-0.240347,1.0828,0.149652
3.28226,-0.071401,0.0328287,1.17545,0.00333163,0.0079891,-0.0525365,1.01614,0.0161414,1.2,-0.0155563,0.045667,0.0928593,0.091914,0.091918,0,-0.106508,-0.244399,-0.239307,1.08795,0.149372
3.31809,-0.0740186,0.0313639,1.17807,0.00200086,0.0105998,-0.0521155,1.02149,0.0214904,1.2,-0.0151251,0.0425949,0.086547,0.106054,0.106062,0,-0.105842,-0.246863,-0.23872,1.09577,0.161873
3.35081,-0.0763131,0.0301525,1.18091,0.00106156,0.0126087,-0.0516456,1.0276,0.0276033,1.2,-0.0129361,0.0397491,0.086996,0.120192,0.120207,0,-0.105634,-0.247901,-0.238739,1.10408,0.178227
3.38187,-0.0782569,0.0291827,1.18396,-0.00117918,0.0171166,-0.0507666,1.03094,0.030946,1.2,-0.00871887,0.0388997,0.0917004,0.12726,0.12728,0,-0.105264,-0.250236,-0.237662,1.10932,0.186307
3.4179,-0.0801678,0.0282974,1.18826,-0.0040438,0.0227484,-0.0496945,1.0382,0.0382066,1.2,-0.00317113,0.0382788,0.0987822,0.141398,0.141432,0,-0.105086,-0.252591,-0.235758,1.11848,0.203221
3.45029,-0.0811992,0.0278508,1.19214,-0.00567917,0.026096,-0.0488217,1.04622,0.046229,1.2,0.00584818,0.0368814,0.112736,0.155528,0.155583,0,-0.10557,-0.254132,-0.235358,1.1276,0.221819
3.48225,-0.0817825,0.0276796,1.19647,-0.0094519,0.033853,-0.0466911,1.05052,0.0505269,1.2,0.0163627,0.0389342,0.126971,0.162592,0.162661,0,-0.106893,-0.255865,-0.234103,1.13254,0.229811
3.51819,-0.0819188,0.0277382,1.2012,-0.0126256,0.0405197,-0.0445488,1.05968,0.0596951,1.2,0.0259556,0.0407139,0.139485,0.176716,0.176821,0,-0.108037,-0.258219,-0.231522,1.14205,0.246393
3.54993,-0.081598,0.0280716,1.20624,-0.014691,0.0440593,-0.0431354,1.06961,0.0696279,1.2,0.0353793,0.0425275,0.151215,0.190834,0.190988,0,-0.108742,-0.259654,-0.231059,1.15197,0.262817
3.58181,-0.080746,0.0287182,1.21143,-0.0185713,0.051392,-0.0396813,1.07486,0.0748797,1.2,0.0481157,0.0466289,0.157233,0.197889,0.198074,0,-0.110187,-0.261165,-0.229178,1.15658,0.264745
3.61786,-0.0805101,0.0283721,1.21729,-0.0219659,0.0586439,-0.035639,1.08592,0.0859581,1.2,0.0615358,0.0526027,0.158313,0.211995,0.212256,0,-0.111353,-0.263743,-0.226072,1.16798,0.270537
3.64978,-0.0803542,0.027702,1.22156,-0.023666,0.062026,-0.0333421,1.09774,0.0977954,1.2,0.0815356,0.0587975,0.1556,0.226085,0.226446,0,-0.111802,-0.264859,-0.225421,1.18038,0.270576
3.68143,-0.0793722,0.0275748,1.22562,-0.0268886,0.0679116,-0.0284201,1.10394,0.104003,1.2,0.0969915,0.0637404,0.148987,0.233127,0.233549,0,-0.113293,-0.265686,-0.222838,1.18605,0.263752
3.71806,-0.0774628,0.027987,1.22955,-0.0294515,0.073681,-0.0226177,1.1169,0.116985,1.2,0.116677,0.0727783,0.140138,0.247198,0.247763,0,-0.113785,-0.268255,-0.218062,1.19804,0.259411
3.74993,-0.0746645,0.0289158,1.23334,-0.0307075,0.0763784,-0.0197936,1.1306,0.130728,1.2,0.138439,0.0814015,0.134536,0.261247,0.261994,0,-0.112857,-0.26919,-0.216899,1.21002,0.256507
3.78189,-0.0709724,0.0302892,1.23688,-0.0328966,0.0816606,-0.0131332,1.13778,0.137924,1.2,0.159273,0.0882106,0.124651,0.268303,0.269157,0,-0.11356,-0.269776,-0.215287,1.21409,0.24529
3.81765,-0.064982,0.0327322,1.24173,-0.0349312,0.0878834,-0.00613599,1.15257,0.15277,1.2,0.183456,0.0975783,0.121565,0.282282,0.283386,0,-0.115973,-0.271232,-0.210809,1.22417,0.243041
3.8503,-0.0590487,0.0352488,1.24622,-0.0357465,0.0908832,-0.00169276,1.16815,0.168413,1.2,0.215367,0.110483,0.13996,0.296271,0.29768,0,-0.115803,-0.272157,-0.209719,1.23526,0.24734
3.88221,-0.0521094,0.0382456,1.2511,-0.0371568,0.0952751,0.00564178,1.17621,0.176518,1.2,0.243205,0.120627,0.152193,0.303253,0.304838,0,-0.118536,-0.272788,-0.210165,1.23714,0.246378
3.9181,-0.0440717,0.0417005,1.25659,-0.0385047,0.100625,0.0143748,1.1929,0.193301,1.2,0.271218,0.129743,0.167231,0.317193,0.319184,0,-0.124297,-0.274725,-0.206365,1.24751,0.256843
3.95,-0.0349669,0.0455876,1.26257,-0.038851,0.102898,0.0191696,1.21032,0.210837,1.2,0.301936,0.140105,0.185843,0.331092,0.333568,0,-0.124903,-0.275827,-0.205687,1.25776,0.269844
3.98238,-0.0248106,0.0500042,1.26868,-0.0393676,0.106058,0.0289469,1.2193,0.219893,1.2,0.331285,0.151039,0.195084,0.338028,0.34078,0,-0.12675,-0.275989,-0.207016,1.25753,0.272222
4.0182,-0.0145629,0.0532948,1.27603,-0.0398159,0.109328,0.0400798,1.2378,0.238555,1.2,0.3601,0.163865,0.192248,0.351851,0.35523,0,-0.132851,-0.27783,-0.204479,1.26827,0.271381
4.05005,-0.00693548,0.0551831,1.28177,-0.0398845,0.110067,0.0442724,1.25703,0.257981,1.2,0.392637,0.176354,0.190495,0.365628,0.369742,0,-0.13418,-0.2783,-0.204121,1.28274,0.272794
4.08186,0.00196562,0.057899,1.28702,-0.0397293,0.111087,0.0546871,1.2669,0.267968,1.2,0.417959,0.189052,0.181495,0.372488,0.377015,0,-0.134883,-0.277949,-0.204472,1.28521,0.265213
4.11785,0.0121081,0.0613637,1.29156,-0.0396647,0.11153,0.0666661,1.28718,0.288513,1.2,0.441674,0.200942,0.15822,0.386164,0.391618,0,-0.137085,-0.2794,-0.2018,1.29838,0.253914
4.14983,0.023511,0.065576,1.29559,-0.0396622,0.111838,0.0711727,1.30815,0.309804,1.2,0.466968,0.213254,0.138488,0.399765,0.406293,0,-0.136701,-0.279883,-0.20047,1.31114,0.2469
4.18179,0.0361851,0.0704917,1.29929,-0.0392261,0.112826,0.0826809,1.31892,0.320758,1.2,0.495132,0.226706,0.124324,0.406553,0.413681,0,-0.134353,-0.279099,-0.199355,1.31069,0.241376
4.21772,0.0537742,0.0775852,1.30396,-0.0393644,0.116054,0.094593,1.34088,0.343133,1.2,0.522915,0.239691,0.113719,0.420007,0.428461,0,-0.135385,-0.279267,-0.196656,1.31832,0.243221
4.24995,0.0692803,0.0840061,1.30859,-0.0393204,0.118567,0.100443,1.36354,0.366279,1.2,0.559176,0.255015,0.128601,0.433382,0.443358,0,-0.135866,-0.279097,-0.196675,1.32913,0.260452
4.28185,0.086157,0.0910569,1.31436,-0.0393734,0.124947,0.112605,1.37511,0.378127,1.2,0.592363,0.268571,0.162851,0.440028,0.450844,0,-0.138829,-0.277492,-0.199504,1.32548,0.288009
4.31769,0.104424,0.0987763,1.32132,-0.040022,0.132945,0.124779,1.39874,0.402375,1.2,0.627091,0.281233,0.200115,0.453234,0.465901,0,-0.142831,-0.277492,-0.198733,1.33497,0.323071
4.34968,0.124128,0.107217,1.32941,-0.0402981,0.137254,0.131281,1.42302,0.427382,1.2,0.663942,0.29715,0.238215,0.466327,0.481099,0,-0.143575,-0.277578,-0.198655,1.34402,0.360049
4.3818,0.145247,0.11641,1.33841,-0.0407745,0.145676,0.144473,1.43535,0.440111,1.2,0.701424,0.314692,0.270671,0.472798,0.488719,0,-0.148337,-0.27785,-0.200362,1.33727,0.394738
4.42071,0.169589,0.126152,1.34933,-0.0414568,0.152888,0.157621,1.46051,0.466173,1.2,0.739624,0.332763,0.292976,0.485658,0.504103,0,-0.155903,-0.277938,-0.199516,1.34328,0.4239
4.44973,0.188771,0.133495,1.35767,-0.0416485,0.155279,0.163993,1.48625,0.492954,1.2,0.78108,0.35349,0.307577,0.498354,0.519641,0,-0.157629,-0.278133,-0.200433,1.35556,0.449604
4.48144,0.209543,0.141744,1.36523,-0.0420002,0.157811,0.177293,1.49934,0.506613,1.2,0.812676,0.368414,0.29328,0.504636,0.527472,0,-0.16138,-0.278593,-0.20409,1.35056,0.454094
4.51732,0.231693,0.150862,1.37143,-0.0424593,0.157749,0.190698,1.52591,0.534459,1.2,0.842315,0.383171,0.253664,0.517053,0.543267,0,-0.166889,-0.279754,-0.202328,1.36071,0.442461
4.54926,0.255112,0.160764,1.37573,-0.0427168,0.156476,0.197647,1.553,0.563006,1.2,0.866006,0.397543,0.199296,0.529261,0.559251,0,-0.165551,-0.280151,-0.201365,1.37011,0.423397
4.58117,0.279679,0.17142,1.37766,-0.0442282,0.15216,0.211575,1.56674,0.577543,1.2,0.890101,0.411656,0.129106,0.535282,0.56732,0,-0.159113,-0.281345,-0.200968,1.36126,0.408408
4.61711,0.311947,0.185728,1.37704,-0.0458049,0.148065,0.225793,1.59458,0.607138,1.2,0.911379,0.424708,0.0453985,0.54714,0.583626,0,-0.158992,-0.283982,-0.196285,1.36164,0.399982
4.64913,0.339031,0.198061,1.37549,-0.0466382,0.146216,0.232795,1.62286,0.637414,1.2,0.941381,0.441611,-0.0178006,0.558734,0.600164,0,-0.157299,-0.284374,-0.195182,1.36823,0.414578
4.68125,0.367255,0.211249,1.37366,-0.0486,0.14333,0.247192,1.63717,0.652809,1.2,0.965258,0.460235,-0.0342021,0.564424,0.608528,0,-0.153784,-0.28402,-0.196624,1.35566,0.428752
4.71906,0.396667,0.225283,1.37195,-0.0502645,0.141639,0.261909,1.66608,0.684099,1.2,0.992621,0.479196,-0.0412548,0.575574,0.625456,0,-0.15708,-0.28601,-0.195368,1.36069,0.443872
4.74908,0.427231,0.240188,1.37097,-0.0507221,0.141473,0.269383,1.69536,0.716051,1.2,1.021,0.499726,-0.0274097,0.586392,0.642669,0,-0.157716,-0.286612,-0.195719,1.36522,0.458331
4.78104,0.458831,0.255996,1.37076,-0.0512766,0.139991,0.284651,1.71013,0.732276,1.2,1.04688,0.520421,-0.00267102,0.591667,0.651392,0,-0.158652,-0.286991,-0.200621,1.34972,0.473686
4.81702,0.49618,0.275946,1.37198,-0.0515871,0.138164,0.300746,1.73989,0.765205,1.2,1.07192,0.54331,0.0134616,0.601926,0.669076,0,-0.162745,-0.289124,-0.200206,1.34751,0.486721
4.84897,0.525528,0.292432,1.3735,-0.0516139,0.137053,0.31054,1.76994,0.798776,1.2,1.09968,0.571691,0.0230166,0.611769,0.687108,0,-0.164095,-0.290034,-0.200715,1.35464,0.501906
4.88102,0.556029,0.309817,1.37448,-0.0512346,0.133863,0.325668,1.78505,0.815793,1.2,1.11809,0.593111,0.0184262,0.616521,0.69626,0,-0.166246,-0.290245,-0.206107,1.3405,0.512399
4.91693,0.587557,0.328081,1.37439,-0.0505007,0.128947,0.343155,1.81544,0.850306,1.2,1.13539,0.612229,-0.00594122,0.625663,0.714864,0,-0.169717,-0.289989,-0.204747,1.34567,0.519991
4.94893,0.619965,0.34718,1.37271,-0.049842,0.125527,0.351834,1.84597,0.885413,1.2,1.1496,0.631462,-0.0453721,0.634277,0.733873,0,-0.169204,-0.290059,-0.203235,1.35004,0.527358
4.9809,0.653101,0.366993,1.36887,-0.0481429,0.116961,0.369644,1.86129,0.903192,1.2,1.16021,0.649537,-0.100913,0.638372,0.743543,0,-0.16613,-0.289408,-0.205186,1.33257,0.539753
5.01684,0.695391,0.392721,1.3609,-0.0464919,0.106758,0.387229,1.89199,0.939198,1.2,1.16956,0.664193,-0.174115,0.646104,0.763235,0,-0.165159,-0.289292,-0.201634,1.32528,0.560472
5.04939,0.729813,0.414049,1.35251,-0.0455064,0.101576,0.396207,1.95222,1.01144,1.2,1.17751,0.68375,-0.25266,0.63441,0.772996,0,-0.16165,-0.289245,-0.199169,1.36909,0.605605
5.08196,0.764702,0.43604,1.34283,-0.0430129,0.0916787,0.413542,1.98144,1.04733,1.2,1.18223,0.699124,-0.298802,0.62802,0.778197,0,-0.150972,-0.289793,-0.197446,1.36913,0.634575
5.11777,0.800024,0.458738,1.33264,-0.0416005,0.0853325,0.430922,2.03794,1.11861,1.2,1.18675,0.715072,-0.331549,0.614073,0.789249,0,-0.137608,-0.298239,-0.188972,1.40906,0.665873
5.14968,0.835854,0.482235,1.32336,-0.0418318,0.0848364,0.439583,2.09173,1.18914,1.2,1.19344,0.733359,-0.325074,0.598435,0.801171,0,-0.131259,-0.298465,-0.187597,1.44643,0.681395
5.18218,0.87224,0.506575,1.31656,-0.0448659,0.092823,0.456358,2.11758,1.22412,1.2,1.20206,0.755139,-0.271696,0.589924,0.807459,0,-0.124652,-0.288799,-0.198859,1.44199,0.671766
5.21859,0.917481,0.538153,1.31491,-0.0517216,0.117135,0.472295,2.16708,1.29349,1.2,1.21231,0.781567,-0.170126,0.571387,0.820681,0,-0.122035,-0.280451,-0.209668,1.46467,0.664275
5.2505,0.954191,0.56484,1.31973,-0.0581696,0.140131,0.48137,2.21355,1.36201,1.2,1.23541,0.826491,0.0083866,0.550647,0.834738,0,-0.12304,-0.278322,-0.21517,1.49526,0.684862
5.28324,0.992312,0.593326,1.3298,-0.0700845,0.18247,0.494407,2.25688,1.42966,1.2,1.26403,0.872992,0.175971,0.527443,0.84959,0,-0.126589,-0.277937,-0.216856,1.52166,0.757676
5.31854,1.03219,0.623969,1.34476,-0.0856906,0.233652,0.507774,2.27732,1.46314,1.2,1.30272,0.932434,0.342368,0.514836,0.857289,0,-0.12977,-0.27603,-0.206288,1.50848,0.86234
5.3503,1.07414,0.65703,1.36386,-0.0928719,0.258466,0.514157,2.31572,1.52937,1.2,1.35489,1.00124,0.489426,0.487414,0.873171,0,-0.134299,-0.273064,-0.202013,1.52622,1.00422
5.38306,1.12973,0.702216,1.39279,-0.105897,0.302931,0.527579,2.35069,1.59461,1.2,1.4147,1.07989,0.615488,0.456781,0.889579,0,-0.149243,-0.279287,-0.188057,1.52456,1.1544
5.41868,1.17686,0.741687,1.41928,-0.115971,0.337004,0.541074,2.36687,1.62685,1.2,1.49611,1.18926,0.749682,0.440152,0.897923,0,-0.164921,-0.28701,-0.159936,1.49925,1.32739
5.45094,1.22624,0.783986,1.44739,-0.119051,0.347649,0.548806,2.39656,1.69053,1.2,1.5647,1.2797,0.829362,0.404062,0.914731,0,-0.174995,-0.284153,-0.153336,1.50089,1.47246
5.48331,1.2775,0.828791,1.47531,-0.120595,0.355983,0.565643,2.42263,1.75311,1.2,1.62519,1.36186,0.855095,0.363887,0.931443,0,-0.206816,-0.279103,-0.162907,1.49715,1.58346
5.51911,1.33014,0.875524,1.50101,-0.118468,0.348214,0.586707,2.43427,1.78396,1.2,1.67214,1.43056,0.822919,0.342172,0.939637,0,-0.247178,-0.287502,-0.181913,1.46115,1.63921
5.55112,1.38345,0.923398,1.52155,-0.117791,0.341415,0.59491,2.45478,1.84483,1.2,1.70137,1.47806,0.714518,0.295249,0.95542,0,-0.256954,-0.28771,-0.188988,1.4492,1.66159
5.58279,1.43692,0.971711,1.53415,-0.115253,0.317851,0.615926,2.47151,1.90449,1.2,1.70826,1.49911,0.504866,0.243507,0.969899,0,-0.258913,-0.27976,-0.200392,1.43251,1.63721
5.61881,1.49672,1.02494,1.53464,-0.111909,0.288667,0.63743,2.47844,1.93385,1.2,1.70913,1.50391,0.23397,0.215772,0.976444,0,-0.263558,-0.288533,-0.205823,1.37908,1.60097
5.65049,1.54139,1.06432,1.52374,-0.110382,0.271773,0.648155,2.48943,1.99165,1.2,1.70134,1.50172,-0.120171,0.156532,0.987673,0,-0.259383,-0.295714,-0.210074,1.3651,1.63252
5.68235,1.5867,1.10438,1.50421,-0.107775,0.232725,0.670211,2.49347,2.02006,1.2,1.69409,1.49729,-0.400078,0.125062,0.992149,0,-0.256977,-0.304126,-0.224571,1.32411,1.6962
5.71822,1.63253,1.14508,1.4762,-0.105155,0.18701,0.692943,2.49866,2.07594,1.2,1.68538,1.49313,-0.67752,0.0585374,0.998285,0,-0.248826,-0.311234,-0.229594,1.30113,1.83045
5.75008,1.67874,1.18638,1.44009,-0.104022,0.156203,0.706981,2.49994,2.1304,1.2,1.6756,1.49109,-0.945372,-0.0121775,0.999926,0,-0.238277,-0.315884,-0.233221,1.27405,1.99588
5.78208,1.72518,1.22824,1.39621,-0.102558,0.107018,0.728472,2.49913,2.15712,1.2,1.66488,1.48885,-1.20215,-0.0489143,0.998803,0,-0.219469,-0.321846,-0.241736,1.22487,2.14998
5.81805,1.7833,1.28137,1.33246,-0.101964,0.0488274,0.753569,2.49459,2.20953,1.2,1.65064,1.48903,-1.43837,-0.124521,0.992217,0,-0.193054,-0.330152,-0.232413,1.17684,2.33814
5.84994,1.82945,1.3245,1.27725,-0.10211,0.0190583,0.766889,2.48616,2.2605,1.2,1.62592,1.49037,-1.6449,-0.20189,0.979408,0,-0.175527,-0.334873,-0.227535,1.14601,2.51151
5.88197,1.87468,1.36808,1.22107,-0.104182,-0.0406949,0.795115,2.4805,2.28543,1.2,1.59073,1.49187,-1.71791,-0.240788,0.970578,0,-0.150041,-0.346797,-0.223452,1.09954,2.56465
5.91781,1.91839,1.41198,1.16641,-0.108606,-0.0951134,0.826254,2.4663,2.33419,1.2,1.53906,1.48951,-1.71517,-0.318092,0.94806,0,-0.129558,-0.34885,-0.21332,1.07323,2.58534
5.94983,1.95986,1.45575,1.11517,-0.111936,-0.118492,0.842901,2.4483,2.38144,1.2,1.46807,1.47948,-1.6347,-0.393451,0.919345,0,-0.113767,-0.349208,-0.207083,1.05008,2.53993
5.98161,1.99859,1.49896,1.06805,-0.119944,-0.15724,0.877989,2.43789,2.40448,1.2,1.37566,1.45461,-1.51395,-0.429963,0.902847,0,-0.0918813,-0.354085,-0.205912,1.01507,2.42007
6.01755,2.04421,1.55542,1.01907,-0.128307,-0.180588,0.913944,2.41426,2.4494,1.2,1.27454,1.4219,-1.38592,-0.499866,0.866103,0,-0.0784012,-0.344326,-0.201983,0.984318,2.31909
6.04951,2.07766,1.60095,0.986481,-0.132216,-0.184712,0.931921,2.38698,2.49271,1.2,1.14022,1.37378,-1.23356,-0.564782,0.82524,0,-0.0710433,-0.339581,-0.196004,0.967732,2.17476
6.08158,2.10738,1.64478,0.95871,-0.13883,-0.184471,0.967448,2.37198,2.51378,1.2,1.02304,1.32665,-1.08246,-0.595193,0.803582,0,-0.061061,-0.329763,-0.187409,0.939894,2.01594
6.11799,2.13927,1.69708,0.931427,-0.143056,-0.175868,1.00169,2.33932,2.55467,1.2,0.900287,1.27576,-0.908955,-0.651569,0.75859,0,-0.0636117,-0.318496,-0.182442,0.920658,1.87134
6.14977,2.15561,1.72719,0.919312,-0.144308,-0.168911,1.01842,2.30318,2.5939,1.2,0.749215,1.21216,-0.677021,-0.701974,0.712203,0,-0.0651251,-0.313791,-0.180801,0.922906,1.67758
6.18177,2.17425,1.76585,0.908112,-0.144507,-0.154799,1.05049,2.28384,2.61289,1.2,0.659455,1.17451,-0.535554,-0.724962,0.688788,0,-0.0664072,-0.308206,-0.171946,0.902595,1.56184
6.21828,2.19268,1.81195,0.902313,-0.143374,-0.14524,1.08218,2.24267,2.64959,1.2,0.545511,1.12616,-0.343075,-0.766684,0.642025,0,-0.0776794,-0.30738,-0.15827,0.890365,1.44012
6.25011,2.2038,1.84694,0.9039,-0.141362,-0.142999,1.09769,2.19827,2.68457,1.2,0.409895,1.06553,-0.110409,-0.803063,0.595894,0,-0.0830481,-0.307739,-0.152331,0.888444,1.30538
6.28195,2.21198,1.88028,0.910461,-0.134984,-0.145492,1.12922,2.1749,2.7014,1.2,0.310229,1.01617,0.0618553,-0.819392,0.573234,0,-0.0890649,-0.312478,-0.145347,0.871467,1.21493
6.31789,2.21745,1.91189,0.921173,-0.127312,-0.155247,1.16364,2.12589,2.73376,1.2,0.219142,0.966599,0.214009,-0.848651,0.528953,0,-0.102168,-0.31568,-0.146343,0.872698,1.17368
6.34991,2.22042,1.94175,0.93515,-0.124639,-0.159285,1.17615,2.07395,2.76435,1.2,0.134518,0.915138,0.338117,-0.873814,0.486259,0,-0.10769,-0.316801,-0.14792,0.876506,1.14673
6.38194,2.22114,1.96983,0.951477,-0.118084,-0.16989,1.20751,2.04692,2.77897,1.2,0.0578026,0.86285,0.432374,-0.885014,0.465565,0,-0.119194,-0.320148,-0.1491,0.864186,1.11071
6.4177,2.22912,2.00805,0.968781,-0.112278,-0.182798,1.2417,1.99086,2.80685,1.2,-0.00954483,0.809047,0.498314,-0.904951,0.425516,0,-0.132719,-0.321065,-0.140503,0.86505,1.09415
6.4502,2.23793,2.03906,0.981171,-0.110428,-0.188193,1.25428,1.93222,2.83292,1.2,-0.0793516,0.741556,0.545839,-0.921972,0.387257,0,-0.138913,-0.322258,-0.138982,0.878388,1.06465
6.48282,2.24428,2.0677,0.993927,-0.10476,-0.203481,1.28634,1.87116,2.85715,1.2,-0.125809,0.688847,0.554002,-0.936469,0.350751,0,-0.143128,-0.3282,-0.143581,0.897169,1.03846
6.51872,2.24844,2.09404,1.00635,-0.0989247,-0.220043,1.31925,1.83978,2.86856,1.2,-0.168524,0.635853,0.536645,-0.94288,0.333133,0,-0.150091,-0.328732,-0.143068,0.896883,0.989573
6.55055,2.25062,2.11802,1.01788,-0.0968187,-0.228224,1.33659,1.77539,2.89001,1.2,-0.205258,0.58137,0.504345,-0.954228,0.299079,0,-0.151703,-0.33129,-0.140134,0.924647,0.946048
6.58244,2.25102,2.13963,1.0282,-0.0933014,-0.246082,1.37245,1.74245,2.90002,1.2,-0.240661,0.523262,0.45613,-0.959231,0.282625,0,-0.159922,-0.356063,-0.137788,0.930777,0.884479
6.61835,2.24916,2.16319,1.0394,-0.0917249,-0.264207,1.40974,1.6751,2.91864,1.2,-0.271382,0.461785,0.405803,-0.968052,0.250748,0,-0.174735,-0.372884,-0.127876,0.96231,0.833404
6.65124,2.24588,2.17917,1.04694,-0.0909429,-0.272494,1.42932,1.60601,2.93537,1.2,-0.311168,0.381305,0.348308,-0.975465,0.220152,0,-0.175749,-0.378602,-0.122066,1.00235,0.76719
6.68291,2.24118,2.1925,1.05307,-0.0879536,-0.287657,1.47396,1.53535,2.95019,1.2,-0.338744,0.310814,0.297695,-0.98165,0.190693,0,-0.166581,-0.385842,-0.13012,1.04589,0.718595
6.71884,2.2351,2.20304,1.05817,-0.0874454,-0.292118,1.5122,1.49948,2.95689,1.2,-0.365664,0.239391,0.247055,-0.98433,0.176339,0,-0.162218,-0.390676,-0.143345,1.06279,0.669148
6.7507,2.22752,2.21033,1.06369,-0.0896242,-0.290054,1.53375,1.42673,2.96885,1.2,-0.392927,0.156219,0.227952,-0.988947,0.148273,0,-0.161659,-0.392345,-0.141694,1.1114,0.638173
6.7843,2.21846,2.21403,1.07092,-0.100564,-0.279921,1.57875,1.35301,2.97886,1.2,-0.426841,0.0579438,0.259092,-0.992648,0.121035,0,-0.163047,-0.388335,-0.145298,1.16216,0.625497
6.81869,2.20834,2.21882,1.08313,-0.115884,-0.263743,1.62489,1.31576,2.98315,1.2,-0.457022,-0.0484548,0.317024,-0.994189,0.107647,0,-0.186122,-0.381821,-0.18055,1.18091,0.642977
6.85059,2.20014,2.22168,1.0939,-0.12575,-0.251153,1.64772,1.24069,2.99027,1.2,-0.495143,-0.164242,0.373755,-0.996691,0.0812786,0,-0.193837,-0.381304,-0.191709,1.2339,0.671955
6.88294,2.19044,2.22209,1.10266,-0.153006,-0.214822,1.69271,1.16498,2.99545,1.2,-0.520802,-0.231191,0.348467,-0.998468,0.0553278,0,-0.195038,-0.379486,-0.20208,1.28808,0.657029
6.9188,2.17947,2.22078,1.10721,-0.188395,-0.167728,1.73535,1.12695,2.99731,1.2,-0.542725,-0.270953,0.243078,-0.999098,0.0424677,0,-0.193559,-0.370317,-0.207479,1.31126,0.604645
6.95071,2.16732,2.21813,1.10678,-0.211203,-0.135811,1.75986,1.05067,2.99957,1.2,-0.560917,-0.295929,0.0867355,-0.999857,0.0168985,0,-0.190773,-0.366575,-0.201889,1.36611,0.545942
6.98257,2.15364,2.21413,1.10257,-0.245804,-0.0824165,1.79454,1.01247,2.99997,1.2,-0.583332,-0.318028,-0.0626238,-0.999991,0.00415589,0,-0.182524,-0.355536,-0.17189,1.389,0.530405
7.0185,2.1331,2.20698,1.09689,-0.280152,-0.0210773,1.8316,0.936063,2.99932,1.2,-0.625922,-0.34527,-0.142613,-0.999772,-0.0213317,0,-0.173581,-0.332069,-0.140386,1.43921,0.514819
7.05031,2.11261,2.19966,1.09579,-0.293799,0.00835239,1.85002,0.859823,2.99672,1.2,-0.727158,-0.385168,-0.0814518,-0.998898,-0.0469306,0,-0.170085,-0.327128,-0.124511,1.4885,0.441454
7.08253,2.08763,2.19129,1.09918,-0.314153,0.062339,1.88722,0.82183,2.99469,1.2,-0.843983,-0.410816,0.0454493,-0.99821,-0.0598122,0,-0.166866,-0.333347,-0.0932195,1.50262,0.386076
7.11846,2.05777,2.18225,1.10745,-0.322241,0.11166,1.92561,0.746209,2.98917,1.2,-0.981285,-0.423255,0.191711,-0.99631,-0.0858277,0,-0.168206,-0.339925,-0.0701951,1.54269,0.388377
7.15042,2.02295,2.1729,1.12036,-0.320372,0.133953,1.94538,0.671252,2.98171,1.2,-1.12459,-0.42598,0.339751,-0.993676,-0.112288,0,-0.17091,-0.3414,-0.0636108,1.57721,0.480596
7.18217,1.98311,2.16367,1.13791,-0.306759,0.174206,1.9861,0.63408,2.97726,1.2,-1.27159,-0.417159,0.482217,-0.992065,-0.125728,0,-0.176266,-0.335528,-0.0520982,1.5766,0.628969
7.21834,1.93403,2.15278,1.16504,-0.282196,0.211913,2.02806,0.560475,2.9669,1.2,-1.41929,-0.395802,0.623611,-0.988208,-0.153117,0,-0.18678,-0.32558,-0.0482706,1.59708,0.796003
7.25133,1.89319,2.14484,1.1908,-0.266182,0.230163,2.04994,0.486991,2.95443,1.2,-1.58954,-0.357534,0.787021,-0.983353,-0.181707,0,-0.194082,-0.318122,-0.0503442,1.62263,1.00885
7.28329,1.84763,2.13795,1.22012,-0.227179,0.265199,2.0934,0.416874,2.94042,1.2,-1.71184,-0.318763,0.901059,-0.97761,-0.210425,0,-0.209485,-0.304961,-0.0677501,1.64056,1.16736
7.31903,1.7978,2.13244,1.25235,-0.185907,0.298818,2.13712,0.381851,2.9326,1.2,-1.82514,-0.268854,0.999125,-0.974269,-0.22539,0,-0.218543,-0.300644,-0.0756177,1.62724,1.31306
7.3513,1.74423,2.12858,1.28647,-0.165061,0.314385,2.15925,0.313056,2.91554,1.2,-1.92449,-0.210395,1.07108,-0.966625,-0.256196,0,-0.222536,-0.30203,-0.0798263,1.63556,1.43765
7.38303,1.68731,2.12646,1.32172,-0.12548,0.338217,2.20377,0.246038,2.89659,1.2,-2.01161,-0.145874,1.11241,-0.957538,-0.288308,0,-0.236395,-0.306759,-0.0924542,1.63865,1.53909
7.41886,1.6119,2.12642,1.36655,-0.0923624,0.348763,2.2474,0.213251,2.88641,1.2,-2.09148,-0.0807361,1.13539,-0.952385,-0.304897,0,-0.252204,-0.321116,-0.104259,1.60048,1.62385
7.45076,1.54884,2.12832,1.40164,-0.077507,0.34861,2.26887,0.149227,2.86464,1.2,-2.17627,0.00201899,1.13833,-0.940706,-0.339223,0,-0.265807,-0.321158,-0.118383,1.59428,1.7143
7.48334,1.48418,2.13151,1.43335,-0.0484198,0.339674,2.31017,0.0874357,2.84102,1.2,-2.22179,0.0564789,1.07437,-0.926959,-0.375163,0,-0.29968,-0.314594,-0.163839,1.5839,1.737
7.51919,1.41872,2.1353,1.45883,-0.0196381,0.320381,2.34927,0.0574021,2.82852,1.2,-2.24014,0.093124,0.920579,-0.919202,-0.393785,0,-0.318383,-0.306357,-0.181544,1.54943,1.68209
7.55126,1.33635,2.14019,1.479,-0.00537745,0.307346,2.36814,-0.000796306,2.80214,1.2,-2.24079,0.109258,0.68462,-0.901706,-0.432349,0,-0.315663,-0.302893,-0.182106,1.51788,1.5985
7.58291,1.28671,2.14312,1.4845,0.0213409,0.27556,2.40382,-0.0563952,2.77394,1.2,-2.2338,0.114426,0.340743,-0.881219,-0.472708,0,-0.308939,-0.300745,-0.186002,1.51089,1.51338
7.61954,1.20828,2.13733,1.48346,0.0427631,0.235407,2.43775,-0.0831839,2.75916,1.2,-2.22971,0.119898,0.137437,-0.86971,-0.493562,0,-0.320382,-0.307587,-0.199822,1.46113,1.49828
7.65129,1.14738,2.12764,1.47495,0.0503451,0.211734,2.4548,-0.134618,2.72826,1.2,-2.22423,0.123257,-0.139376,-0.843876,-0.536539,0,-0.320245,-0.310368,-0.207764,1.44217,1.53627
7.68309,1.08601,2.11863,1.45966,0.0580955,0.15982,2.48689,-0.183108,2.6956,1.2,-2.21399,0.119783,-0.347595,-0.813852,-0.581072,0,-0.315845,-0.317168,-0.222055,1.4181,1.60387
7.71922,1.0243,2.11016,1.43723,0.0583754,0.104694,2.51738,-0.20629,2.67855,1.2,-2.20208,0.113839,-0.571033,-0.797045,-0.60392,0,-0.304802,-0.32975,-0.225746,1.37612,1.67791
7.75105,0.962461,2.10214,1.40787,0.0558244,0.0763316,2.53225,-0.250058,2.64333,1.2,-2.1858,0.106889,-0.797686,-0.75983,-0.650122,0,-0.293992,-0.337159,-0.224001,1.34399,1.80077
7.78298,0.900607,2.09454,1.37234,0.0460597,0.0195852,2.56126,-0.290828,2.60617,1.2,-2.16781,0.100439,-1.00667,-0.716937,-0.697138,0,-0.272082,-0.344577,-0.224973,1.30805,1.93767
7.8196,0.823636,2.08562,1.32129,0.0302812,-0.0338698,2.59071,-0.309706,2.58721,1.2,-2.14591,0.0932963,-1.18357,-0.693641,-0.720321,0,-0.24744,-0.344728,-0.221267,1.2453,2.04253
7.85146,0.76273,2.07892,1.27713,0.0214063,-0.0590454,2.60574,-0.345244,2.54768,1.2,-2.10795,0.0868656,-1.33794,-0.6422,-0.766537,0,-0.228329,-0.34477,-0.213636,1.20553,2.16028
7.88329,0.702887,2.07242,1.23227,0.00488789,-0.108805,2.63983,-0.377293,2.50651,1.2,-2.06545,0.0770589,-1.39849,-0.584789,-0.811186,0,-0.19059,-0.336734,-0.201798,1.16459,2.22196
7.91913,0.644709,2.06586,1.18939,-0.00413477,-0.139353,2.6691,-0.391981,2.48531,1.2,-2.00784,0.0608811,-1.38042,-0.553899,-0.832584,0,-0.164842,-0.327713,-0.195548,1.11838,2.19495
7.951,0.588725,2.05892,1.15036,-0.00803538,-0.150908,2.68595,-0.418639,2.4417,1.2,-1.93211,0.0345985,-1.28302,-0.488038,-0.872822,0,-0.150921,-0.322653,-0.190693,1.07878,2.13422
7.98282,0.535283,2.05135,1.11591,-0.016427,-0.166892,2.71939,-0.441613,2.39652,1.2,-1.84317,0.00104289,-1.14944,-0.417377,-0.908734,0,-0.135006,-0.314471,-0.184959,1.03949,2.04494
8.01872,0.464838,2.04012,1.08298,-0.0231378,-0.173688,2.75268,-0.451702,2.37333,1.2,-1.74639,-0.0391272,-1.0034,-0.380556,-0.924758,0,-0.123397,-0.309827,-0.180275,0.982228,1.91224
8.05053,0.40825,2.0299,1.06378,-0.0250171,-0.174454,2.76903,-0.469046,2.32583,1.2,-1.62754,-0.0917911,-0.808047,-0.304754,-0.952431,0,-0.120097,-0.308151,-0.180494,0.935831,1.77296
8.08242,0.355154,2.01895,1.04929,-0.0276005,-0.174081,2.80113,-0.476292,2.3015,1.2,-1.5326,-0.132344,-0.646161,-0.266121,-0.96394,0,-0.119528,-0.304324,-0.179263,0.890984,1.64713
8.11859,0.305429,2.00727,1.03931,-0.0279913,-0.174608,2.83201,-0.487937,2.25157,1.2,-1.44045,-0.173223,-0.490926,-0.188108,-0.982148,0,-0.118558,-0.299184,-0.178718,0.845537,1.56963
8.15065,0.259048,1.99493,1.03363,-0.0265656,-0.175893,2.84696,-0.495655,2.20051,1.2,-1.34681,-0.210983,-0.341878,-0.111209,-0.993797,0,-0.118066,-0.298164,-0.175257,0.7997,1.50213
8.18251,0.215945,1.98204,1.03192,-0.0203015,-0.182798,2.87566,-0.498076,2.17437,1.2,-1.25379,-0.245787,-0.203322,-0.0733013,-0.99731,0,-0.124497,-0.296715,-0.169636,0.75833,1.4141
8.21846,0.166716,1.96534,1.03467,-0.00888269,-0.196385,2.90315,-0.5,2.12101,1.2,-1.16058,-0.276121,-0.0768252,0.000407761,-1,0,-0.135966,-0.295004,-0.172088,0.704328,1.37032
8.25033,0.131121,1.95172,1.04025,-0.00234503,-0.2056,2.91658,-0.498032,2.06629,1.2,-1.0423,-0.305514,0.0620857,0.0704621,-0.997514,0,-0.143755,-0.292845,-0.176124,0.659151,1.31185
8.28239,0.0990008,1.93803,1.04816,0.0111432,-0.230425,2.94207,-0.495589,2.03842,1.2,-0.94395,-0.321737,0.152229,0.103883,-0.994589,0,-0.151039,-0.288087,-0.19104,0.621829,1.25454
8.31835,0.0705148,1.92439,1.05786,0.0248788,-0.264661,2.96629,-0.487795,1.98169,1.2,-0.840947,-0.333653,0.224318,0.167185,-0.985926,0,-0.173021,-0.272645,-0.1939,0.578962,1.22152
8.35021,0.040477,1.90755,1.07214,0.0310895,-0.285357,2.97778,-0.476137,1.92367,1.2,-0.731181,-0.341679,0.278533,0.225559,-0.97423,0,-0.181925,-0.268312,-0.189021,0.532445,1.18028
8.3822,0.0257855,1.89758,1.08206,0.0363743,-0.333095,3,-0.468872,1.8942,1.2,-0.576006,-0.345489,0.348345,0.252857,-0.967504,0,-0.176344,-0.275427,-0.187894,0.508534,1.09328
8.41806,-0.00644533,1.88324,1.09659,0.0276833,-0.386103,3.02163,-0.451484,1.83433,1.2,-0.469638,-0.350092,0.39642,0.303751,-0.952752,0,-0.176667,-0.287402,-0.188843,0.459505,1.05758
8.45008,-0.0325701,1.87281,1.10831,0.0204742,-0.41814,3.03462,-0.430326,1.77326,1.2,-0.28328,-0.354173,0.475175,0.349855,-0.936804,0,-0.173415,-0.294563,-0.186713,0.420153,0.982909
8.48189,-0.051755,1.86218,1.12213,0.00973738,-0.469785,3.05737,-0.418357,1.74231,1.2,-0.124336,-0.356962,0.530963,0.371181,-0.92856,0,-0.153189,-0.306154,-0.179366,0.393485,0.92422
8.51791,-0.0636173,1.85131,1.13815,0.000450436,-0.514569,3.08245,-0.39166,1.67954,1.2,0.0510246,-0.363149,0.583731,0.410618,-0.911808,0,-0.148576,-0.320901,-0.16914,0.375424,0.878109
8.54984,-0.0677784,1.84026,1.15646,-0.00164655,-0.528925,3.0935,-0.361348,1.61567,1.2,0.245752,-0.368633,0.644089,0.446038,-0.895014,0,-0.147132,-0.329628,-0.161929,0.372178,0.855595
8.58209,-0.0640114,1.82912,1.17685,-0.000990409,-0.557335,3.12306,-0.344862,1.58335,1.2,0.455249,-0.37232,0.703858,0.462351,-0.886697,0,-0.129984,-0.326917,-0.163209,0.37392,0.871808
8.61808,-0.0482615,1.81535,1.20468,0.00616186,-0.574486,-3.1277,-0.309285,1.51793,1.2,0.66785,-0.371693,0.753372,0.492401,-0.870368,0,-0.12488,-0.316982,-0.178323,0.395746,0.920341
8.65056,-0.0270366,1.80471,1.22849,0.0112259,-0.576745,-3.11061,-0.270312,1.45153,1.2,0.932943,-0.361988,0.801871,0.519298,-0.854593,0,-0.125926,-0.31521,-0.175546,0.429807,1.02799
8.68248,0.00162669,1.79471,1.25354,0.0212045,-0.571803,-3.07549,-0.24958,1.41797,1.2,1.14028,-0.345804,0.835246,0.531666,-0.846954,0,-0.127697,-0.305574,-0.16813,0.45597,1.14856
8.71838,0.0372734,1.78563,1.27942,0.0277545,-0.560324,-3.03901,-0.205698,1.35016,1.2,1.33979,-0.319421,0.861105,0.554421,-0.832236,0,-0.139078,-0.295482,-0.17854,0.504947,1.2733
8.75042,0.0790668,1.77748,1.30521,0.0294014,-0.548737,-3.0168,-0.158691,1.28149,1.2,1.5223,-0.288377,0.86974,0.574762,-0.818321,0,-0.144349,-0.30046,-0.177982,0.559999,1.39109
8.78229,0.125692,1.77021,1.32922,0.0287414,-0.524997,-2.98271,-0.134053,1.24684,1.2,1.67163,-0.259089,0.838463,0.584105,-0.811678,0,-0.153532,-0.30256,-0.179361,0.598402,1.48023
8.81814,0.165891,1.76319,1.35043,0.0258996,-0.493771,-2.94472,-0.0825817,1.17693,1.2,1.77966,-0.231583,0.746422,0.601283,-0.799036,0,-0.160306,-0.294593,-0.196033,0.65427,1.50589
8.85013,0.189829,1.75844,1.35931,0.023634,-0.475841,-2.92536,-0.028298,1.10626,1.2,1.83942,-0.207259,0.544936,0.616616,-0.787264,0,-0.161571,-0.294573,-0.199994,0.705904,1.45897
8.88211,0.216578,1.75371,1.36099,0.0191545,-0.435704,-2.88715,-0.000152587,1.07066,1.2,1.84477,-0.198344,0.322112,0.623647,-0.781706,0,-0.160449,-0.294632,-0.198305,0.734475,1.39111
8.91807,0.24566,1.74894,1.35486,0.0123976,-0.391994,-2.84939,0.0580784,0.998925,1.2,1.83549,-0.193785,0.0646791,0.636545,-0.771239,0,-0.166089,-0.295406,-0.199501,0.788476,1.33233
8.95003,0.27683,1.74413,1.34088,0.00842917,-0.369483,-2.83094,0.118747,0.926552,1.2,1.82677,-0.190098,-0.197737,0.64801,-0.761632,0,-0.174972,-0.29955,-0.196616,0.844553,1.32485
8.98263,0.309949,1.73929,1.31949,-0.00119225,-0.323579,-2.79463,0.149951,0.890134,1.2,1.8184,-0.187212,-0.451495,0.653248,-0.757144,0,-0.185972,-0.30208,-0.18163,0.872324,1.3734
9.01875,0.354243,1.73341,1.28366,-0.0142509,-0.279348,-2.75889,0.214001,0.816864,1.2,1.81537,-0.182115,-0.689641,0.662804,-0.748793,0,-0.206465,-0.307908,-0.209633,0.930979,1.45779
9.05063,0.392153,1.72894,1.24948,-0.0223999,-0.257281,-2.74107,0.280073,0.743083,1.2,1.82595,-0.170267,-0.920488,0.671219,-0.741259,0,-0.213937,-0.312367,-0.219579,0.993443,1.58327
9.08253,0.432186,1.72463,1.21158,-0.0462731,-0.210297,-2.70621,0.313831,0.705997,1.2,1.8369,-0.161587,-1.06299,0.675029,-0.737791,0,-0.209607,-0.31373,-0.203971,1.02555,1.67687
9.11852,0.474521,1.72043,1.17245,-0.0804789,-0.164159,-2.6721,0.382655,0.631494,1.2,1.85251,-0.154609,-1.16388,0.681902,-0.731443,0,-0.202785,-0.31829,-0.214139,1.09315,1.74862
9.15045,0.519301,1.7161,1.13544,-0.100317,-0.140458,-2.65554,0.453065,0.556599,1.2,1.8795,-0.15074,-1.15106,0.687836,-0.725866,0,-0.203735,-0.318673,-0.220327,1.16318,1.75379
9.18265,0.566451,1.71102,1.1026,-0.146155,-0.0878112,-2.62324,0.488821,0.519005,1.2,1.90973,-0.161587,-1.05301,0.690471,-0.72336,0,-0.187986,-0.311544,-0.208348,1.19851,1.70617
9.21883,0.633486,1.70309,1.07455,-0.19696,-0.0337104,-2.5929,0.561306,0.443569,1.2,1.94004,-0.19367,-0.904592,0.69511,-0.718903,0,-0.17256,-0.301817,-0.202613,1.26781,1.62604
9.25073,0.691569,1.69434,1.06143,-0.220496,-0.00673181,-2.57883,0.63492,0.367856,1.2,1.97625,-0.268981,-0.676136,0.698944,-0.715176,0,-0.166088,-0.298975,-0.198558,1.3349,1.51253
9.28263,0.750935,1.68234,1.05438,-0.260428,0.0481932,-2.55304,0.672094,0.329906,1.2,2.00053,-0.357288,-0.47321,0.700572,-0.713582,0,-0.165181,-0.305812,-0.183364,1.36253,1.42855
9.31868,0.811278,1.66649,1.05319,-0.285498,0.100385,-2.52941,0.747067,0.253843,1.2,2.02035,-0.467647,-0.267265,0.703268,-0.710925,0,-0.157965,-0.312102,-0.174585,1.4217,1.36577
9.35067,0.872258,1.64639,1.0575,-0.291433,0.123322,-2.51791,0.822687,0.177625,1.2,2.02737,-0.594537,-0.0803332,0.705238,-0.708971,0,-0.15338,-0.312485,-0.164349,1.47649,1.3295
9.38248,0.933664,1.62159,1.06735,-0.294029,0.162621,-2.49358,0.860746,0.139404,1.2,2.02827,-0.732491,0.104046,0.705958,-0.708254,0,-0.151841,-0.308392,-0.143875,1.4899,1.32662
9.41846,1.01054,1.58349,1.08762,-0.288426,0.194391,-2.4682,0.936921,0.0630933,1.2,2.02246,-0.887398,0.291427,0.706872,-0.707341,0,-0.141538,-0.299119,-0.141965,1.52633,1.35945
9.45104,1.07169,1.54712,1.11035,-0.282493,0.209254,-2.45534,1.01333,-0.0133261,1.2,2.00155,-1.08892,0.527115,0.707096,-0.707117,0,-0.143642,-0.298207,-0.136447,1.56411,1.44887
9.48228,1.13228,1.50542,1.13876,-0.265508,0.238705,-2.42957,1.05153,-0.0515363,1.2,1.97449,-1.25571,0.715922,0.70695,-0.707263,0,-0.150262,-0.291888,-0.131114,1.56025,1.55563
9.51909,1.19189,1.45843,1.17267,-0.244526,0.267245,-2.40259,1.12781,-0.127925,1.2,1.93978,-1.42268,0.899781,0.70614,-0.708072,0,-0.152612,-0.278361,-0.144185,1.58788,1.68586
9.55094,1.25019,1.40628,1.21173,-0.232731,0.281272,-2.3892,1.20375,-0.204225,1.2,1.89414,-1.58616,1.07222,0.704631,-0.709573,0,-0.158818,-0.275563,-0.149338,1.61122,1.82565
9.58403,1.30679,1.34897,1.2558,-0.207191,0.311236,-2.36245,1.27917,-0.2804,1.2,1.83842,-1.74794,1.23757,0.702411,-0.711772,0,-0.165636,-0.271141,-0.158074,1.63056,1.97376
9.6199,1.38304,1.2877,1.31311,-0.177036,0.343606,-2.33452,1.31662,-0.31842,1.2,1.77023,-1.90784,1.3945,0.701027,-0.713135,0,-0.170394,-0.26571,-0.168431,1.61147,2.12489
9.65232,1.4452,1.24161,1.3616,-0.160255,0.358961,-2.31956,1.391,-0.394429,1.2,1.67727,-2.08169,1.56842,0.697689,-0.7164,0,-0.188386,-0.264185,-0.174916,1.64489,2.29859
9.68403,1.50412,1.19015,1.41342,-0.124055,0.383116,-2.28814,1.46412,-0.469916,1.2,1.59639,-2.20526,1.67858,0.693586,-0.720374,0,-0.226549,-0.272372,-0.204354,1.67421,2.41611
9.72072,1.56024,1.13463,1.4657,-0.0875621,0.392995,-2.25658,1.5003,-0.507624,1.2,1.51599,-2.30916,1.74507,0.691226,-0.722639,0,-0.273978,-0.269247,-0.236764,1.66468,2.49851
9.7527,1.61468,1.07697,1.51318,-0.0695989,0.392705,-2.24073,1.57167,-0.582773,1.2,1.46043,-2.36164,1.6685,0.685868,-0.727726,0,-0.291621,-0.265302,-0.237829,1.68958,2.46039
9.78547,1.68162,1.00354,1.56094,-0.0334292,0.385397,-2.20992,1.64155,-0.657536,1.2,1.43894,-2.36477,1.43897,0.679614,-0.73357,0,-0.277697,-0.260157,-0.227577,1.70031,2.30392
9.82157,1.73448,0.943845,1.58932,0.000775828,0.373147,-2.18049,1.67588,-0.694768,1.2,1.43057,-2.35049,1.08163,0.676131,-0.736782,0,-0.233648,-0.262696,-0.230983,1.68525,2.08402
9.8528,1.78581,0.88235,1.61237,0.0137578,0.36674,-2.16663,1.74319,-0.768873,1.2,1.41717,-2.34822,0.822291,0.668408,-0.743795,0,-0.217965,-0.262747,-0.228451,1.70247,1.95218
9.88471,1.83385,0.817335,1.63651,0.0235836,0.362431,-2.13963,1.80858,-0.842488,1.2,1.35111,-2.40112,0.75939,0.659605,-0.751613,0,-0.22053,-0.272771,-0.228501,1.71645,1.94312
9.92063,1.87787,0.748232,1.66458,0.0238722,0.36867,-2.11324,1.8405,-0.879095,1.2,1.24111,-2.49426,0.852308,0.654769,-0.755829,0,-0.232438,-0.275354,-0.227772,1.69276,2.02296
9.95295,1.91791,0.67503,1.69696,0.023152,0.370123,-2.10072,1.90268,-0.951866,1.2,1.12333,-2.59194,0.982813,0.644165,-0.764886,0,-0.238277,-0.273341,-0.229916,1.70117,2.12924
9.9846,1.95424,0.597764,1.73337,0.0169602,0.367074,-2.07648,1.96252,-1.02402,1.2,1.01415,-2.69043,1.11048,0.632216,-0.774792,0,-0.271564,-0.289173,-0.236594,1.70726,2.24693
10.0204,2.0028,0.493923,1.78641,0.00846167,0.356038,-2.05193,1.99221,-1.06072,1.2,0.912238,-2.78877,1.22394,0.625531,-0.780199,0,-0.318158,-0.290768,-0.260652,1.6616,2.36951
10.0522,2.04258,0.406975,1.8299,0.0053461,0.349194,-2.0433,2.04755,-1.131,1.2,0.815111,-2.8885,1.29233,0.611465,-0.791272,0,-0.349069,-0.296694,-0.279928,1.66197,2.47183
10.0845,2.08076,0.319158,1.86682,-0.00384621,0.325076,-2.022,2.10087,-1.20142,1.2,0.782315,-2.92043,1.1817,0.595509,-0.803349,0,-0.363559,-0.298457,-0.295783,1.66048,2.43173
10.1204,2.11799,0.231027,1.89438,-0.0141436,0.296082,-2.00136,2.12651,-1.23639,1.2,0.77948,-2.91887,0.92358,0.586811,-0.809724,0,-0.362961,-0.293601,-0.299108,1.62344,2.31055
10.1521,2.16351,0.120542,1.91498,-0.0193198,0.280507,-1.99111,2.17561,-1.30579,1.2,0.782617,-2.91152,0.626615,0.567852,-0.823131,0,-0.355535,-0.294419,-0.293647,1.59555,2.19092
10.1841,2.19918,0.0318936,1.92038,-0.0295216,0.247939,-1.97094,2.22137,-1.37392,1.2,0.789925,-2.90381,0.24913,0.546769,-0.837284,0,-0.341066,-0.29752,-0.296685,1.5798,2.09564
10.2197,2.23415,-0.056941,1.91617,-0.0394223,0.21203,-1.95121,2.24315,-1.40778,1.2,0.793117,-2.89811,-0.0487991,0.53527,-0.844681,0,-0.348338,-0.304986,-0.298457,1.52897,2.07013
10.2515,2.26841,-0.145926,1.9024,-0.0439467,0.192078,-1.94118,2.28429,-1.4748,1.2,0.793954,-2.89035,-0.340811,0.510253,-0.860025,0,-0.347422,-0.309925,-0.294902,1.50317,2.07819
10.2835,2.302,-0.235062,1.87915,-0.051498,0.149159,-1.92086,2.32209,-1.54086,1.2,0.793246,-2.88493,-0.631598,0.482294,-0.876009,0,-0.338415,-0.305546,-0.30289,1.47199,2.1287
10.3195,2.34315,-0.346547,1.83694,-0.0584001,0.101557,-1.90043,2.33971,-1.57352,1.2,0.795058,-2.87809,-0.922701,0.467109,-0.8842,0,-0.331189,-0.317952,-0.306746,1.38245,2.22138
10.3511,2.36736,-0.413417,1.80472,-0.0614763,0.0711895,-1.88824,2.37233,-1.63807,1.2,0.795781,-2.86626,-1.27884,0.434118,-0.900856,0,-0.319563,-0.31507,-0.314221,1.36583,2.37256
10.3832,2.39918,-0.502518,1.75375,-0.0643992,0.0239987,-1.86917,2.4014,-1.70159,1.2,0.794121,-2.85868,-1.49119,0.397315,-0.917682,0,-0.305906,-0.314106,-0.321485,1.32077,2.47963
10.4191,2.44102,-0.617381,1.68384,-0.0662681,-0.0308215,-1.8471,2.41456,-1.73289,1.2,0.795346,-2.84873,-1.76768,0.377416,-0.926044,0,-0.276374,-0.318117,-0.312823,1.2162,2.64501
10.4509,2.47521,-0.710489,1.6217,-0.0656589,-0.058849,-1.83569,2.43813,-1.7947,1.2,0.798906,-2.83074,-2.08281,0.334296,-0.942468,0,-0.251882,-0.322147,-0.310088,1.16393,2.84948
10.4829,2.50876,-0.802529,1.55276,-0.0594867,-0.119211,-1.81024,2.45798,-1.85536,1.2,0.799827,-2.81034,-2.29733,0.286551,-0.958065,0,-0.206072,-0.323738,-0.300153,1.11152,2.99534
10.5199,2.5501,-0.915055,1.46228,-0.0488389,-0.161613,-1.78943,2.46649,-1.88524,1.2,0.805104,-2.77503,-2.44342,0.260856,-0.965378,0,-0.157191,-0.324619,-0.284264,1.00849,3.08891
10.5513,2.57477,-0.980568,1.40823,-0.0407455,-0.180082,-1.7781,2.48064,-1.94406,1.2,0.819302,-2.69249,-2.45198,0.205764,-0.978602,0,-0.137379,-0.325701,-0.273537,0.990221,3.05386
10.5834,2.60753,-1.06506,1.33829,-0.0218495,-0.205943,-1.75651,2.49095,-2.00163,1.2,0.830334,-2.62416,-2.39507,0.145656,-0.989335,0,-0.114426,-0.326956,-0.265488,0.953868,2.97956
10.6193,2.64816,-1.16585,1.25473,-0.00284933,-0.209916,-1.73605,2.49466,-2.02993,1.2,0.842063,-2.52235,-2.29312,0.113761,-0.993508,0,-0.0989649,-0.320264,-0.256897,0.879309,2.85065
10.6512,2.68026,-1.24245,1.1915,0.00361521,-0.204349,-1.7262,2.49916,-2.08553,1.2,0.849455,-2.39123,-2.16201,0.0464979,-0.998918,0,-0.0947432,-0.317063,-0.251567,0.862349,2.69399
10.6832,2.71185,-1.31532,1.13235,0.010252,-0.184537,-1.70771,2.49977,-2.13978,1.2,0.850361,-2.27943,-2.03343,-0.0249365,-0.999689,0,-0.0751822,-0.314039,-0.236962,0.853984,2.5571
10.7193,2.74284,-1.38452,1.07803,0.0104838,-0.162619,-1.69124,2.49862,-2.1664,1.2,0.845366,-2.1659,-1.87744,-0.061967,-0.998078,0,-0.0651518,-0.311795,-0.215493,0.828158,2.38995
10.751,2.7731,-1.45018,1.02887,0.0108461,-0.152256,-1.68384,2.49339,-2.21855,1.2,0.838515,-2.05643,-1.71098,-0.137968,-0.990437,0,-0.0664743,-0.305169,-0.201138,0.835413,2.23994
10.7829,2.8026,-1.51242,0.985138,0.0166673,-0.136919,-1.67016,2.48429,-2.26927,1.2,0.824385,-1.94988,-1.53174,-0.215502,-0.976503,0,-0.059938,-0.285851,-0.1817,0.848707,2.09166
10.8188,2.84063,-1.59893,0.935425,0.0287435,-0.131006,-1.65833,2.47829,-2.29407,1.2,0.811081,-1.85019,-1.35132,-0.25439,-0.967102,0,-0.055293,-0.269389,-0.167259,0.827356,1.9342
10.8516,2.87101,-1.67059,0.901031,0.0368539,-0.130305,-1.65269,2.46343,-2.34257,1.2,0.788645,-1.73917,-1.11085,-0.331464,-0.943468,0,-0.0564074,-0.264262,-0.165878,0.840869,1.76685
10.8837,2.89989,-1.73813,0.873138,0.059051,-0.130909,-1.64176,2.44476,-2.38954,1.2,0.762526,-1.65638,-0.916027,-0.406329,-0.913727,0,-0.0483784,-0.241757,-0.164735,0.859259,1.66038
10.9194,2.92702,-1.80161,0.851868,0.0889867,-0.134796,-1.63128,2.43402,-2.41246,1.2,0.726221,-1.57339,-0.713966,-0.442515,-0.896761,0,-0.0435476,-0.229908,-0.158558,0.858704,1.52759
10.9515,2.9579,-1.87535,0.834747,0.109667,-0.139752,-1.62569,2.40975,-2.4571,1.2,0.679565,-1.48667,-0.507905,-0.511615,-0.859215,0,-0.04612,-0.220646,-0.164783,0.87881,1.43895
10.9834,2.97448,-1.91661,0.829559,0.141312,-0.147422,-1.61776,2.38183,-2.50014,1.2,0.60052,-1.37513,-0.247209,-0.575606,-0.817727,0,-0.0584015,-0.205441,-0.181873,0.910484,1.3248
11.0192,2.99822,-1.98025,0.82959,0.174162,-0.154187,-1.60973,2.36651,-2.52106,1.2,0.541732,-1.304,-0.0869704,-0.605491,-0.795852,0,-0.0724015,-0.186144,-0.195606,0.910346,1.25774
11.0517,3.01331,-2.02659,0.837189,0.188183,-0.157692,-1.60634,2.33324,-2.56166,1.2,0.424565,-1.18168,0.18007,-0.660824,-0.750541,0,-0.0835916,-0.176583,-0.203139,0.938311,1.18168
11.0834,3.02471,-2.06892,0.851074,0.209715,-0.168123,-1.60133,2.29651,-2.6006,1.2,0.3211,-1.08185,0.379479,-0.710185,-0.704015,0,-0.103848,-0.15561,-0.229972,0.966804,1.16203
11.1194,3.03228,-2.10721,0.87088,0.219386,-0.182079,-1.59926,2.27687,-2.61944,1.2,0.211021,-0.981458,0.568798,-0.73267,-0.680584,0,-0.121367,-0.147381,-0.250876,0.970229,1.14219
11.1567,3.03627,-2.14154,0.895721,0.219192,-0.190751,-1.5995,2.23513,-2.65583,1.2,0.100331,-0.879056,0.742096,-0.773425,-0.633888,0,-0.129446,-0.15069,-0.267931,0.999458,1.17229
11.1885,3.03713,-2.17209,0.923981,0.210978,-0.21199,-1.60265,2.19018,-2.69051,1.2,0.00100546,-0.778296,0.876062,-0.808913,-0.587928,0,-0.13868,-0.155555,-0.279346,1.03066,1.20818
11.2239,3.04653,-2.21553,0.954224,0.196406,-0.239551,-1.60906,2.14213,-2.72345,1.2,-0.0813303,-0.685687,0.94722,-0.839627,-0.543164,0,-0.133107,-0.158747,-0.287144,1.06599,1.2217
11.2556,3.05743,-2.25157,0.973785,0.188222,-0.254039,-1.61295,2.11622,-2.73972,1.2,-0.147406,-0.595648,0.920089,-0.853745,-0.520692,0,-0.11035,-0.156585,-0.277223,1.08414,1.16237
11.2917,3.06603,-2.28425,0.990814,0.172607,-0.281187,-1.62158,2.06457,-2.76951,1.2,-0.176516,-0.540346,0.827443,-0.877832,-0.478968,0,-0.100416,-0.156807,-0.275986,1.13233,1.0864
11.327,3.07223,-2.31318,1.00662,0.164565,-0.298736,-1.62974,2.00937,-2.79799,1.2,-0.205813,-0.482177,0.728152,-0.898812,-0.438334,0,-0.0767132,-0.155886,-0.258736,1.18411,1.00617
11.3582,3.07566,-2.3374,1.02448,0.165951,-0.300672,-1.63342,1.98078,-2.81154,1.2,-0.249134,-0.391405,0.719508,-0.908127,-0.418695,0,-0.0649412,-0.147702,-0.261806,1.20597,0.976068
11.3897,3.07614,-2.35648,1.04608,0.17929,-0.289723,-1.63978,1.92169,-2.8373,1.2,-0.307033,-0.271118,0.801435,-0.924684,-0.380735,0,-0.0680625,-0.139073,-0.270706,1.26002,1.01775
11.4249,3.0724,-2.37328,1.07886,0.206075,-0.26182,-1.64484,1.86025,-2.86119,1.2,-0.36941,-0.145407,0.910309,-0.938771,-0.344542,0,-0.0665717,-0.119408,-0.294739,1.31227,1.09201
11.4564,3.0658,-2.38178,1.10883,0.226268,-0.239162,-1.64716,1.82867,-2.87245,1.2,-0.459656,0.00198584,1.04266,-0.945002,-0.327064,0,-0.0605356,-0.0988347,-0.306092,1.334,1.19623
11.4886,3.05607,-2.38674,1.14038,0.259666,-0.200926,-1.64972,1.76393,-2.89356,1.2,-0.532875,0.0952673,1.10459,-0.956026,-0.293283,0,-0.0567592,-0.0923305,-0.311067,1.38927,1.24505
11.5241,3.0432,-2.3889,1.17209,0.303808,-0.151676,-1.65211,1.69719,-2.9128,1.2,-0.605371,0.166505,1.115,-0.965349,-0.260963,0,-0.0481698,-0.0848711,-0.313673,1.44464,1.24721
11.5556,3.02712,-2.3888,1.20316,0.325174,-0.127906,-1.65249,1.66313,-2.92171,1.2,-0.681697,0.219853,1.09277,-0.969446,-0.245307,0,-0.0267026,-0.0859234,-0.306907,1.4644,1.22201
