timestamp,drone_x,drone_y,drone_z,drone_roll,drone_pitch,drone_yaw,target_x,target_y,target_z,drone_vx,drone_vy,drone_vz,target_vx,target_vy,target_vz,predicted_target_vx,predicted_target_vy,predicted_target_vz,distance_error,velocity_error
0.0141097,-0.0332007,-0.0636463,1.19421,-0.00235752,0.001103,-0.00145351,1,0,1,0.0305367,0.0677592,0.00211681,0,0,0,0,0,0,1.05322,0.0743524
0.046581,-0.0327486,-0.0647332,1.19376,-0.00221504,0.0012624,-0.00154094,1,0,1,0.0295253,0.0689397,0.00070768,0,0,0,0,0,0,1.05276,0.0749995
0.0784649,-0.0322443,-0.065503,1.1937,-0.00181685,0.00139696,-0.00154056,1,0,1,0.0298086,0.0681891,0.00513159,0,0,0,0,0,0,1.0523,0.0745965
0.114426,-0.0317119,-0.0659471,1.19434,-0.00194422,0.00133145,-0.00160557,1,0,1,0.029028,0.0676472,0.0244291,0,0,0,0,0,0,1.05192,0.07756
0.146416,-0.0311315,-0.0661532,1.19571,-0.00190898,0.00151934,-0.00194189,1,0,1,0.0290959,0.0669438,0.0455585,0,0,0,0,0,0,1.05162,0.0860443
0.178402,-0.030534,-0.0661074,1.19745,-0.00160477,0.00147894,-0.0023239,1,0,1,0.0293189,0.0661307,0.0626735,0,0,0,0,0,0,1.05136,0.0957122
0.214354,-0.0297771,-0.0657299,1.20032,-0.00179522,0.00155607,-0.00238632,1,0,1,0.0281276,0.065919,0.0722849,0,0,0,0,0,0,1.05114,0.101792
0.246249,-0.0291444,-0.0651915,1.20319,-0.00182797,0.0010974,-0.00271821,1,0,1,0.0266894,0.0666142,0.0898372,0,0,0,0,0,0,1.05103,0.11498
0.278218,-0.0284831,-0.0644749,1.20657,-0.00202121,0.0011324,-0.00268371,1,0,1,0.0280591,0.0664536,0.106542,0,0,0,0,0,0,1.051,0.128665
0.31419,-0.0277821,-0.0635992,1.21106,-0.00189222,0.00122239,-0.00259083,1,0,1,0.0272188,0.066256,0.125656,0,0,0,0,0,0,1.05116,0.144638
0.346314,-0.0270539,-0.0625838,1.21683,-0.0020921,0.00145814,-0.00259052,1,0,1,0.0280068,0.0660842,0.163413,0,0,0,0,0,0,1.05156,0.178481
0.378728,-0.0263084,-0.0614247,1.224,-0.00204819,0.00134567,-0.00233859,1,0,1,0.0278556,0.0657235,0.205596,0,0,0,0,0,0,1.05226,0.217635
0.414847,-0.0253297,-0.0597768,1.2348,-0.00178985,0.00168861,-0.00227036,1,0,1,0.0283157,0.0663114,0.247025,0,0,0,0,0,0,1.05357,0.257333
0.446776,-0.0247689,-0.0609479,1.24377,-0.0016223,0.00176665,-0.00221743,1,0,1,0.027305,0.0670815,0.297565,0,0,0,0,0,0,1.05513,0.306252
0.478658,-0.0241664,-0.061799,1.25406,-0.0017227,0.00157356,-0.00225638,1,0,1,0.0269177,0.0669548,0.336286,0,0,0,0,0,0,1.05702,0.343941
0.514974,-0.0235015,-0.0623507,1.26569,-0.00183144,0.00138459,-0.00237237,1,0,1,0.0277133,0.0654804,0.374074,0,0,0,0,0,0,1.05926,0.380772
0.546684,-0.0227553,-0.0626441,1.27863,-0.0016457,0.0013077,-0.00273868,1,0,1,0.0294984,0.066706,0.412587,0,0,0,0,0,0,1.06188,0.418984
0.578628,-0.0219259,-0.0627274,1.29288,-0.00145149,0.00171134,-0.00288207,1,0,1,0.0309092,0.0642536,0.450745,0,0,0,0,0,0,1.06492,0.45635
0.614525,-0.0207486,-0.0625389,1.31244,-0.00135485,0.00174138,-0.00306627,1,0,1,0.0331495,0.0628696,0.487381,0,0,0,0,0,0,1.06933,0.492536
0.646661,-0.0197722,-0.0621901,1.32925,-0.00152362,0.00167229,-0.00334951,1,0,1,0.0344362,0.0625304,0.531672,0,0,0,-0.0205112,-0.0706764,-0.0648601,1.07341,0.536443
0.678897,-0.0187092,-0.0616383,1.34488,-0.000738749,0.00345249,-0.00330846,1,0,1,0.0352557,0.0620683,0.550202,0,0,0,-0.00345407,-0.107044,-0.0520288,1.07727,0.554813
0.714507,-0.0175491,-0.0609448,1.35544,0.00163522,0.0053486,-0.00335643,1,0,1,0.0382053,0.0616186,0.444692,0,0,0,-0.0026876,-0.114978,-0.0410531,1.07956,0.450564
0.746495,-0.0163367,-0.0601703,1.36115,0.00795653,0.00921262,-0.00308135,1,0,1,0.039698,0.0597976,0.247722,0,0,0,0.0115465,-0.10975,-0.0498216,1.08027,0.257911
0.778371,-0.0149017,-0.0592938,1.36786,0.00992556,0.0194859,-0.00301737,1,0,1,0.0428049,0.0580104,0.17793,0,0,0,0.0109723,-0.128269,-0.0483645,1.08114,0.191981
0.814378,-0.0126427,-0.0581397,1.38284,0.00898834,0.0265716,-0.00313177,1,0,1,0.0512942,0.0571827,0.287167,0,0,0,-0.00691091,-0.137743,-0.0872543,1.08416,0.297264
0.84636,-0.0119182,-0.0601977,1.40024,0.00975402,0.0446559,-0.00321779,1,0,1,0.0680611,0.0511282,0.487773,0,0,0,-0.0305656,-0.137858,-0.117676,1.08986,0.495146
0.878546,-0.0101722,-0.0621401,1.42227,0.0177644,0.072415,-0.00319824,1,0,1,0.0905242,0.0430699,0.650518,0,0,0,-0.0743333,-0.168671,-0.164295,1.09664,0.658197
0.914397,-0.00749952,-0.0639759,1.44516,0.0217441,0.0882012,-0.00317212,1,0,1,0.118047,0.0356734,0.752637,0,0,0,-0.139557,-0.160497,-0.199972,1.10332,0.762673
0.946349,-0.00432336,-0.0656689,1.46326,0.0282621,0.115464,-0.00303048,1,0,1,0.136634,0.0292673,0.687413,0,0,0,-0.123757,-0.168712,-0.199231,1.10796,0.701471
0.978495,-0.000936433,-0.0671677,1.47318,0.0341438,0.135915,-0.0026916,1,0,1,0.142372,0.0253613,0.464573,0,0,0,-0.140469,-0.193112,-0.229183,1.10918,0.48656
1.01461,0.00346505,-0.0687686,1.47247,0.0372297,0.144435,-0.00278492,1,0,1,0.144141,0.0236082,0.179358,0,0,0,-0.164637,-0.214515,-0.256377,1.10501,0.231308
1.04666,0.00710474,-0.0698846,1.46127,0.0430498,0.158398,-0.00289585,1,0,1,0.143803,0.0221839,-0.191175,0,0,0,-0.144367,-0.229712,-0.256947,1.09704,0.240248
1.07851,0.0108876,-0.0708397,1.44104,0.048892,0.165993,-0.00273608,1,0,1,0.144576,0.0195308,-0.483889,0,0,0,-0.129135,-0.225627,-0.255298,1.0853,0.505403
1.11484,0.0148195,-0.0716773,1.41251,0.0512136,0.165787,-0.00306568,1,0,1,0.146887,0.0189657,-0.75852,0,0,0,-0.104321,-0.239675,-0.272751,1.07046,0.772845
1.14683,0.0190089,-0.0725104,1.37708,0.0542435,0.154732,-0.00396259,1,0,1,0.150241,0.0152247,-1.00193,0,0,0,-0.114105,-0.245172,-0.292127,1.05346,1.01324
1.17871,0.0235581,-0.0733268,1.33578,0.0518848,0.128235,-0.0053075,1,0,1,0.157611,0.0101887,-1.19498,0,0,0,-0.12283,-0.256948,-0.303989,1.03517,1.20537
1.21462,0.0296581,-0.0742894,1.2756,0.0486266,0.107042,-0.00630682,1,0,1,0.167699,0.00616446,-1.37541,0,0,0,-0.13312,-0.258866,-0.298459,1.01145,1.38561
1.24657,0.0330517,-0.0766869,1.2287,0.041619,0.0699695,-0.21167,1,0,1,0.173822,0.00370108,-1.631,0,0,0,-0.121966,-0.264249,-0.29875,0.996581,1.64024
1.2785,0.0366691,-0.0789298,1.17429,0.0300684,0.0253902,-0.212818,1,0,1,0.175495,-0.000151166,-1.84454,0,0,0,-0.11643,-0.273588,-0.296485,0.982147,1.85287
1.31495,0.0415997,-0.0814345,1.09735,0.0231346,0.00382354,-0.213061,1,0,1,0.175857,-0.00289097,-2.04399,0,0,0,-0.075372,-0.305261,-0.262705,0.966768,2.05154
1.3465,0.0447022,-0.0827781,1.04898,0.00431692,-0.0323835,-0.20328,1,0,1,0.178719,-0.00346825,-2.20977,0,0,0,-0.0692145,-0.298786,-0.258625,0.960128,2.21699
1.37852,0.0486974,-0.0842379,0.98584,-0.0223236,-0.0514605,-0.189883,1,0,1,0.175313,-0.00108363,-2.20095,0,0,0,-0.0725663,-0.296436,-0.254554,0.95513,2.20792
1.41443,0.0530401,-0.0850911,0.912201,-0.0389338,-0.0559729,-0.181083,1,0,1,0.160664,0.00787323,-2.09485,0,0,0,-0.045732,-0.305308,-0.246104,0.95482,2.10102
1.44639,0.0558429,-0.0845733,0.858337,-0.0734348,-0.061089,-0.162887,1,0,1,0.133477,0.0366563,-1.90522,0,0,0,-0.0481094,-0.308796,-0.257976,0.958464,1.91024
1.47851,0.0581914,-0.0827384,0.809174,-0.102006,-0.0545209,-0.143511,1,0,1,0.112364,0.0705134,-1.74457,0,0,0,-0.0463679,-0.288932,-0.233435,0.964502,1.74961
1.51434,0.0600869,-0.0793431,0.765076,-0.112716,-0.0470888,-0.134197,1,0,1,0.0952115,0.112286,-1.58175,0,0,0,-0.0354248,-0.280015,-0.21716,0.972071,1.58859
1.5464,0.061667,-0.0743305,0.726074,-0.120764,-0.0335582,-0.115208,1,0,1,0.0792886,0.158189,-1.4071,0,0,0,-0.0339077,-0.263604,-0.210111,0.980321,1.41819
1.57835,0.0630002,-0.0677301,0.692383,-0.109587,-0.0245845,-0.0965093,1,0,1,0.0684111,0.204811,-1.23472,0,0,0,-0.0447994,-0.265795,-0.200004,0.988526,1.25346
1.61486,0.0644508,-0.0573104,0.658234,-0.0961133,-0.0208798,-0.0859473,1,0,1,0.0605755,0.25353,-1.04934,0,0,0,-0.0380071,-0.254446,-0.202434,0.997668,1.08123
1.64781,0.0670256,-0.0535637,0.633331,-0.0712987,-0.0179526,-0.0713906,1,0,1,0.0508858,0.306367,-0.820852,0,0,0,-0.0347587,-0.242085,-0.194197,1.00387,0.877638
1.67986,0.0692311,-0.0484946,0.614075,-0.0429465,-0.0182014,-0.0572577,1,0,1,0.043433,0.332836,-0.648588,0,0,0,-0.0296779,-0.232633,-0.184461,1.00877,0.730296
1.71566,0.0709772,-0.0424814,0.600464,-0.0261119,-0.0196114,-0.0502586,1,0,1,0.0347714,0.352711,-0.475925,0,0,0,-0.0402344,-0.236174,-0.188445,1.01218,0.593396
1.74819,0.0722666,-0.0359371,0.592621,-0.00256043,-0.0207843,-0.0414172,1,0,1,0.0253325,0.360466,-0.301201,0,0,0,-0.0496911,-0.236065,-0.194953,1.01387,0.470425
1.7802,0.0731221,-0.029158,0.590302,0.0181887,-0.019474,-0.033679,1,0,1,0.0164607,0.359257,-0.12498,0,0,0,-0.0568539,-0.236998,-0.19401,1.01381,0.380732
1.81702,0.0735407,-0.0208365,0.594788,0.0267923,-0.0191434,-0.0307209,1,0,1,0.00821219,0.349921,0.0440577,0,0,0,-0.0655698,-0.23292,-0.194464,1.01141,0.352779
1.84879,0.0733112,-0.0145675,0.603516,0.0407273,-0.019541,-0.0260479,1,0,1,-0.00500399,0.327518,0.233877,0,0,0,-0.0827762,-0.238475,-0.212009,1.00805,0.402482
1.88072,0.0725876,-0.00880068,0.61618,0.0508093,-0.0198403,-0.0233414,1,0,1,-0.0169365,0.304472,0.363835,0,0,0,-0.0909381,-0.24092,-0.211615,1.00374,0.474727
1.91644,0.071415,-0.00366504,0.631805,0.0547588,-0.0198904,-0.0223044,1,0,1,-0.0268653,0.276519,0.473886,0,0,0,-0.104488,-0.23729,-0.220419,0.998925,0.549321
1.94867,0.0693863,0.00195074,0.653931,0.061179,-0.0208294,-0.0213909,1,0,1,-0.0368776,0.247976,0.55022,0,0,0,-0.119458,-0.234104,-0.227293,0.992879,0.604644
1.98011,0.0678948,0.00496435,0.667633,0.0640478,-0.0233762,-0.0210487,1,0,1,-0.0470037,0.216976,0.595527,0,0,0,-0.128286,-0.232178,-0.228359,0.989602,0.635563
2.01587,0.0649908,0.00949883,0.689423,0.0642115,-0.0255072,-0.0213386,1,0,1,-0.0543663,0.201611,0.592071,0,0,0,-0.136023,-0.226622,-0.237661,0.985287,0.627814
2.04865,0.0601514,0.0115101,0.698334,0.0629597,-0.0304407,-0.0223011,1,0,1,-0.0654107,0.178028,0.533939,0,0,0,-0.142333,-0.221081,-0.239801,0.987143,0.566624
2.08004,0.0551861,0.0133872,0.704742,0.0594017,-0.0354206,-0.0234442,1,0,1,-0.0764908,0.162224,0.447461,0,0,0,-0.144512,-0.220721,-0.236785,0.989964,0.482068
2.11595,0.0501345,0.0151576,0.708466,0.0565127,-0.0371858,-0.0240849,1,0,1,-0.0846542,0.148401,0.341656,0,0,0,-0.132224,-0.216665,-0.227097,0.993713,0.381992
2.14784,0.04489,0.0168212,0.710083,0.0490782,-0.038705,-0.0258427,1,0,1,-0.0931873,0.135838,0.24479,0,0,0,-0.123944,-0.222597,-0.22338,0.998283,0.295056
2.1796,0.0394998,0.0183164,0.710815,0.0414191,-0.0362525,-0.0274668,1,0,1,-0.104218,0.122149,0.18032,0,0,0,-0.118917,-0.224898,-0.218345,1.00326,0.241448
2.21561,0.0325258,0.0199041,0.712555,0.0366149,-0.0330815,-0.0282448,1,0,1,-0.113494,0.109298,0.161034,0,0,0,-0.109303,-0.224583,-0.215949,1.00947,0.225297
2.24735,0.0267537,0.0209347,0.715912,0.0273879,-0.0238927,-0.0300276,1,0,1,-0.12619,0.0912873,0.195984,0,0,0,-0.103387,-0.226662,-0.216449,1.01408,0.250334
2.27927,0.0208549,0.0218436,0.721771,0.0183009,-0.0122276,-0.0320693,1,0,1,-0.135387,0.0798759,0.251467,0,0,0,-0.101251,-0.223471,-0.216503,1.01814,0.296556
2.31515,0.0150007,0.0226636,0.730255,0.0135193,-0.00442066,-0.0332984,1,0,1,-0.141602,0.0705575,0.323186,0,0,0,-0.0995047,-0.226072,-0.21993,1.02152,0.359831
2.34702,0.00932144,0.0234196,0.741058,0.00739402,0.00841034,-0.0349445,1,0,1,-0.14158,0.0618295,0.392678,0,0,0,-0.101252,-0.224783,-0.220921,1.02423,0.421976
2.3791,0.00385008,0.0241387,0.753815,0.00444356,0.0177946,-0.0361652,1,0,1,-0.138802,0.0554677,0.452044,0,0,0,-0.101884,-0.222498,-0.22284,1.0264,0.476116
2.41548,-0.00257014,0.0250844,0.77179,0.00388251,0.0217252,-0.0367267,1,0,1,-0.136138,0.0504419,0.499006,0,0,0,-0.10129,-0.221234,-0.22639,1.02852,0.519697
2.44736,-0.00876548,0.0237512,0.78476,0.00307909,0.0276204,-0.0370758,1,0,1,-0.125445,0.047844,0.531965,0,0,0,-0.106111,-0.223582,-0.224939,1.03175,0.548646
2.47937,-0.0144583,0.0226484,0.797943,0.00231684,0.0302234,-0.037077,1,0,1,-0.116615,0.0451961,0.535294,0,0,0,-0.106668,-0.223803,-0.225668,1.03463,0.54971
2.51513,-0.0196557,0.0217252,0.810822,0.00216711,0.0299594,-0.0369102,1,0,1,-0.108795,0.0419987,0.520765,0,0,0,-0.106136,-0.223652,-0.230502,1.03728,0.533663
2.54706,-0.0243543,0.021027,0.823059,0.00160968,0.0283821,-0.0361247,1,0,1,-0.0990406,0.040258,0.494009,0,0,0,-0.109437,-0.227246,-0.229024,1.03974,0.505445
2.57917,-0.0285983,0.0205586,0.834503,0.000703527,0.0247498,-0.0353549,1,0,1,-0.0897412,0.0402231,0.460758,0,0,0,-0.10814,-0.228389,-0.228888,1.04203,0.471136
2.61509,-0.0333299,0.0202065,0.847534,0.000360161,0.0225042,-0.0350382,1,0,1,-0.0818303,0.0397935,0.424847,0,0,0,-0.106621,-0.231591,-0.231156,1.04471,0.434482
2.65061,-0.0367213,0.020141,0.857147,-0.000686556,0.017313,-0.0346375,1,0,1,-0.0724063,0.0389938,0.380449,0,0,0,-0.108731,-0.233884,-0.23126,1.04671,0.389236
2.67923,-0.0398165,0.020242,0.866516,-0.00127707,0.0125551,-0.034257,1,0,1,-0.0662852,0.0380959,0.357378,0,0,0,-0.108051,-0.234498,-0.230496,1.04854,0.365464
2.71513,-0.0426347,0.0205169,0.875916,-0.00112122,0.0109409,-0.0341338,1,0,1,-0.0609351,0.0392064,0.348511,0,0,0,-0.107587,-0.238327,-0.234092,1.05019,0.355964
2.74765,-0.045192,0.0209393,0.885468,-0.000893245,0.00809511,-0.0337192,1,0,1,-0.0570723,0.0397397,0.346055,0,0,0,-0.109104,-0.241139,-0.23552,1.05166,0.352974
2.7796,-0.0474701,0.0214714,0.895355,-0.000144327,0.0065893,-0.0332127,1,0,1,-0.0510645,0.0395814,0.347957,0,0,0,-0.109174,-0.241939,-0.236787,1.0529,0.353904
2.81538,-0.0500784,0.0222827,0.908203,0.000257502,0.00600724,-0.0329489,1,0,1,-0.0464299,0.0383771,0.353659,0,0,0,-0.111907,-0.244351,-0.239355,1.05432,0.358753
2.84729,-0.0541584,0.0200569,0.918793,0.00146821,0.00511774,-0.0322206,1,0,1,-0.0442898,0.0385827,0.361156,0,0,0,-0.11135,-0.243569,-0.240632,1.05747,0.365902
2.87926,-0.0579382,0.018151,0.929443,0.00273726,0.00562712,-0.0314679,1,0,1,-0.0438199,0.0374538,0.361637,0,0,0,-0.112334,-0.243987,-0.241281,1.06044,0.366202
2.91544,-0.0614598,0.016542,0.939972,0.00357804,0.00631086,-0.0311158,1,0,1,-0.0432976,0.0349238,0.357673,0,0,0,-0.1146,-0.244278,-0.240801,1.06328,0.361973
2.94721,-0.0646754,0.0151788,0.950073,0.00526809,0.00776558,-0.0307612,1,0,1,-0.0423282,0.0342532,0.344969,0,0,0,-0.112722,-0.242677,-0.240418,1.06595,0.34924
2.97912,-0.0676073,0.0140085,0.959534,0.00704267,0.00927817,-0.0299884,1,0,1,-0.03889,0.0319558,0.325616,0,0,0,-0.113137,-0.24286,-0.240377,1.06847,0.329483
3.01496,-0.0709671,0.0128254,0.970215,0.00742521,0.00989231,-0.0297021,1,0,1,-0.0371267,0.0296333,0.300921,0,0,0,-0.113076,-0.242287,-0.239455,1.07146,0.304647
3.04706,-0.0734008,0.0120122,0.977722,0.0081093,0.0115202,-0.0292444,0.999945,0.0193082,1,-0.0361732,0.026845,0.264246,-0.000229711,0.0400002,0,-0.113554,-0.241296,-0.238294,1.0736,0.267003
3.07908,-0.0755739,0.0113167,0.984192,0.0080704,0.0129024,-0.0280934,0.999909,0.0247039,1,-0.0328776,0.0242046,0.231051,-0.000442735,0.0600518,0,-0.112693,-0.2416,-0.238678,1.07568,0.236054
3.11493,-0.0775059,0.0107245,0.989624,0.00787497,0.0135026,-0.0275799,0.999909,0.0247039,1,-0.0290893,0.0219529,0.196434,-0.000737232,0.0999969,0,-0.112356,-0.241845,-0.237862,1.07756,0.213262
3.14687,-0.0791898,0.0102093,0.99411,0.00661369,0.0145764,-0.0263108,0.999909,0.0247039,1,-0.0260475,0.0192145,0.162306,-0.000885837,0.120153,0,-0.112909,-0.243696,-0.236334,1.07921,0.192782
3.17891,-0.0806498,0.00981993,0.997803,0.00340941,0.0151493,-0.0252185,0.999909,0.0247039,1,-0.0226758,0.0167108,0.1344,-0.00118094,0.160181,0,-0.112098,-0.2443,-0.237614,1.08066,0.19776
3.21478,-0.0820812,0.00945088,1.00143,0.0018572,0.0152903,-0.0246357,0.999909,0.0247039,1,-0.0181365,0.0172792,0.110801,-0.00147445,0.199992,0,-0.112554,-0.245367,-0.238431,1.0821,0.214333
3.24685,-0.0859209,0.00667955,1.00415,-0.00147229,0.0160849,-0.0233311,0.999778,0.03856,1,-0.0101976,0.0135281,0.0836896,-0.00255436,0.220034,0,-0.114172,-0.247882,-0.238608,1.08617,0.222951
3.27868,-0.0892886,0.00420092,1.00626,-0.00483974,0.0161802,-0.021614,0.999635,0.0493158,1,-0.00723953,0.0126379,0.0654817,-0.0038863,0.259973,0,-0.114311,-0.24859,-0.239604,1.08988,0.255878
3.31464,-0.0922179,0.00200951,1.00775,-0.00643085,0.0159107,-0.0206697,0.999635,0.0493158,1,-0.00422357,0.0103227,0.046154,-0.00448414,0.299965,0,-0.113554,-0.249585,-0.239584,1.0929,0.293297
3.34669,-0.094705,0.000142939,1.00873,-0.00913627,0.0148633,-0.0182351,0.999174,0.0738313,1,0.00036425,0.0104987,0.026917,-0.00727291,0.319914,0,-0.113766,-0.252616,-0.238561,1.09639,0.310678
3.37877,-0.0967991,-0.00138214,1.0094,-0.0128999,0.0137806,-0.015235,0.999174,0.0738313,1,0.00456482,0.0129012,0.0134086,-0.00818987,0.360249,0,-0.113926,-0.253458,-0.238845,1.09859,0.34784
3.41469,-0.0989216,-0.00276162,1.01004,-0.0150311,0.0137093,-0.0136173,0.998522,0.0982475,1,0.00811115,0.0163273,0.00538852,-0.0122877,0.399817,0,-0.112415,-0.254525,-0.236917,1.10213,0.38407
3.44673,-0.100224,-0.0034748,1.01053,-0.0195021,0.0137808,-0.00984642,0.998522,0.0982475,1,0.0134588,0.0227728,0.00307594,-0.0129043,0.419882,0,-0.112664,-0.257362,-0.235549,1.10349,0.397995
3.47964,-0.101214,-0.0038195,1.0112,-0.0245665,0.014557,-0.00536856,0.997675,0.122559,1,0.017962,0.0264872,0.00651662,-0.0179042,0.459652,0,-0.112563,-0.257799,-0.235236,1.10619,0.434696
3.51544,-0.101892,-0.00372821,1.01212,-0.0271414,0.0149951,-0.00293293,0.99663,0.146766,1,0.0214557,0.0345539,0.014073,-0.0236719,0.499437,0,-0.113169,-0.259399,-0.232245,1.10885,0.467281
3.54739,-0.102223,-0.00302991,1.01364,-0.0323249,0.015953,0.0026805,0.99663,0.146766,1,0.0270292,0.0424439,0.0230968,-0.0255663,0.539405,0,-0.114319,-0.260764,-0.230406,1.1091,0.50027
3.57926,-0.102206,-0.0022787,1.01471,-0.0380628,0.0176243,0.00983879,0.995384,0.170865,1,0.0344444,0.0542293,0.0332836,-0.0313531,0.559127,0,-0.114462,-0.260904,-0.229629,1.11126,0.510253
3.61542,-0.101804,-0.000441768,1.01672,-0.0402541,0.0182127,0.01275,0.993933,0.194852,1,0.0376427,0.0611611,0.038491,-0.038913,0.598734,0,-0.115389,-0.262089,-0.226512,1.11313,0.544359
3.6471,-0.102904,-0.000880328,1.01746,-0.0460344,0.0188058,0.0201623,0.992273,0.218722,1,0.0436545,0.0751754,0.0434256,-0.0473287,0.638247,0,-0.118509,-0.263104,-0.224909,1.11711,0.572026
3.67912,-0.103663,-0.00056116,1.01813,-0.0507254,0.0188461,0.0287941,0.992273,0.218722,1,0.0458639,0.0885247,0.0431662,-0.0488077,0.658191,0,-0.119165,-0.263268,-0.223952,1.1178,0.57909
3.71498,-0.10409,0.000505182,1.01846,-0.0526918,0.0186437,0.0332952,0.988311,0.266107,1,0.0485892,0.101452,0.03462,-0.0649919,0.696979,0,-0.12005,-0.264642,-0.220443,1.12438,0.607249
3.74702,-0.104221,0.00229384,1.01822,-0.0579529,0.017026,0.0442029,0.986003,0.289614,1,0.0510634,0.11573,0.0173357,-0.0759609,0.736095,0,-0.122261,-0.265801,-0.218249,1.1276,0.633473
3.77895,-0.104074,0.00484447,1.01736,-0.0622513,0.0152969,0.0539896,0.986003,0.289614,1,0.0539105,0.131013,-0.00132636,-0.0780088,0.75594,0,-0.121325,-0.265562,-0.216822,1.12679,0.6387
3.8149,-0.103518,0.00912442,1.01547,-0.0646187,0.0143506,0.0597739,0.980714,0.336239,1,0.055297,0.147933,-0.023449,-0.098389,0.793925,0,-0.120256,-0.2686,-0.212682,1.13261,0.664436
3.84694,-0.102828,0.0134711,1.01382,-0.0712046,0.0131855,0.0722037,0.980534,0.337688,1,0.0595067,0.171472,-0.0406325,-0.101389,0.813757,0,-0.122321,-0.269643,-0.210614,1.13092,0.663377
3.87932,-0.101971,0.0186476,1.01254,-0.077116,0.013026,0.0853977,0.974502,0.38233,1,0.0597323,0.191341,-0.038018,-0.124112,0.850996,0,-0.122299,-0.270052,-0.208913,1.13632,0.685849
3.91528,-0.100925,0.0246879,1.01187,-0.0799378,0.0130186,0.0925537,0.971042,0.405165,1,0.0617611,0.212311,-0.0230313,-0.139823,0.889071,0,-0.125558,-0.272829,-0.204334,1.13755,0.70652
3.94717,-0.0997661,0.0316625,1.01181,-0.0862958,0.0130141,0.107373,0.963395,0.450404,1,0.0628726,0.235668,-0.00304605,-0.167518,0.924954,0,-0.129734,-0.275375,-0.201187,1.14271,0.726776
3.97913,-0.0985104,0.0395996,1.01236,-0.0912273,0.0130959,0.123334,0.9592,0.472801,1,0.0621473,0.261086,0.0169677,-0.182421,0.942508,0,-0.130669,-0.276798,-0.199958,1.14305,0.724181
4.01567,-0.0967899,0.0508894,1.01355,-0.0930607,0.0130792,0.131953,0.950051,0.517129,1,0.0621353,0.288578,0.0335416,-0.214418,0.976744,0,-0.134343,-0.279992,-0.195591,1.14605,0.742415
4.04764,-0.0987993,0.0558446,1.01447,-0.0961693,0.0120834,0.14952,0.94509,0.539057,1,0.06223,0.320875,0.04322,-0.236093,1.0129,0,-0.139433,-0.282889,-0.192937,1.15039,0.754826
4.08033,-0.100513,0.0621095,1.01541,-0.0976153,0.00883083,0.170658,0.939865,0.560823,1,0.0581955,0.343138,0.0457956,-0.254232,1.02906,0,-0.139656,-0.283703,-0.1912,1.15384,0.755113
4.11621,-0.102022,0.0696377,1.01593,-0.097551,0.00700504,0.178476,0.928615,0.603852,1,0.0546371,0.36659,0.0389021,-0.29291,1.06028,0,-0.142004,-0.28722,-0.18524,1.16097,0.776859
4.14871,-0.103373,0.0782923,1.01575,-0.0960728,0.00122042,0.198559,0.916269,0.646196,1,0.0495448,0.389514,0.0173893,-0.33485,1.08976,0,-0.143703,-0.289322,-0.184061,1.16723,0.799002
4.1805,-0.104701,0.0880143,1.01471,-0.0933798,-0.00494303,0.220172,0.909676,0.667102,1,0.0428071,0.409642,-0.00864324,-0.357044,1.10369,0,-0.143494,-0.289657,-0.183392,1.16813,0.801032
4.21633,-0.106382,0.101545,1.01242,-0.0916276,-0.0085613,0.233543,0.893799,0.71347,1,0.0345019,0.429452,-0.0366177,-0.408374,1.12838,0,-0.141111,-0.290338,-0.179295,1.17259,0.828237
4.24818,-0.107797,0.113516,1.01019,-0.0909565,-0.0136965,0.253602,0.872378,0.768845,1,0.0236002,0.454675,-0.0599505,-0.473082,1.14621,0,-0.140931,-0.291625,-0.181361,1.17911,0.853524
4.28002,-0.10939,0.126492,1.00821,-0.0912782,-0.0169304,0.276862,0.864025,0.788615,1,0.0125103,0.477126,-0.062108,-0.500048,1.15653,0,-0.140771,-0.291395,-0.181415,1.17729,0.853322
4.31586,-0.111254,0.140504,1.00717,-0.0920241,-0.0172062,0.288661,0.846398,0.827553,1,-0.000338653,0.498702,-0.0435833,-0.556475,1.17488,0,-0.142516,-0.29384,-0.178058,1.17864,0.876584
4.34777,-0.113474,0.15551,1.00732,-0.0959608,-0.0168574,0.313172,0.8176,0.8844,1,-0.0150773,0.522997,-0.00804098,-0.637669,1.17855,0,-0.147353,-0.295201,-0.180483,1.18247,0.90412
4.37983,-0.11611,0.171543,1.00888,-0.100139,-0.0147803,0.338491,0.807357,0.902922,1,-0.0335436,0.54661,0.0333518,-0.669117,1.18396,0,-0.149828,-0.295405,-0.179632,1.17804,0.90071
4.41565,-0.119939,0.192959,1.01285,-0.102556,-0.0131324,0.351661,0.77465,0.957159,1,-0.0496141,0.571931,0.0774038,-0.757059,1.17765,0,-0.156386,-0.300174,-0.173977,1.17663,0.934539
4.4476,-0.124497,0.206942,1.01724,-0.107615,-0.0113077,0.378691,0.751159,0.992178,1,-0.0713359,0.601345,0.12918,-0.825543,1.17987,0,-0.16459,-0.303712,-0.171861,1.17629,0.959272
4.47943,-0.129419,0.222108,1.02225,-0.109984,-0.0112954,0.406973,0.726285,1.02626,1,-0.0890884,0.623246,0.156065,-0.884223,1.16179,0,-0.167812,-0.304878,-0.169588,1.17447,0.972945
4.51559,-0.136028,0.242543,1.02786,-0.109587,-0.0126013,0.421582,0.68632,1.07556,1,-0.107047,0.641528,0.160316,-0.979947,1.13559,0,-0.1737,-0.308569,-0.165195,1.17088,1.01575
4.54736,-0.140224,0.25543,1.03003,-0.105909,-0.0179993,0.451511,0.657863,1.10718,1,-0.126159,0.659742,0.118109,-1.05376,1.12303,0,-0.176454,-0.308671,-0.168269,1.16762,1.04356
4.57926,-0.146077,0.273159,1.03049,-0.0978317,-0.0271334,0.482547,0.627925,1.13778,1,-0.136169,0.665983,0.0648314,-1.11426,1.0918,0,-0.175253,-0.308872,-0.166932,1.16085,1.06873
4.6152,-0.153866,0.296055,1.02631,-0.0926509,-0.0325223,0.4985,0.580172,1.18169,1,-0.150895,0.672278,-0.0342235,-1.21143,1.0452,0,-0.169976,-0.308649,-0.160976,1.15059,1.12471
4.64717,-0.160532,0.314874,1.01956,-0.0810203,-0.0454709,0.531138,0.528921,1.22314,1,-0.170094,0.67706,-0.165589,-1.30698,0.990665,0,-0.166895,-0.310808,-0.160191,1.14047,1.19091
4.68064,-0.167664,0.33408,1.01056,-0.0693394,-0.0599026,0.564158,0.511043,1.2364,1,-0.185975,0.681015,-0.250708,-1.34366,0.974768,0,-0.165743,-0.311005,-0.156622,1.12913,1.2204
4.71517,-0.175422,0.353574,1.00009,-0.0628157,-0.0696263,0.584314,0.454975,1.27445,1,-0.205363,0.682349,-0.309654,-1.43556,0.910607,0,-0.163129,-0.313586,-0.151345,1.11598,1.28894
4.74716,-0.183962,0.373134,0.988708,-0.0538341,-0.086036,0.615485,0.395181,1.30984,1,-0.230103,0.680532,-0.345045,-1.52344,0.840668,0,-0.162843,-0.31745,-0.156018,1.10134,1.34812
4.77921,-0.193389,0.392596,0.97699,-0.044858,-0.107148,0.65436,0.353199,1.33193,1,-0.25907,0.671992,-0.365623,-1.57385,0.788575,0,-0.164355,-0.319338,-0.153291,1.08703,1.36964
4.81509,-0.206597,0.416461,0.962555,-0.042146,-0.11522,0.668556,0.28698,1.36271,1,-0.289516,0.659858,-0.367754,-1.65329,0.711784,0,-0.163462,-0.325499,-0.146947,1.0679,1.41344
4.84751,-0.220377,0.433629,0.953766,-0.0358431,-0.137888,0.705257,0.264025,1.37234,1,-0.332724,0.634155,-0.360422,-1.68491,0.688107,0,-0.165156,-0.329338,-0.152869,1.05733,1.40043
4.87959,-0.235219,0.450085,0.94516,-0.0287421,-0.160174,0.743215,0.19247,1.39927,1,-0.370999,0.605461,-0.35047,-1.7579,0.60778,0,-0.168188,-0.330564,-0.150299,1.04253,1.4305
4.91563,-0.251239,0.46557,0.937042,-0.0246978,-0.171343,0.762365,0.116801,1.4232,1,-0.414062,0.570248,-0.329464,-1.82569,0.526155,0,-0.163533,-0.333175,-0.141146,1.02785,1.45024
4.94783,-0.268479,0.479801,0.929504,-0.0164191,-0.196099,0.801382,0.0369167,1.44406,1,-0.458813,0.52801,-0.306158,-1.88848,0.444128,0,-0.164237,-0.333049,-0.149797,1.01392,1.46448
4.97977,-0.286886,0.492575,0.922729,-0.00511121,-0.218112,0.841503,0.0093385,1.45031,1,-0.501716,0.477901,-0.281529,-1.91485,0.418256,0,-0.167633,-0.330838,-0.148181,1.00547,1.44214
5.01567,-0.311782,0.506068,0.915802,0.000625622,-0.22736,0.861557,-0.0763129,1.46693,1,-0.545122,0.422283,-0.246981,-1.97148,0.336532,0,-0.164983,-0.330488,-0.13653,0.992871,1.45012
5.04781,-0.333156,0.514503,0.911591,0.0115618,-0.246069,0.90214,-0.137765,1.47646,1,-0.603786,0.340963,-0.194086,-1.9807,0.277168,0,-0.164558,-0.327194,-0.146336,0.985576,1.39199
5.07959,-0.355766,0.520557,0.908752,0.0221755,-0.261289,0.943278,-0.197434,1.48398,1,-0.647195,0.263991,-0.152431,-1.98748,0.223449,0,-0.168094,-0.324012,-0.145297,0.980602,1.34953
5.1156,-0.379504,0.524001,0.907562,0.0268656,-0.266934,0.968205,-0.261024,1.49026,1,-0.688166,0.182692,-0.100673,-1.99275,0.170102,0,-0.163459,-0.322839,-0.130947,0.977872,1.30853
5.14776,-0.404322,0.524599,0.90802,0.0308176,-0.275651,1.00564,-0.36028,1.49679,1,-0.72773,0.0922885,-0.0429864,-1.99779,0.094072,0,-0.161415,-0.319795,-0.141791,0.977529,1.27079
5.17941,-0.43009,0.522276,0.910095,0.0353299,-0.281483,1.04806,-0.394413,1.49819,1,-0.762451,-0.00109816,0.00841003,-1.99878,0.0697811,0,-0.16728,-0.315489,-0.145566,0.980697,1.23839
5.21532,-0.463471,0.515184,0.915222,0.0368366,-0.28076,1.06916,-0.46427,1.4998,1,-0.794806,-0.0967942,0.0655371,-1.99987,0.0227506,0,-0.167614,-0.310729,-0.133364,0.988257,1.21275
5.24728,-0.488485,0.513912,0.9198,0.0356504,-0.277563,1.1112,-0.555593,1.5,1,-0.829266,-0.218701,0.142126,-2,-0.000312461,0,-0.164392,-0.308159,-0.136241,0.991615,1.19938
5.27942,-0.514232,0.509207,0.925964,0.0330944,-0.273454,1.15193,-0.605587,1.49998,1,-0.851706,-0.307909,0.192948,-2,-0.00117747,0,-0.171172,-0.304643,-0.147015,0.997726,1.20411
5.31561,-0.540564,0.50133,0.933411,0.0322815,-0.268258,1.17251,-0.673324,1.49991,1,-0.868086,-0.395011,0.237506,-2,-0.00337377,0,-0.183965,-0.300171,-0.159244,1.00956,1.22107
5.34849,-0.567338,0.490738,0.941101,0.0270901,-0.250385,1.21395,-0.738976,1.49974,1,-0.881012,-0.471404,0.264964,-1.99999,-0.00682489,0,-0.189803,-0.297241,-0.159157,1.02519,1.24022
5.37946,-0.594472,0.477826,0.947754,0.0157926,-0.228647,1.25502,-0.802566,1.49945,1,-0.890405,-0.536496,0.247075,-1.99997,-0.0116504,0,-0.193127,-0.296523,-0.15688,1.04391,1.25205
5.41541,-0.62871,0.458969,0.953217,0.00963329,-0.218479,1.27515,-0.864129,1.499,1,-0.896981,-0.589565,0.195142,-1.99992,-0.0179828,0,-0.192268,-0.297062,-0.148406,1.06737,1.25748
5.44734,-0.656254,0.442006,0.954651,-0.00241406,-0.200274,1.31557,-0.952726,1.49794,1,-0.902264,-0.646475,0.0998545,-1.99977,-0.030629,0,-0.19153,-0.299291,-0.140481,1.0977,1.26244
5.47941,-0.683899,0.423617,0.953186,-0.0127125,-0.185197,1.35617,-0.981275,1.49747,1,-0.903648,-0.683265,0.00980959,-1.99968,-0.0357654,0,-0.191263,-0.298817,-0.141035,1.11525,1.27304
5.51529,-0.711638,0.403954,0.948975,-0.0184558,-0.175835,1.38054,-1.06402,1.49563,1,-0.904594,-0.715584,-0.0827489,-1.99926,-0.0542549,0,-0.182134,-0.296196,-0.140615,1.14827,1.2816
5.54727,-0.739502,0.383154,0.942078,-0.0286011,-0.157905,1.41771,-1.14249,1.49305,1,-0.906209,-0.744805,-0.165644,-1.99848,-0.0779052,0,-0.179526,-0.294711,-0.147876,1.18221,1.29045
5.57921,-0.76744,0.3614,0.932037,-0.0428171,-0.127098,1.4637,-1.19247,1.49087,1,-0.908316,-0.768841,-0.256488,-1.99765,-0.0969217,0,-0.178683,-0.294225,-0.154449,1.20871,1.30534
5.61522,-0.802522,0.33317,0.914459,-0.0484126,-0.11349,1.4805,-1.26403,1.48682,1,-0.909629,-0.786004,-0.362092,-1.99571,-0.13097,0,-0.165783,-0.290794,-0.16246,1.24547,1.31899
5.64714,-0.832076,0.310534,0.899658,-0.0652138,-0.0729838,1.52204,-1.3532,1.47975,1,-0.914255,-0.801726,-0.504606,-1.99112,-0.188236,0,-0.155647,-0.282015,-0.16612,1.28402,1.33815
5.67926,-0.861842,0.287542,0.88382,-0.0811939,-0.0248656,1.56288,-1.37964,1.47711,1,-0.923105,-0.808982,-0.561607,-1.98902,-0.209282,0,-0.155788,-0.275394,-0.174703,1.30257,1.34581
5.71582,-0.892031,0.264584,0.868713,-0.0880594,0.00267652,1.58269,-1.45497,1.46784,1,-0.932618,-0.808161,-0.556772,-1.97992,-0.282681,0,-0.16125,-0.273289,-0.164414,1.33491,1.29729
5.74786,-0.922959,0.242142,0.856171,-0.0997458,0.0642709,1.62135,-1.5464,1.452,1,-0.953609,-0.791677,-0.501153,-1.95796,-0.407909,0,-0.161373,-0.278771,-0.150401,1.36862,1.18624
5.78023,-0.954831,0.220802,0.847534,-0.101108,0.132232,1.66207,-1.58017,1.44443,1,-0.981513,-0.761521,-0.391207,-1.9445,-0.467876,0,-0.161808,-0.281159,-0.146889,1.3826,1.0801
5.81625,-0.996371,0.196852,0.843475,-0.099009,0.155957,1.67669,-1.65786,1.42213,1,-1.01595,-0.709335,-0.250338,-1.89325,-0.644681,0,-0.161484,-0.284692,-0.1284,1.40121,0.914605
5.8481,-1.03113,0.180786,0.846436,-0.0893275,0.21221,1.71247,-1.72628,1.39454,1,-1.06957,-0.609744,-0.039618,-1.806,-0.859275,0,-0.171,-0.284065,-0.10444,1.40714,0.778568
5.88001,-1.06716,0.167921,0.854767,-0.0728469,0.250966,1.74902,-1.76307,1.37522,1,-1.11191,-0.508757,0.142351,-1.73044,-1.00279,0,-0.172553,-0.283716,-0.0955788,1.40106,0.804308
5.91598,-1.1044,0.158578,0.868164,-0.0634537,0.260524,1.76742,-1.82752,1.32976,1,-1.15132,-0.399664,0.302937,-1.51787,-1.30234,0,-0.198782,-0.282208,-0.119533,1.38274,1.02027
5.94781,-1.14281,0.153009,0.886841,-0.0460361,0.266094,1.80413,-1.8819,1.27253,1,-1.19033,-0.278155,0.471504,-1.22248,-1.58289,0,-0.23074,-0.287524,-0.134977,1.34625,1.38769
5.97982,-1.18217,0.150979,0.909943,-0.0331434,0.256124,1.83966,-1.90498,1.23929,1,-1.22547,-0.156387,0.633475,-1.05757,-1.69751,0,-0.241077,-0.287631,-0.141347,1.30957,1.67468
6.01572,-1.23224,0.152316,0.941711,-0.0280889,0.245481,1.85704,-1.94284,1.1634,1,-1.25041,-0.0509841,0.745571,-0.734492,-1.86025,0,-0.283567,-0.294394,-0.190836,1.23719,2.02373
6.05311,-1.26906,0.139301,0.9599,-0.0200493,0.214492,1.89159,-1.96734,1.08647,1,-1.26954,0.0435833,0.775963,-0.490009,-1.93904,0,-0.330649,-0.303705,-0.233208,1.17743,2.26729
6.07957,-1.30606,0.127865,0.972717,-0.0147402,0.171653,1.92639,-1.97574,1.04949,1,-1.27,0.0693101,0.667411,-0.397918,-1.96002,0,-0.328469,-0.304925,-0.236275,1.13956,2.30741
6.11553,-1.34316,0.117287,0.977142,-0.0129645,0.148068,1.94347,-1.98831,0.971273,1,-1.26518,0.0663743,0.420563,-0.244782,-1.98496,0,-0.331171,-0.317647,-0.245395,1.07053,2.3294
6.14797,-1.3803,0.107387,0.972504,-0.0106051,0.0980134,1.97697,-1.99538,0.896733,1,-1.26017,0.0564594,0.126765,-0.138228,-1.99522,0,-0.324292,-0.323322,-0.253655,1.00107,2.34184
6.17995,-1.41746,0.0980515,0.958893,-0.00748516,0.0436012,2.00998,-1.99796,0.850602,1,-1.25344,0.0474375,-0.171065,-0.0863478,-1.99814,0,-0.310051,-0.321213,-0.251494,0.951319,2.3613
6.2159,-1.46384,0.0870377,0.929596,-0.00601874,0.0142929,2.02629,-1.99991,0.772275,1,-1.24605,0.0361167,-0.458031,-0.0164871,-1.99993,0,-0.291005,-0.324918,-0.256797,0.872855,2.42221
6.24779,-1.50075,0.0786854,0.897217,-0.00181425,-0.0495971,2.05812,-2,0.6825,1,-1.23486,0.0243067,-0.801418,0,-2,0,-0.26178,-0.321217,-0.259231,0.790194,2.50299
6.27987,-1.53725,0.0706236,0.858612,0.00950386,-0.119731,2.0885,-2,0.637501,1,-1.22026,0.0131419,-1.03506,0,-2,0,-0.237167,-0.322764,-0.251797,0.745306,2.5716
6.31568,-1.57283,0.0625146,0.816254,0.019798,-0.157966,2.10318,-2,0.569999,1,-1.19621,-0.0030058,-1.20499,0,-2,0,-0.201586,-0.307905,-0.231324,0.688314,2.62124
6.34757,-1.60656,0.053513,0.774323,0.0521718,-0.246421,2.13257,-2,0.479999,1,-1.15048,-0.0341241,-1.27519,0,-2,0,-0.194129,-0.287297,-0.234954,0.622588,2.61044
6.38259,-1.63721,0.0425253,0.736267,0.0853107,-0.31893,2.15316,-2,0.451172,1,-1.06851,-0.100433,-1.19743,0,-2,0,-0.196254,-0.282398,-0.236195,0.606765,2.48675
6.4155,-1.66954,0.0250562,0.695251,0.103692,-0.358504,2.16341,-2,0.367501,1,-0.950071,-0.191355,-1.06222,0,-2,0,-0.175313,-0.268233,-0.231861,0.565103,2.30264
6.44758,-1.69691,0.00962129,0.675201,0.134199,-0.435188,2.18104,-2,0.277501,1,-0.756243,-0.328907,-0.886969,0,-2,0,-0.140562,-0.277262,-0.223207,0.518766,2.03744
6.47942,-1.71804,-0.00946425,0.658112,0.149709,-0.502087,2.19821,-2,0.255,1,-0.586452,-0.448323,-0.765308,0,-2,0,-0.129017,-0.281595,-0.216569,0.516071,1.82683
6.51569,-1.73215,-0.032572,0.644257,0.154979,-0.529772,2.20716,-2,0.165001,1,-0.397368,-0.576288,-0.653956,0,-2,0,-0.0816483,-0.300819,-0.185971,0.487167,1.61633
6.54747,-1.73875,-0.0600028,0.633575,0.164438,-0.577394,2.22977,-2,0.0820312,1,-0.177805,-0.719316,-0.528788,0,-2,0,-0.0609137,-0.289214,-0.1961,0.471902,1.39692
6.57948,-1.73695,-0.0998755,0.623352,0.169249,-0.591567,2.25688,-2,0.0525001,1,0.040292,-0.85997,-0.430987,0,-2,0,-0.0584793,-0.281641,-0.200255,0.484022,1.21944
6.61644,-1.7271,-0.136252,0.618011,0.170552,-0.588847,2.26979,-2,-0.0374998,1,0.30585,-1.02156,-0.333081,0,-2,0,-0.0378579,-0.248023,-0.19262,0.479728,1.07788
6.64835,-1.70934,-0.176683,0.615906,0.170523,-0.571782,2.30501,-2,-0.104999,1,0.543701,-1.15983,-0.223066,0,-2,0,-0.0327466,-0.214666,-0.204487,0.486981,1.02531
6.6803,-1.68422,-0.220507,0.61673,0.164306,-0.533798,2.34819,-2,-0.15,1,0.776234,-1.28665,-0.112917,0,-2,0,-0.0378208,-0.202899,-0.205103,0.501581,1.06026
6.71658,-1.65265,-0.266936,0.619751,0.159637,-0.507395,2.36905,-2,-0.24,1,0.98684,-1.38815,-0.018345,0,-2,0,-0.0573664,-0.185502,-0.201353,0.51572,1.16127
6.74881,-1.616,-0.315073,0.623322,0.150656,-0.450811,2.40754,-2,-0.3075,1,1.16106,-1.46263,0.0367704,0,-2,0,-0.0713044,-0.169056,-0.186807,0.53796,1.27991
6.78036,-1.57563,-0.364183,0.62561,0.13952,-0.381242,2.44978,-2,-0.352501,1,1.29059,-1.5081,0.0301306,0,-2,0,-0.0693688,-0.167417,-0.178825,0.566032,1.38148
6.81622,-1.52125,-0.426297,0.625397,0.132522,-0.346094,2.47045,-2,-0.4425,1,1.38238,-1.53602,-0.0246716,0,-2,0,-0.0760949,-0.178166,-0.176535,0.608104,1.45837
6.84809,-1.50531,-0.45869,0.619507,0.114987,-0.276611,2.51021,-2,-0.51,1,1.47368,-1.55594,-0.101045,0,-2,0,-0.0784826,-0.182737,-0.158315,0.626198,1.54244
6.88374,-1.48539,-0.492323,0.61264,0.0951548,-0.21224,2.5471,-2,-0.555001,1,1.51355,-1.552,-0.149109,0,-2,0,-0.0850069,-0.18627,-0.159466,0.647145,1.58549
6.91631,-1.46193,-0.526942,0.605957,0.0841849,-0.183218,2.5644,-2,-0.638672,1,1.54763,-1.54341,-0.172778,0,-2,0,-0.0950379,-0.206377,-0.143712,0.676218,1.6228
6.9482,-1.4355,-0.562243,0.600769,0.0586038,-0.131612,2.59727,-2,-0.7125,1,1.57712,-1.53131,-0.152122,0,-2,0,-0.116706,-0.228214,-0.115976,0.707544,1.65231
6.98007,-1.40637,-0.597978,0.59848,0.0370082,-0.0986249,2.6304,-2,-0.757499,1,1.59838,-1.51383,-0.0893266,0,-2,0,-0.133735,-0.246669,-0.115868,0.734207,1.67307
7.01613,-1.36675,-0.643069,0.601715,0.0336002,-0.0939328,2.64209,-2,-0.825001,1,1.61954,-1.49388,0.0180721,0,-2,0,-0.158731,-0.270597,-0.122024,0.769892,1.69687
7.04792,-1.33287,-0.679442,0.609497,0.0297482,-0.0916148,2.67087,-2,-0.915001,1,1.63356,-1.46853,0.2006,0,-2,0,-0.17747,-0.289104,-0.100416,0.808112,1.72951
7.07983,-1.29712,-0.716049,0.620605,0.0312259,-0.102269,2.6995,-2,-0.959999,1,1.64282,-1.44951,0.323504,0,-2,0,-0.184607,-0.28907,-0.0976376,0.835164,1.76254
7.11584,-1.25949,-0.752845,0.633789,0.0362285,-0.112166,2.71381,-2,-1.0275,1,1.65528,-1.43239,0.402433,0,-2,0,-0.195045,-0.286542,-0.113107,0.870575,1.79557
7.14779,-1.22002,-0.789688,0.648529,0.051759,-0.132896,2.74299,-2,-1.1175,1,1.66914,-1.41137,0.452203,0,-2,0,-0.201135,-0.28659,-0.106858,0.916165,1.82674
7.17999,-1.17854,-0.826529,0.664612,0.0673523,-0.153232,2.77176,-2,-1.1625,1,1.68832,-1.3907,0.495064,0,-2,0,-0.202874,-0.281706,-0.114107,0.948765,1.86193
7.21575,-1.1238,-0.872442,0.685944,0.0734074,-0.163207,2.7862,-2,-1.23,1,1.71559,-1.3699,0.529388,0,-2,0,-0.207617,-0.278677,-0.14285,0.997099,1.90276
7.24781,-1.07621,-0.910659,0.699432,0.0774625,-0.176219,2.81643,-2,-1.32,1,1.75323,-1.34091,0.557501,0,-2,0,-0.211674,-0.25579,-0.206165,1.05418,1.95423
7.2797,-1.02692,-0.948687,0.713593,0.0612124,-0.170001,2.8489,-2,-1.35938,1,1.78473,-1.32172,0.582954,0,-2,0,-0.204845,-0.250011,-0.233219,1.09434,1.99628
7.3157,-0.97643,-0.986719,0.725616,0.0451934,-0.158579,2.86621,-2,-1.4325,1,1.80413,-1.30675,0.557733,0,-2,0,-0.179511,-0.236481,-0.271602,1.14965,2.01161
7.34759,-0.92531,-1.02488,0.731934,0.00259961,-0.122788,2.9007,-1.93295,-1.49978,1,1.8077,-1.29856,0.414914,1.99995,0.0134449,0,-0.155523,-0.230023,-0.28772,1.14574,1.38942
7.37977,-0.873814,-1.06319,0.731445,-0.0465421,-0.0736592,2.93395,-1.93295,-1.49978,1,1.80004,-1.29416,0.195033,1.99995,0.0134449,0,-0.138019,-0.236397,-0.282825,1.17665,1.33709
7.41574,-0.809177,-1.11136,0.723022,-0.0711175,-0.0446778,2.94937,-1.86679,-1.49911,1,1.78844,-1.28938,-0.0240987,1.99982,0.0271171,0,-0.117432,-0.231332,-0.236879,1.16001,1.33358
7.44809,-0.757878,-1.1504,0.715302,-0.11525,0.0239132,2.97683,-1.73715,-1.49645,1,1.76506,-1.29026,-0.182331,1.99924,0.0551598,0,-0.116685,-0.231999,-0.197401,1.07693,1.37777
7.47968,-0.707968,-1.19032,0.711273,-0.134878,0.103593,2.99887,-1.73715,-1.49645,1,1.72211,-1.30393,-0.122335,1.99924,0.0551598,0,-0.105734,-0.225996,-0.180083,1.11189,1.39244
7.51626,-0.660662,-1.23141,0.712585,-0.136185,0.145095,3.00879,-1.67366,-1.49447,1,1.6444,-1.33059,0.0194596,1.99879,0.0695382,0,-0.0997168,-0.232336,-0.154276,1.08534,1.44442
7.54827,-0.616933,-1.27354,0.719238,-0.123535,0.226918,3.02742,-1.54929,-1.48923,1,1.53021,-1.36322,0.189852,1.99755,0.0990382,0,-0.10027,-0.221686,-0.133513,0.997319,1.54682
7.58044,-0.577226,-1.31622,0.72995,-0.0799358,0.29604,3.04778,-1.54929,-1.48923,1,1.39658,-1.38203,0.333039,1.99755,0.0990382,0,-0.0970317,-0.208627,-0.140336,1.02361,1.63268
7.61629,-0.533735,-1.36978,0.747925,-0.0503424,0.319918,3.05955,-1.42841,-1.48232,1,1.25296,-1.38828,0.438767,1.9958,0.129556,0,-0.141831,-0.192182,-0.192542,0.936292,1.7459
7.64818,-0.493425,-1.40946,0.764343,0.0112916,0.336884,3.08495,-1.36925,-1.47825,1,1.06849,-1.37914,0.544963,1.99472,0.145209,0,-0.18684,-0.191111,-0.233809,0.909581,1.86508
7.68026,-0.455947,-1.44861,0.777954,0.0709227,0.315932,3.10993,-1.31095,-1.47377,1,0.962382,-1.35264,0.540881,1.9935,0.161132,0,-0.188239,-0.182982,-0.242957,0.883724,1.90978
7.71607,-0.419552,-1.48743,0.78418,0.100111,0.298242,3.12074,-1.2535,-1.4689,1,0.923321,-1.32993,0.359659,1.99212,0.17733,0,-0.166529,-0.175325,-0.234077,0.861623,1.88242
7.74803,-0.383858,-1.52591,0.782227,0.159043,0.254557,3.13913,-1.1969,-1.46362,1,0.915108,-1.31466,0.0922718,1.99059,0.193804,0,-0.13107,-0.186851,-0.214706,0.844008,1.8549
7.78003,-0.349606,-1.56333,0.775421,0.213782,0.196585,-3.13296,-1.14114,-1.45796,1,0.897823,-1.29027,-0.136304,1.98888,0.210565,0,-0.118821,-0.198022,-0.20593,0.829499,1.86051
7.81595,-0.310016,-1.60645,0.767487,0.239182,0.162101,-3.13093,-1.03213,-1.44547,1,0.84487,-1.22775,-0.202296,1.98494,0.244957,0,-0.129635,-0.211337,-0.210463,0.775513,1.87338
7.84802,-0.280736,-1.63675,0.764435,0.28717,0.0884624,-3.133,-0.978867,-1.43866,1,0.764791,-1.09265,-0.129787,1.98269,0.262596,0,-0.1726,-0.205149,-0.243744,0.762968,1.82669
7.88007,-0.252895,-1.66255,0.765594,0.323297,0.0149358,-3.14115,-0.926427,-1.43147,1,0.717493,-0.953923,-0.012012,1.98023,0.28054,0,-0.195474,-0.196929,-0.262428,0.749659,1.76594
7.91596,-0.225578,-1.68374,0.770599,0.334217,-0.0211707,3.13625,-0.874805,-1.42392,1,0.695332,-0.800434,0.121495,1.97755,0.298792,0,-0.25539,-0.189674,-0.304146,0.735952,1.69327
7.94789,-0.198019,-1.70113,0.776581,0.342942,-0.0945269,3.12084,-0.774006,-1.40772,1,0.702569,-0.65749,0.208392,1.97153,0.336236,0,-0.265288,-0.200939,-0.311361,0.683936,1.62517
7.97992,-0.170014,-1.71608,0.779724,0.339044,-0.176852,3.10026,-0.724815,-1.39909,1,0.72537,-0.55592,0.171033,1.96816,0.355438,0,-0.266088,-0.203404,-0.308787,0.675879,1.5506
8.01583,-0.134188,-1.73235,0.777191,0.334708,-0.206969,3.0925,-0.676425,-1.3901,1,0.748795,-0.490794,0.0355058,1.96454,0.374965,0,-0.209142,-0.226569,-0.273909,0.678822,1.49292
8.04773,-0.0968852,-1.76162,0.768433,0.318837,-0.277289,3.07471,-0.582033,-1.37109,1,0.791574,-0.412883,-0.129922,1.95647,0.415007,0,-0.185958,-0.238769,-0.252811,0.664455,1.43501
8.07984,-0.0568655,-1.78596,0.761963,0.300468,-0.328498,3.06345,-0.536019,-1.36108,1,0.879682,-0.323255,-0.127095,1.952,0.435532,0,-0.180832,-0.237284,-0.243299,0.683205,1.31977
8.11572,-0.0128779,-1.80509,0.759552,0.293969,-0.346354,3.06046,-0.446335,-1.34006,1,1.012,-0.202616,-0.0292129,1.94214,0.477601,0,-0.13059,-0.231993,-0.226159,0.67967,1.15269
8.14772,0.0357007,-1.81929,0.761475,0.283979,-0.371126,3.05864,-0.402656,-1.32907,1,1.17325,-0.0808172,0.0954806,1.93671,0.499151,0,-0.107229,-0.207548,-0.227126,0.699548,0.963511
8.17969,0.0886739,-1.82895,0.76712,0.278781,-0.37234,3.06491,-0.359751,-1.31775,1,1.33857,0.0338837,0.216957,1.93094,0.521045,0,-0.100102,-0.187287,-0.230689,0.718779,0.79705
8.21569,0.160467,-1.83497,0.778442,0.280786,-0.362845,3.07123,-0.276223,-1.29418,1,1.48783,0.140874,0.307903,1.91827,0.565883,0,-0.0901843,-0.151363,-0.257964,0.729551,0.67876
8.24768,0.221377,-1.83533,0.789551,0.294946,-0.320644,3.09248,-0.195723,-1.26938,1,1.65499,0.271761,0.40979,1.90403,0.612116,0,-0.0828123,-0.123778,-0.280433,0.733866,0.588038
8.27979,0.283784,-1.83275,0.798767,0.310827,-0.270438,3.11554,-0.156594,-1.25653,1,1.7417,0.354518,0.4045,1.89626,0.635757,0,-0.0845711,-0.112756,-0.294657,0.752633,0.516338
8.31634,0.346454,-1.82824,0.802612,0.320418,-0.239231,3.12978,-0.0805589,-1.22996,1,1.78153,0.404236,0.278644,1.87937,0.684079,0,-0.0674059,-0.0978481,-0.293634,0.761073,0.406849
8.34852,0.408902,-1.82242,0.799286,0.340539,-0.17309,-3.1232,-0.00746123,-1.20226,1,1.79274,0.429621,0.0653312,1.86053,0.733766,0,-0.0362218,-0.107166,-0.263069,0.773459,0.318384
8.38045,0.471083,-1.81523,0.789062,0.354529,-0.10571,-3.09184,0.0280003,-1.188,1,1.79772,0.44502,-0.169911,1.85034,0.759113,0,-0.0211681,-0.113927,-0.249942,0.796392,0.360962
8.41646,0.548288,-1.80336,0.76944,0.360282,-0.0722675,-3.07624,0.0967647,-1.15867,1,1.80202,0.474823,-0.370505,1.82829,0.810779,0,-0.00378389,-0.132174,-0.241341,0.820162,0.50083
8.44835,0.595594,-1.79633,0.752563,0.370077,-0.00513288,-3.0454,0.162688,-1.12829,1,1.79429,0.554743,-0.504675,1.80389,0.863695,0,-0.0220726,-0.150931,-0.218099,0.833616,0.591811
8.48022,0.642069,-1.78405,0.738892,0.372876,0.0544534,-3.01745,0.194595,-1.11272,1,1.75447,0.670506,-0.449586,1.79077,0.890595,0,-0.0359757,-0.142429,-0.218721,0.847993,0.501881
8.51622,0.686851,-1.76617,0.72937,0.37353,0.0809859,-3.00476,0.286144,-1.06454,1,1.68931,0.812268,-0.333357,1.74741,0.972916,0,-0.0755295,-0.148181,-0.211899,0.852109,0.37458
8.54859,0.729564,-1.74312,0.723541,0.371732,0.103877,-2.99263,0.343749,-1.03125,1,1.60481,0.954535,-0.206992,1.71499,1.02899,0,-0.128721,-0.156544,-0.219301,0.85559,0.246024
8.58057,0.770342,-1.71552,0.720184,0.360836,0.0951386,-2.99441,0.371538,-1.01426,1,1.52232,1.07934,-0.115694,1.69766,1.05733,0,-0.157843,-0.166841,-0.230525,0.853875,0.211221
8.61648,0.81923,-1.67581,0.716858,0.351427,0.080669,-2.99909,0.450899,-0.961997,1,1.4494,1.1883,-0.0593022,1.64099,1.1433,0,-0.208859,-0.170181,-0.268364,0.851684,0.205549
8.65073,0.857498,-1.64117,0.711365,0.328375,0.0405214,-3.01279,0.500512,-0.926112,1,1.38723,1.28451,-0.0979485,1.59914,1.20114,0,-0.230695,-0.174573,-0.291197,0.849743,0.247889
8.68027,0.895612,-1.60507,0.700317,0.298911,-0.00983031,-3.02946,0.547535,-0.889433,1,1.36006,1.32344,-0.2356,1.55389,1.25914,0,-0.226204,-0.174802,-0.291585,0.850358,0.31179
8.71638,0.933796,-1.56804,0.682312,0.281763,-0.0381738,-3.03832,0.592,-0.852,1,1.34645,1.33833,-0.443094,1.50515,1.31701,0,-0.214401,-0.187071,-0.281414,0.854675,0.471143
8.74825,0.972203,-1.52981,0.658905,0.243017,-0.0988029,-3.05612,0.653985,-0.794511,1,1.33839,1.35065,-0.660187,1.42539,1.40295,0,-0.201655,-0.208384,-0.278232,0.870792,0.667944
8.78226,1.0113,-1.48985,0.63443,0.191762,-0.161124,-3.07311,0.692219,-0.755344,1,1.33831,1.38088,-0.767463,1.36774,1.4592,0,-0.196364,-0.21064,-0.266875,0.880311,0.772011
8.81614,1.06238,-1.43719,0.606995,0.161262,-0.191244,-3.08062,0.745024,-0.695424,1,1.36102,1.42709,-0.739501,1.27469,1.54116,0,-0.177104,-0.215465,-0.251134,0.897431,0.753212
8.84808,1.11102,-1.39242,0.593048,0.0983853,-0.250669,-3.09444,0.792483,-0.634209,1,1.42968,1.48142,-0.616249,1.17402,1.61916,0,-0.177981,-0.22738,-0.241691,0.91758,0.681246
8.88008,1.16311,-1.34672,0.584106,0.0392413,-0.305066,-3.10632,0.807136,-0.613536,1,1.52531,1.51255,-0.463779,1.13887,1.64408,0,-0.158409,-0.236014,-0.239992,0.915007,0.617843
8.91602,1.21953,-1.3008,0.580719,0.0110901,-0.329958,-3.11148,0.860032,-0.529633,1,1.65178,1.5198,-0.284292,0.991008,1.73721,0,-0.0864109,-0.24885,-0.215759,0.948544,0.751468
8.94894,1.28041,-1.25528,0.581696,-0.037853,-0.368617,-3.12,0.89383,-0.465553,1,1.79695,1.50716,-0.109049,0.87351,1.79916,0,-0.0396699,-0.219734,-0.229678,0.9737,0.97463
8.98091,1.34522,-1.21042,0.585144,-0.0633324,-0.377605,-3.12903,0.908581,-0.433865,1,1.93106,1.48045,0.00272739,0.814309,1.82672,0,-0.0201381,-0.210642,-0.233044,0.982754,1.16921
9.01674,1.43125,-1.15564,0.592163,-0.0642835,-0.368827,-3.13438,0.939328,-0.356929,1,2.04832,1.4486,0.0685599,0.668555,1.88495,0,-0.00481698,-0.191973,-0.257206,1.02286,1.44874
9.04867,1.50368,-1.11284,0.599854,-0.0449699,-0.32699,3.13563,0.960327,-0.290851,1,2.1857,1.40073,0.155217,0.542221,1.9251,0,-0.00618764,-0.158333,-0.272286,1.06349,1.73208
9.08062,1.57797,-1.07061,0.606506,-0.00461353,-0.262335,3.12194,0.971777,-0.246502,1,2.27189,1.36956,0.194065,0.457431,1.94699,0,-0.00819078,-0.141732,-0.275494,1.09611,1.91399
9.1166,1.65269,-1.02851,0.607147,0.0252449,-0.218264,3.11499,0.988718,-0.157243,1,2.30524,1.35317,0.0845047,0.288188,1.97913,0,0.039362,-0.141408,-0.271319,1.16375,2.11364
9.14878,1.72732,-0.98637,0.599304,0.0730299,-0.149791,3.10666,0.996352,-0.089953,1,2.3087,1.34766,-0.155318,0.16292,1.99335,0,0.0752549,-0.144939,-0.244061,1.22411,2.2462
9.18039,1.80177,-0.944177,0.583191,0.13074,-0.0626196,3.1016,0.999094,-0.044994,1,2.30591,1.34395,-0.424816,0.0807663,1.99837,0,0.0956811,-0.151298,-0.228767,1.27536,2.35796
9.21635,1.89427,-0.891029,0.555664,0.149855,-0.0300965,3.10126,1,0,1,2.29922,1.34181,-0.652019,0,0,0,0.123896,-0.153424,-0.217385,1.33832,2.74081
9.24831,1.95348,-0.834109,0.533478,0.18951,0.0547902,3.10414,1,0,1,2.27725,1.3606,-0.758086,0,0,0,0.122668,-0.160336,-0.194961,1.35,2.75895
9.28021,2.01116,-0.776017,0.515594,0.212155,0.143102,3.11312,1,0,1,2.21516,1.41626,-0.657143,0,0,0,0.116383,-0.158323,-0.197774,1.36356,2.71008
9.31623,2.06603,-0.716106,0.50296,0.220551,0.187647,3.11902,1,0,1,2.11743,1.49583,-0.497797,0,0,0,0.0896432,-0.158599,-0.224038,1.37706,2.63986
9.34818,2.12872,-0.638395,0.494415,0.230039,0.278141,3.13327,1,0,1,1.97888,1.58564,-0.328579,0,0,0,0.0728223,-0.162576,-0.224658,1.39182,2.55698
9.38051,2.16245,-0.590434,0.492584,0.21353,0.367772,-3.13306,1,0,1,1.76258,1.69003,-0.141009,0,0,0,0.0581878,-0.169226,-0.23939,1.39906,2.44598
9.41644,2.21052,-0.508592,0.495117,0.195686,0.412086,-3.12471,1,0,1,1.61197,1.74483,-0.0413195,0,0,0,0.0214349,-0.188597,-0.271981,1.40675,2.37583
9.44924,2.2405,-0.441838,0.502045,0.149416,0.496854,-3.11086,1,0,1,1.30671,1.82574,0.139238,0,0,0,-0.017421,-0.209659,-0.277082,1.40784,2.2495
9.4812,2.2626,-0.374805,0.512268,0.0921516,0.567949,-3.10338,1,0,1,1.04127,1.86782,0.261087,0,0,0,-0.0267144,-0.216337,-0.273963,1.40447,2.15434
9.51702,2.27686,-0.308246,0.524597,0.0537819,0.59747,-3.10297,1,0,1,0.778034,1.88211,0.344323,0,0,0,-0.0630232,-0.21452,-0.261338,1.39693,2.06549
9.54888,2.28346,-0.242828,0.5383,-0.0051078,0.61778,-3.10691,1,0,1,0.512664,1.87382,0.399685,0,0,0,-0.0958092,-0.204946,-0.250567,1.38542,1.98338
9.58077,2.28284,-0.179131,0.552917,-0.0639046,0.602131,-3.11295,1,0,1,0.267854,1.84541,0.429282,0,0,0,-0.107896,-0.200567,-0.252797,1.37028,1.91352
9.61669,2.27123,-0.103009,0.574127,-0.0895894,0.583261,-3.11542,1,0,1,0.0184606,1.79645,0.471395,0,0,0,-0.130401,-0.19877,-0.254762,1.34462,1.85736
9.64858,2.28926,-0.0470393,0.586884,-0.137385,0.531047,-3.11817,1,0,1,-0.29812,1.70418,0.564089,0,0,0,-0.150766,-0.195375,-0.270121,1.35464,1.81969
9.68057,2.30033,0.00645889,0.600067,-0.179656,0.463799,-3.11844,1,0,1,-0.469291,1.62471,0.596393,0,0,0,-0.153507,-0.190847,-0.274346,1.36045,1.79321
9.71644,2.30679,0.0579661,0.610748,-0.198769,0.426605,-3.11648,1,0,1,-0.575252,1.5565,0.547598,0,0,0,-0.147118,-0.196384,-0.273366,1.36476,1.74742
9.74845,2.31009,0.107921,0.616943,-0.235389,0.347803,-3.10894,1,0,1,-0.624972,1.50319,0.412151,0,0,0,-0.139306,-0.210955,-0.254583,1.3692,1.6793
9.78044,2.31056,0.156096,0.619049,-0.266634,0.267954,-3.09759,1,0,1,-0.65847,1.45657,0.25238,0,0,0,-0.127191,-0.213094,-0.241688,1.3737,1.61829
9.8188,2.30715,0.212569,0.619354,-0.280271,0.228478,-3.09077,1,0,1,-0.694281,1.38949,0.141856,0,0,0,-0.0990899,-0.228913,-0.214805,1.37794,1.55975
9.84839,2.30148,0.253812,0.620178,-0.30491,0.152395,-3.07509,1,0,1,-0.746549,1.26499,0.110096,0,0,0,-0.0790219,-0.243227,-0.203699,1.37932,1.47297
9.88028,2.29378,0.290983,0.623291,-0.313452,0.086366,-3.0597,1,0,1,-0.772472,1.14656,0.14524,0,0,0,-0.0586556,-0.251421,-0.199702,1.37857,1.39011
9.91638,2.28223,0.330792,0.63266,-0.311247,0.0596886,-3.05309,1,0,1,-0.784106,1.00871,0.232846,0,0,0,-0.0195309,-0.274494,-0.192788,1.37422,1.29866
9.94821,2.27465,0.351049,0.641632,-0.299823,0.0226565,-3.0447,1,0,1,-0.773076,0.81804,0.395534,0,0,0,-0.0107319,-0.272223,-0.214192,1.36981,1.19301
9.98017,2.26397,0.374106,0.656891,-0.281512,0.01521,-3.04522,1,0,1,-0.760622,0.70981,0.484876,0,0,0,-0.00567937,-0.257618,-0.225391,1.36209,1.14782
10.0178,2.24973,0.396617,0.681915,-0.271297,0.0231737,-3.04861,1,0,1,-0.743226,0.57259,0.595552,0,0,0,0.0039742,-0.233404,-0.251065,1.34919,1.11127
10.0486,2.23618,0.427498,0.706696,-0.255432,0.0575679,-3.06102,1,0,1,-0.727373,0.400305,0.768547,0,0,0,0.0232981,-0.221729,-0.258232,1.34049,1.13136
10.0805,2.22113,0.453216,0.736359,-0.249387,0.11296,-3.08067,1,0,1,-0.734088,0.285445,0.912132,0,0,0,0.0272716,-0.222594,-0.26297,1.32894,1.20513
10.1165,2.20382,0.473904,0.770905,-0.250522,0.152643,-3.0937,1,0,1,-0.763462,0.169671,1.05984,0,0,0,0.0197088,-0.234548,-0.257234,1.31387,1.31716
10.1485,2.18344,0.489649,0.810028,-0.256003,0.214344,-3.11388,1,0,1,-0.821047,0.0551853,1.20272,0,0,0,-0.00689856,-0.255537,-0.227433,1.29475,1.45729
10.1811,2.15257,0.502679,0.864716,-0.263784,0.276392,-3.1354,1,0,1,-0.903986,-0.0615219,1.33999,0,0,0,-0.0270515,-0.261937,-0.205982,1.26468,1.61757
10.2165,2.12338,0.508213,0.911926,-0.26566,0.299928,3.1391,1,0,1,-1.03196,-0.197508,1.48239,0,0,0,-0.0875408,-0.247535,-0.199248,1.23613,1.81698
10.2485,2.09069,0.510165,0.959625,-0.261407,0.321076,3.12977,1,0,1,-1.13246,-0.292696,1.5414,0,0,0,-0.147323,-0.226605,-0.216332,1.20479,1.93496
10.2805,2.05603,0.509925,1.00259,-0.251316,0.31433,3.12941,1,0,1,-1.2012,-0.355086,1.48206,0,0,0,-0.156341,-0.214594,-0.224832,1.1727,1.94048
10.3168,2.02049,0.508601,1.03714,-0.245745,0.306538,3.13066,1,0,1,-1.22195,-0.371655,1.25258,0,0,0,-0.184756,-0.204083,-0.245129,1.14082,1.78892
10.3487,1.98436,0.506472,1.06247,-0.233744,0.287621,3.13408,1,0,1,-1.22808,-0.370473,0.965394,0,0,0,-0.20198,-0.213981,-0.266256,1.10878,1.60543
10.3807,1.94775,0.503621,1.0784,-0.221594,0.264922,3.13837,1,0,1,-1.22949,-0.369093,0.668937,0,0,0,-0.206678,-0.220001,-0.272523,1.07611,1.44753
10.4166,1.90146,0.499069,1.08514,-0.215501,0.251876,3.14109,1,0,1,-1.23087,-0.366291,0.373899,0,0,0,-0.221005,-0.234257,-0.284236,1.0339,1.33754
10.4484,1.86907,0.501375,1.0795,-0.202931,0.22287,-3.13655,1,0,1,-1.22999,-0.363229,0.00335219,0,0,0,-0.219837,-0.247126,-0.302148,1.00647,1.28251
10.4804,1.83602,0.502698,1.06461,-0.190593,0.188924,-3.13051,1,0,1,-1.22573,-0.355038,-0.292356,0,0,0,-0.213433,-0.249098,-0.306759,0.977659,1.30918
10.5164,1.80243,0.503025,1.04062,-0.184398,0.169555,-3.12709,1,0,1,-1.22301,-0.35072,-0.583098,0,0,0,-0.190493,-0.252561,-0.311849,0.947932,1.39956
10.5483,1.76841,0.502427,1.00797,-0.170637,0.124572,-3.11958,1,0,1,-1.21897,-0.3472,-0.866551,0,0,0,-0.168976,-0.262191,-0.313755,0.918119,1.53536
10.5803,1.73403,0.500889,0.967346,-0.154925,0.0702944,-3.11068,1,0,1,-1.21395,-0.345468,-1.13047,0,0,0,-0.160877,-0.280757,-0.306067,0.889247,1.6944
10.6163,1.69081,0.497528,0.90744,-0.146403,0.0395067,-3.10574,1,0,1,-1.20848,-0.348606,-1.36702,0,0,0,-0.136551,-0.310637,-0.278985,0.856343,1.85761
10.6482,1.65639,0.493554,0.855377,-0.123047,-0.0282,-3.09479,1,0,1,-1.19383,-0.358511,-1.57924,0,0,0,-0.115583,-0.323165,-0.272341,0.833882,2.01191
10.6803,1.62277,0.488242,0.803314,-0.0887003,-0.102769,-3.08288,1,0,1,-1.16843,-0.375406,-1.63533,0,0,0,-0.10219,-0.328567,-0.25578,0.815422,2.04462
10.7162,1.5909,0.481712,0.753815,-0.0688753,-0.140542,-3.0771,1,0,1,-1.11865,-0.39559,-1.58765,0,0,0,-0.0703276,-0.332037,-0.225795,0.801134,1.98204
10.7482,1.56166,0.474351,0.708191,-0.0267818,-0.214673,-3.06654,1,0,1,-1.03961,-0.407823,-1.48578,0,0,0,-0.0541293,-0.32703,-0.234541,0.790967,1.85867
10.7803,1.5358,0.466616,0.666473,0.0129405,-0.276812,-3.05769,1,0,1,-0.934653,-0.407469,-1.3571,0,0,0,-0.044186,-0.320952,-0.229154,0.784893,1.69744
10.8162,1.509,0.457077,0.619446,0.0291649,-0.3019,-3.05367,1,0,1,-0.812659,-0.395716,-1.24516,0,0,0,-0.0119367,-0.310329,-0.216973,0.78283,1.53865
10.8482,1.48296,0.446376,0.590546,0.0519722,-0.340235,-3.04582,1,0,1,-0.636696,-0.36322,-1.1003,0,0,0,-0.0153071,-0.306581,-0.237873,0.774697,1.32211
10.8801,1.46175,0.43661,0.563538,0.0595668,-0.351928,-3.03649,1,0,1,-0.501042,-0.331659,-1.01411,0,0,0,-0.0145789,-0.299217,-0.236112,0.770937,1.17875
10.9162,1.4456,0.427979,0.539276,0.0575235,-0.345156,-3.02965,1,0,1,-0.371208,-0.29607,-0.940775,0,0,0,-0.0166506,-0.287277,-0.230658,0.770711,1.05381
10.9482,1.4348,0.420641,0.519379,0.0492064,-0.324136,-3.01869,1,0,1,-0.220294,-0.25216,-0.809138,0,0,0,-0.0312406,-0.274472,-0.237728,0.77265,0.875682
10.9801,1.42883,0.414443,0.504028,0.033183,-0.283728,-3.00565,1,0,1,-0.0746637,-0.209092,-0.656959,0,0,0,-0.030186,-0.268466,-0.231435,0.775659,0.693461
11.0163,1.42734,0.407964,0.491638,0.0222733,-0.257046,-2.99868,1,0,1,0.0547088,-0.171795,-0.501409,0,0,0,-0.041392,-0.262098,-0.228757,0.779412,0.532839
11.0481,1.4301,0.403452,0.486786,-0.00128444,-0.196965,-2.98543,1,0,1,0.193002,-0.139379,-0.304236,0,0,0,-0.0530021,-0.248919,-0.215412,0.781761,0.38631
11.08,1.43551,0.399265,0.486084,-0.0203434,-0.136729,-2.97387,1,0,1,0.277779,-0.120539,-0.163943,0,0,0,-0.0638292,-0.245036,-0.214213,0.783065,0.344337
11.1162,1.44292,0.395133,0.489502,-0.0270451,-0.10892,-2.9685,1,0,1,0.338369,-0.112211,-0.0277836,0,0,0,-0.0668508,-0.238766,-0.199312,0.782889,0.35757
11.1482,1.45183,0.390817,0.497162,-0.0367948,-0.0618663,-2.9587,1,0,1,0.382167,-0.112608,0.109851,0,0,0,-0.0598209,-0.229767,-0.166113,0.780855,0.413278
11.1803,1.4619,0.386305,0.508911,-0.0365462,-0.0397568,-2.94905,1,0,1,0.414196,-0.117597,0.248639,0,0,0,-0.0690396,-0.234379,-0.165113,0.777016,0.497201
11.2163,1.47574,0.380279,0.530396,-0.0321422,-0.0377629,-2.94369,1,0,1,0.436407,-0.122634,0.387631,0,0,0,-0.0723239,-0.233919,-0.168196,0.769069,0.596447
11.2483,1.46946,0.371422,0.549011,-0.0212939,-0.0411201,-2.93359,1,0,1,0.45583,-0.132826,0.596265,0,0,0,-0.0904784,-0.235587,-0.167583,0.74949,0.762205
11.2803,1.46534,0.362772,0.572266,-0.00739362,-0.0535792,-2.92258,1,0,1,0.460525,-0.138863,0.745741,0,0,0,-0.0981149,-0.232016,-0.170702,0.728764,0.88741
11.3162,1.46329,0.354488,0.599243,5.22122e-05,-0.0629853,-2.9177,1,0,1,0.470434,-0.13902,0.866489,0,0,0,-0.111938,-0.223872,-0.184092,0.707747,0.99571
11.3485,1.46332,0.346689,0.628937,0.0135207,-0.0841527,-2.90933,1,0,1,0.48473,-0.133637,0.96067,0,0,0,-0.135693,-0.219801,-0.207296,0.687419,1.0843
11.3802,1.46532,0.339519,0.659912,0.0279713,-0.112848,-2.90104,1,0,1,0.503349,-0.124199,1.0187,0,0,0,-0.148569,-0.21638,-0.211007,0.668922,1.14304
11.4163,1.47055,0.33157,0.69812,0.0349464,-0.128652,-2.89757,1,0,1,0.523556,-0.108383,1.02688,0,0,0,-0.161304,-0.206891,-0.22271,0.649987,1.15773
11.4482,1.47691,0.326031,0.726868,0.04487,-0.162967,-2.89167,1,0,1,0.552666,-0.0870907,0.975772,0,0,0,-0.162791,-0.201933,-0.237175,0.639013,1.12479
11.4802,1.4852,0.321215,0.753204,0.0471781,-0.201392,-2.88676,1,0,1,0.580851,-0.0702073,0.906174,0,0,0,-0.166483,-0.200745,-0.236634,0.632065,1.07864
11.5162,1.49842,0.316274,0.782349,0.0460987,-0.218073,-2.88511,1,0,1,0.610476,-0.0526979,0.819496,0,0,0,-0.151637,-0.210564,-0.230067,0.629147,1.02325
11.5481,1.50803,0.313947,0.798218,0.0400891,-0.245143,-2.8828,1,0,1,0.658982,-0.0269259,0.713077,0,0,0,-0.132611,-0.224223,-0.234289,0.630376,0.971319
11.5801,1.52306,0.311686,0.818695,0.0315265,-0.264407,-2.8809,1,0,1,0.694651,-0.0098816,0.677042,0,0,0,-0.130553,-0.223583,-0.228653,0.635306,0.970064
11.6162,1.54616,0.310583,0.845245,0.0296446,-0.271526,-2.88029,1,0,1,0.756545,0.0205977,0.671092,0,0,0,-0.109223,-0.217309,-0.22029,0.647076,1.01151
11.6482,1.55915,0.308588,0.870422,0.0301567,-0.283413,-2.88005,1,0,1,0.859384,0.0656121,0.719356,0,0,0,-0.11834,-0.208023,-0.232027,0.651661,1.12264
11.6803,1.57625,0.308154,0.897888,0.0350595,-0.279866,-2.87973,1,0,1,0.945357,0.103171,0.793019,0,0,0,-0.125484,-0.197148,-0.237043,0.661401,1.23823
11.7165,1.59686,0.30912,0.926422,0.0387476,-0.270874,-2.8796,1,0,1,1.02293,0.140324,0.855899,0,0,0,-0.126787,-0.178851,-0.253996,0.676171,1.34114
11.7484,1.62021,0.311222,0.953857,0.044345,-0.243112,-2.87852,1,0,1,1.08104,0.171475,0.859313,0,0,0,-0.12925,-0.168401,-0.273001,0.695449,1.39157
11.7808,1.64563,0.314116,0.978027,0.0463806,-0.207899,-2.87667,1,0,1,1.1204,0.192414,0.791669,0,0,0,-0.130563,-0.169059,-0.279051,0.718324,1.3853
11.8164,1.67941,0.318503,1.00046,0.0464499,-0.188245,-2.87551,1,0,1,1.14331,0.20611,0.658833,0,0,0,-0.118636,-0.175238,-0.284221,0.750364,1.33555
11.8484,1.70756,0.322385,1.01035,0.0456972,-0.14611,-2.87309,1,0,1,1.15313,0.213612,0.406507,0,0,0,-0.104877,-0.18015,-0.269885,0.777616,1.2412
11.8803,1.73648,0.326579,1.01242,0.0434695,-0.102872,-2.87018,1,0,1,1.1528,0.216315,0.168191,0,0,0,-0.0952213,-0.180697,-0.264896,0.805732,1.18492
11.9163,1.76602,0.331055,1.00699,0.0420758,-0.0812052,-2.86868,1,0,1,1.15003,0.22039,-0.0726951,0,0,0,-0.0789084,-0.183715,-0.25838,0.834528,1.17321
11.9483,1.79614,0.335784,0.994843,0.0379343,-0.0334028,-2.86509,1,0,1,1.14574,0.222947,-0.295754,0,0,0,-0.0682212,-0.19429,-0.228562,0.864069,1.20412
11.9803,1.82673,0.340837,0.977203,0.0339431,0.00275619,-2.86201,1,0,1,1.1426,0.226572,-0.489115,0,0,0,-0.0641908,-0.201848,-0.221332,0.89452,1.26337
12.0163,1.86511,0.34757,0.950439,0.0315186,0.0212841,-2.86014,1,0,1,1.13318,0.23136,-0.633564,0,0,0,-0.0586381,-0.203366,-0.213675,0.933635,1.31873
12.0498,1.89207,0.354592,0.934479,0.0262205,0.054369,-2.85617,1,0,1,1.10816,0.236361,-0.709534,0,0,0,-0.0609043,-0.212422,-0.184848,0.962193,1.33691
12.0812,1.91867,0.361677,0.9198,0.0216185,0.0734548,-2.85228,1,0,1,1.07586,0.237221,-0.674719,0,0,0,-0.0629414,-0.224487,-0.185486,0.990556,1.29189
12.1172,1.94442,0.368711,0.907745,0.0206862,0.0788732,-2.85027,1,0,1,1.03231,0.23929,-0.594387,0,0,0,-0.0789285,-0.225593,-0.200873,1.01803,1.215
12.1492,1.96901,0.375573,0.899445,0.0188828,0.0909818,-2.84553,1,0,1,0.977464,0.233678,-0.475633,0,0,0,-0.0930425,-0.236318,-0.193708,1.04411,1.11188
12.182,1.99242,0.382277,0.895355,0.0165292,0.0967189,-2.84019,1,0,1,0.92046,0.227531,-0.329467,0,0,0,-0.093754,-0.24468,-0.19516,1.06863,1.00378
