timestamp,drone_x,drone_y,drone_z,drone_roll,drone_pitch,drone_yaw,target_x,target_y,target_z,drone_vx,drone_vy,drone_vz,target_vx,target_vy,target_vz,distance_error,velocity_error
0.0203633,-0.0453931,-0.0588754,1.18088,-0.00335371,0.00358355,-0.000147539,1,0,1.2,0.0298209,0.0569215,0.0143207,0,0,0,1.04722,0.0658364
0.0524451,-0.0449136,-0.0576165,1.18097,-0.00331622,0.0037417,3.67858e-05,1,0,1.2,0.0308639,0.0586592,0.0159973,0,0,0,1.04667,0.0681865
0.0882595,-0.0467383,-0.0584149,1.1813,-0.00325387,0.00393489,-0.000140766,1,0,1.2,0.0331873,0.0581359,0.0206807,0,0,0,1.04853,0.0700633
0.120254,-0.0483946,-0.0592582,1.18237,-0.00337657,0.00372608,4.39485e-05,1,0,1.2,0.0321336,0.0560913,0.0455011,0,0,0,1.05022,0.0790516
0.152342,-0.0497717,-0.0598086,1.18417,-0.00330948,0.00354604,-0.000102047,1,0,1.2,0.0329281,0.0558251,0.0687384,0,0,0,1.05159,0.0944758
0.188174,-0.0508743,-0.0601316,1.18695,-0.0027477,0.00341486,-0.00060242,1,0,1.2,0.0336812,0.0563361,0.088134,0,0,0,1.05267,0.10989
0.22012,-0.051789,-0.0602398,1.19107,-0.00291349,0.00351907,-0.000518308,1,0,1.2,0.0336395,0.0556336,0.12517,0,0,0,1.05355,0.141047
0.252087,-0.0525027,-0.0602099,1.19653,-0.00285884,0.00350572,-0.000410886,1,0,1.2,0.0333239,0.0554398,0.165087,0,0,0,1.05423,0.177307
0.289188,-0.053044,-0.059898,1.2052,-0.00327672,0.00345226,-0.000919318,1,0,1.2,0.0343601,0.0542603,0.205582,0,0,0,1.05476,0.215381
0.320792,-0.0532569,-0.0594345,1.21359,-0.00334591,0.00324279,-0.00115031,1,0,1.2,0.0364749,0.0561065,0.255048,0,0,0,1.05502,0.263682
0.352765,-0.0532852,-0.0587751,1.22324,-0.00308032,0.00337384,-0.0014532,1,0,1.2,0.0372743,0.0556226,0.294367,0,0,0,1.05518,0.301886
0.388671,-0.0531826,-0.057944,1.23416,-0.00307012,0.00363686,-0.00191948,1,0,1.2,0.0389828,0.0563781,0.333212,0,0,0,1.05533,0.340189
0.420572,-0.0529748,-0.0569353,1.24634,-0.0029293,0.00360921,-0.00223056,1,0,1.2,0.0373287,0.0573647,0.372287,0,0,0,1.05553,0.378526
0.452513,-0.0526252,-0.0558397,1.2597,-0.00294186,0.0037653,-0.00221497,1,0,1.2,0.0385731,0.0582399,0.409778,0,0,0,1.05579,0.41569
0.488571,-0.0537175,-0.0561651,1.27621,-0.00298303,0.00359415,-0.00232328,1,0,1.2,0.0388059,0.0563903,0.446028,0,0,0,1.05796,0.45125
0.520491,-0.0547189,-0.0566015,1.29062,-0.00294875,0.00368714,-0.00235319,1,0,1.2,0.0387104,0.0564254,0.491054,0,0,0,1.06012,0.495799
0.552482,-0.0554789,-0.0568236,1.30634,-0.00286032,0.00366431,-0.00231119,1,0,1.2,0.0375087,0.0551693,0.527036,0,0,0,1.06234,0.531241
0.588387,-0.0560257,-0.0568811,1.32336,-0.00302481,0.0038864,-0.00254549,1,0,1.2,0.0385915,0.0539026,0.562329,0,0,0,1.06473,0.566223
0.620598,-0.0563987,-0.0568101,1.34161,-0.00307198,0.00356791,-0.00266386,1,0,1.2,0.0388483,0.0510904,0.597095,0,0,0,1.06736,0.600535
0.654027,-0.0566228,-0.0565941,1.36084,-0.00305811,0.00364174,-0.00263588,1,0,1.2,0.0378518,0.0504484,0.62982,0,0,0,1.07029,0.63297
0.689925,-0.0566098,-0.0561586,1.38248,-0.00100618,0.00677922,-0.0023569,1,0,1.2,0.0383262,0.0493317,0.635048,0,0,0,1.07372,0.638113
0.721831,-0.0562899,-0.0556454,1.39517,0.00106992,0.0154032,-0.00249291,1,0,1.2,0.0426405,0.0489988,0.493894,0,0,0,1.07561,0.498147
0.753632,-0.0556027,-0.0550697,1.40451,0.00451003,0.0225169,-0.00254665,1,0,1.2,0.0486596,0.0475037,0.362528,0,0,0,1.07664,0.368851
0.789501,-0.0545782,-0.0544901,1.41095,0.0170566,0.0401076,-0.00254438,1,0,1.2,0.0564609,0.0445166,0.269456,0,0,0,1.07685,0.278884
0.822132,-0.0531801,-0.0539391,1.41495,0.0319012,0.0569373,-0.00235573,1,0,1.2,0.0627398,0.0414835,0.178802,0,0,0,1.07624,0.193978
0.854055,-0.0512837,-0.0535217,1.41714,0.037125,0.0614251,-0.0025756,1,0,1.2,0.0740974,0.0358907,0.112914,0,0,0,1.07481,0.139743
0.889812,-0.0503835,-0.0545635,1.41833,0.0465875,0.0675999,-0.0028078,1,0,1.2,0.0877528,0.0277243,0.053789,0,0,0,1.07422,0.106595
0.921638,-0.0495095,-0.0557114,1.41565,0.0495445,0.0656396,-0.00357238,1,0,1.2,0.100641,0.0168687,-0.0500087,0,0,0,1.07288,0.11364
0.953687,-0.0480556,-0.0569237,1.40948,0.0490436,0.0631177,-0.00414335,1,0,1.2,0.108082,0.00993733,-0.171443,0,0,0,1.0703,0.202911
0.989364,-0.0460353,-0.0582867,1.40073,0.0434273,0.056077,-0.00524029,1,0,1.2,0.119883,0.00133983,-0.258374,0,0,0,1.06671,0.284835
1.0214,-0.0434896,-0.0598148,1.38922,0.0353788,0.0433131,-0.00598786,1,0,1.2,0.129883,-0.00941812,-0.33823,0,0,0,1.06219,0.362433
1.05328,-0.040508,-0.0614181,1.37482,0.032209,0.0379212,-0.00634262,1,0,1.2,0.139301,-0.0182543,-0.422564,0,0,0,1.05688,0.445307
1.08906,-0.0363385,-0.0634492,1.35175,0.0238848,0.023917,-0.00719658,1,0,1.2,0.146675,-0.0235987,-0.523288,0,0,0,1.04931,0.543967
1.12097,-0.032781,-0.0651076,1.32907,0.0159585,0.00965608,-0.00734206,1,0,1.2,0.149806,-0.0298773,-0.668397,0,0,0,1.04285,0.68563
1.1529,-0.029048,-0.0668381,1.30328,0.0127803,0.00322148,-0.0071942,1,0,1.2,0.151606,-0.0344096,-0.778584,0,0,0,1.03638,0.793953
1.18883,-0.0251987,-0.0686227,1.27631,0.0077932,-0.00610445,-0.00633174,1,0,1.2,0.152083,-0.0392588,-0.853215,0,0,0,1.03032,0.867552
1.22072,-0.0213559,-0.0704081,1.25064,0.00517736,-0.0110817,-0.004233,1,0,1.2,0.151056,-0.0433224,-0.846732,0,0,0,1.02503,0.861191
1.25266,-0.0175857,-0.0721597,1.22739,0.00395896,-0.0129881,-0.00306988,1,0,1.2,0.144883,-0.0441462,-0.78051,0,0,0,1.02051,0.79507
1.28954,-0.0153629,-0.0744832,1.2066,0.00236668,-0.0138274,4.78706e-05,1,0,1.2,0.139466,-0.046343,-0.695055,0,0,0,1.01811,0.710422
1.32169,-0.0139798,-0.0762835,1.19476,0.0019072,-0.0119638,0.00376502,1,0,1.2,0.133592,-0.0455099,-0.55285,0,0,0,1.01686,0.57058
1.35352,-0.0125279,-0.0780209,1.18643,0.00226209,-0.0106318,0.00590279,1,0,1.2,0.125775,-0.0455246,-0.428058,0,0,0,1.01562,0.44847
1.38937,-0.0109785,-0.0797176,1.18124,0.00387062,-0.00619986,0.0112344,1,0,1.2,0.121357,-0.0451233,-0.308064,0,0,0,1.01429,0.334166
1.42126,-0.00934808,-0.0813618,1.17859,0.00501137,-0.00149075,0.0158939,1,0,1.2,0.115872,-0.0462361,-0.211704,0,0,0,1.01285,0.245729
1.45321,-0.00758702,-0.0829499,1.17776,0.00544545,0.00127067,0.018458,1,0,1.2,0.113216,-0.0458432,-0.13505,0,0,0,1.01124,0.182093
1.4891,-0.00516945,-0.0849049,1.17807,0.0054213,0.00665598,0.0242816,1,0,1.2,0.110085,-0.0447758,-0.0794868,0,0,0,1.00899,0.142975
1.52101,-0.00302025,-0.086429,1.17828,0.00552542,0.0110187,0.0313168,1,0,1.2,0.110833,-0.0470479,-0.0565943,0,0,0,1.00697,0.133043
1.55295,-0.000654399,-0.0879411,1.17819,0.00549906,0.0120961,0.0338897,1,0,1.2,0.112451,-0.0478935,-0.0585792,0,0,0,1.00475,0.135538
1.58914,0.00187426,-0.0894551,1.17764,0.00517535,0.012451,0.0410892,1,0,1.2,0.113825,-0.0490371,-0.0647805,0,0,0,1.00238,0.139847
1.62105,0.00455342,-0.0910016,1.17627,0.00524358,0.0100357,0.0498154,1,0,1.2,0.114271,-0.0499429,-0.0789471,0,0,0,0.999879,0.147597
1.65305,0.00734708,-0.0925633,1.17386,0.00538762,0.00868629,0.0531235,1,0,1.2,0.115501,-0.051488,-0.103667,0,0,0,0.997302,0.163519
1.68959,0.00907098,-0.0960308,1.16876,0.0057094,0.00550267,0.0615404,1,0,1.2,0.114114,-0.0527823,-0.132723,0,0,0,0.996061,0.182821
1.72135,0.0103321,-0.0990062,1.16382,0.00604782,0.0023061,0.0703525,1,0,1.2,0.112423,-0.0529299,-0.159836,0,0,0,0.995266,0.202455
1.75322,0.0118184,-0.101904,1.15817,0.0060213,0.00113201,0.0747686,1,0,1.2,0.111481,-0.0568565,-0.178633,0,0,0,0.994302,0.218106
1.78912,0.0134707,-0.104692,1.15216,0.00603187,-0.000793197,0.0840465,1,0,1.2,0.111524,-0.0575962,-0.198122,0,0,0,0.993222,0.234536
1.8213,0.0152305,-0.10736,1.14612,0.00563394,-0.00178279,0.093077,1,0,1.2,0.108374,-0.0581539,-0.20226,0,0,0,0.992069,0.236719
1.85311,0.0171081,-0.109929,1.14029,0.00541967,-0.00203308,0.0976233,1,0,1.2,0.10643,-0.0585123,-0.197009,0,0,0,0.990821,0.231439
1.88897,0.0196093,-0.113026,1.13367,0.00599077,-0.00205207,0.106509,1,0,1.2,0.103914,-0.0580001,-0.186997,0,0,0,0.989111,0.221653
1.92098,0.0217398,-0.115454,1.12918,0.0062151,-0.00160026,0.115381,1,0,1.2,0.102923,-0.0594465,-0.158543,0,0,0,0.987592,0.198149
1.95286,0.0239932,-0.11788,1.12549,0.00653257,-0.00141953,0.119653,1,0,1.2,0.102704,-0.0606086,-0.133967,0,0,0,0.985919,0.179356
1.98882,0.026339,-0.120253,1.12253,0.00709314,-0.00105035,0.128211,1,0,1.2,0.102454,-0.0617754,-0.108037,0,0,0,0.984113,0.161199
2.02073,0.0287673,-0.122638,1.12021,0.00732542,-0.000651604,0.136441,1,0,1.2,0.101055,-0.0626874,-0.0862826,0,0,0,0.982191,0.146924
2.0527,0.03127,-0.12505,1.11841,0.00766797,-0.000376997,0.140625,1,0,1.2,0.100424,-0.0660911,-0.0665912,0,0,0,0.98017,0.137432
2.09021,0.0327679,-0.129436,1.11545,0.00838399,-0.000235451,0.148825,1,0,1.2,0.0987631,-0.0679723,-0.0540057,0,0,0,0.97951,0.131495
2.12204,0.0338139,-0.133101,1.1131,0.00867273,-0.000684758,0.156262,1,0,1.2,0.09548,-0.0712582,-0.0457036,0,0,0,0.979175,0.127605
2.15392,0.0349987,-0.136645,1.11072,0.00883283,-0.000689315,0.159873,1,0,1.2,0.0936458,-0.0724974,-0.0463501,0,0,0,0.978709,0.127176
2.18975,0.0363159,-0.140107,1.10815,0.0086776,-0.00115437,0.166763,1,0,1.2,0.0916056,-0.0736563,-0.0523437,0,0,0,0.978137,0.128673
2.22204,0.0377501,-0.143492,1.10538,0.00898224,-0.00137643,0.17351,1,0,1.2,0.0905531,-0.0759199,-0.0611689,0,0,0,0.977481,0.133061
2.25372,0.0392719,-0.146807,1.10254,0.00897206,-0.001362,0.176846,1,0,1.2,0.0869735,-0.0777816,-0.0656887,0,0,0,0.976755,0.133901
2.28953,0.0412827,-0.15089,1.099,0.00832976,-0.00149351,0.183141,1,0,1.2,0.0857458,-0.0791403,-0.069809,0,0,0,0.97576,0.135974
2.3214,0.0430027,-0.154117,1.09653,0.00803743,-0.000764725,0.189364,1,0,1.2,0.0837546,-0.0812525,-0.0644816,0,0,0,0.974835,0.133322
2.35332,0.0448708,-0.157348,1.09451,0.00812096,-0.000638145,0.191653,1,0,1.2,0.0837968,-0.0830208,-0.0529606,0,0,0,0.973734,0.129303
2.38928,0.0468505,-0.160593,1.09302,0.00776153,-0.000222656,0.197371,1,0,1.2,0.0847291,-0.0870784,-0.0402482,0,0,0,0.972486,0.127991
2.42116,0.0488725,-0.163784,1.09198,0.00788344,0.000205656,0.201588,1,0,1.2,0.0834236,-0.0880435,-0.0249666,0,0,0,0.971152,0.123832
2.45331,0.0509646,-0.166951,1.09149,0.00772808,0.000388519,0.204004,1,0,1.2,0.0827215,-0.0883601,-0.00953693,0,0,0,0.969698,0.121414
2.48933,0.0512285,-0.171005,1.09094,0.00725334,0.000246474,0.208318,1,0,1.2,0.0814103,-0.0899045,0.00408108,0,0,0,0.970208,0.121355
2.52122,0.0512175,-0.174208,1.09076,0.00664503,-0.000180289,0.212798,1,0,1.2,0.0802948,-0.0905963,0.0163216,0,0,0,0.970809,0.122153
2.55318,0.0514458,-0.177379,1.09079,0.00673982,-0.000412853,0.214761,1,0,1.2,0.0792381,-0.0911751,0.0221082,0,0,0,0.971157,0.122802
2.58928,0.0519768,-0.181325,1.09097,0.0061122,-0.0010738,0.219281,1,0,1.2,0.0780759,-0.0921256,0.0249929,0,0,0,0.971346,0.123319
2.62099,0.0524311,-0.183657,1.09122,0.00579946,-0.00127946,0.222776,1,0,1.2,0.075261,-0.0930511,0.0264349,0,0,0,0.971314,0.122562
2.65369,0.0531731,-0.186743,1.09155,0.0056854,-0.00141947,0.225102,1,0,1.2,0.0746589,-0.0924433,0.0277667,0,0,0,0.971141,0.122027
2.6897,0.0542741,-0.190565,1.09204,0.0056124,-0.00142108,0.228943,1,0,1.2,0.0737913,-0.0931038,0.0283162,0,0,0,0.970756,0.122128
2.72163,0.055257,-0.193612,1.0925,0.00559967,-0.00127073,0.233471,1,0,1.2,0.0701411,-0.0930632,0.0295528,0,0,0,0.970351,0.120224
2.75361,0.0563609,-0.196663,1.09311,0.00527381,-0.000834266,0.23603,1,0,1.2,0.0688356,-0.0944359,0.0331884,0,0,0,0.969823,0.121482
2.78959,0.0575812,-0.199719,1.09381,0.00499339,-0.000342347,0.239961,1,0,1.2,0.0678467,-0.0949018,0.0350609,0,0,0,0.969184,0.121815
2.8215,0.0589131,-0.202775,1.09473,0.00518313,0.000465244,0.244277,1,0,1.2,0.0678834,-0.0968566,0.0394038,0,0,0,0.968424,0.124668
2.85339,0.0603542,-0.205794,1.09576,0.00520465,0.000720163,0.246563,1,0,1.2,0.0676348,-0.0965423,0.043395,0,0,0,0.967549,0.125611
2.8894,0.0608368,-0.210877,1.09692,0.00485292,0.00110122,0.251111,1,0,1.2,0.0679937,-0.0963153,0.0480043,0,0,0,0.96805,0.127296
2.92123,0.0611365,-0.215052,1.09784,0.00492799,0.00148564,0.255321,1,0,1.2,0.0678663,-0.0944176,0.0496346,0,0,0,0.968581,0.126428
2.95317,0.0615799,-0.21913,1.09872,0.00508607,0.00132077,0.257802,1,0,1.2,0.066903,-0.0944347,0.046702,0,0,0,0.968972,0.1248
2.98911,0.062236,-0.223081,1.09955,0.00477978,0.000748015,0.261894,1,0,1.2,0.064783,-0.0954674,0.0446158,0,0,0,0.969153,0.123699
3.02101,0.06306,-0.227004,1.10022,0.0048261,0.000277609,0.265329,1,0,1.2,0.06639,-0.0959079,0.0381878,0,0,0,0.969197,0.122737
3.05453,0.0640206,-0.230843,1.10071,0.005094,0.00035199,0.267363,1.00038,0.000382034,1.2,0.0657322,-0.0977786,0.0313325,0.376953,0.376953,0,0.969586,0.568516
3.09031,0.0653894,-0.235541,1.10123,0.00505029,0.000370678,0.271047,1.00153,0.00152841,1.2,0.0655423,-0.0979894,0.0264693,0.753973,0.753973,0,0.970729,1.09566
3.1221,0.066606,-0.239244,1.10159,0.00486839,-0.000190018,0.274367,1.00239,0.0023881,1.2,0.0650998,-0.0994745,0.0221105,0.942457,0.942458,0,0.971472,1.3623
3.15407,0.0678686,-0.24285,1.10193,0.00479733,-0.000363334,0.276008,1.00468,0.00468064,1.2,0.0632336,-0.0988621,0.019996,1.31943,1.31944,0,0.973913,1.89473
3.18991,0.0692418,-0.246396,1.10226,0.00409513,-0.000200581,0.279645,1.00774,0.00773739,1.2,0.0633797,-0.098974,0.0194962,1.6964,1.69642,0,0.977195,2.42705
3.22193,0.0706943,-0.249905,1.10275,0.00418987,0.000354726,0.282687,1.00955,0.00955278,1.2,0.0633832,-0.0997031,0.0194916,1.88492,1.88495,0,0.978893,2.69392
3.25378,0.0722341,-0.253348,1.10342,0.00383999,0.000769669,0.284245,1.01376,0.0137557,1.2,0.0629557,-0.0996454,0.0256248,2.26183,2.2619,0,0.98343,3.22685
3.28961,0.0721927,-0.258505,1.10431,0.00315727,0.0013464,0.288075,1.01872,0.0187226,1.2,0.0631095,-0.0997045,0.0307514,2.63868,2.63884,0,0.990924,3.75954
3.32162,0.0720611,-0.262669,1.10522,0.00287253,0.00213085,0.291184,1.02149,0.0214934,1.2,0.0631693,-0.100366,0.0389985,2.82713,2.82735,0,0.995566,4.02648
3.35406,0.0721514,-0.266714,1.10645,0.0027869,0.00271037,0.293173,1.02761,0.027607,1.2,0.0647025,-0.0997929,0.0457866,3.20387,3.20428,0,1.00413,4.55778
3.39049,0.0724602,-0.270652,1.10788,0.00202967,0.00411372,0.296854,1.03448,0.0344808,1.2,0.0640411,-0.100378,0.0538064,3.58026,3.58097,0,1.01345,5.09107
3.42137,0.0730036,-0.274489,1.10953,0.00120232,0.00570697,0.30148,1.03821,0.0382099,1.2,0.0644336,-0.100093,0.0582496,3.76868,3.7696,0,1.01862,5.35717
3.45877,0.0737735,-0.278245,1.11145,0.00100969,0.00643422,0.30324,1.04623,0.0462326,1.2,0.0667452,-0.0999186,0.0651862,4.14489,4.14636,0,1.02898,5.88782
3.49423,0.0750659,-0.282787,1.11447,0.000277351,0.0087292,0.308161,1.05501,0.0550205,1.2,0.0687958,-0.099883,0.0761963,4.52083,4.52312,0,1.04006,6.41861
3.52661,0.0763536,-0.286264,1.1174,-0.00021208,0.011557,0.313336,1.06456,0.0645714,1.2,0.0717178,-0.0980409,0.0914397,4.89633,4.89973,0,1.05188,6.94716
3.55725,0.0778889,-0.289576,1.12085,-0.000589423,0.0130103,0.316376,1.06961,0.0696334,1.2,0.0749653,-0.0950636,0.10582,5.08389,5.088,0,1.05774,7.20865
3.59292,0.0796605,-0.292725,1.12485,-0.0017168,0.0162816,0.322871,1.0803,0.0803332,1.2,0.0788495,-0.0910169,0.121193,5.45866,5.46454,0,1.07056,7.73443
3.62499,0.0816562,-0.295686,1.12927,-0.00222471,0.0193394,0.330265,1.09174,0.0917871,1.2,0.0827201,-0.0880942,0.136005,5.8324,5.8406,0,1.08417,8.25995
3.6566,0.0839232,-0.298429,1.13422,-0.00259754,0.0212732,0.334379,1.09775,0.0978022,1.2,0.0870216,-0.0830365,0.150922,6.01901,6.02862,0,1.09049,8.51843
3.69234,0.0851888,-0.302577,1.14035,-0.00354294,0.0251579,0.342847,1.11034,0.110413,1.2,0.0926431,-0.0771457,0.169137,6.3917,6.40472,0,1.10682,9.03998
3.72403,0.0862923,-0.305799,1.14587,-0.00440353,0.0285963,0.352387,1.12365,0.123754,1.2,0.0998467,-0.0720248,0.193324,6.76234,6.77966,0,1.12408,9.55885
3.75578,0.087843,-0.308761,1.15201,-0.00468894,0.0305589,0.357342,1.13061,0.130736,1.2,0.105698,-0.0679727,0.210565,6.94785,6.96771,0,1.13262,9.81632
3.79149,0.0898245,-0.311458,1.15854,-0.00535884,0.0349315,0.368136,1.14507,0.14524,1.2,0.112454,-0.0622319,0.223515,7.31683,7.34267,0,1.15058,10.3337
3.82351,0.092888,-0.314391,1.16727,-0.00604016,0.039007,0.379668,1.15258,0.152777,1.2,0.119214,-0.0571537,0.233534,7.50068,7.53,0,1.15856,10.588
3.85505,0.0950771,-0.315911,1.17267,-0.00648393,0.0417904,0.38556,1.16816,0.168422,1.2,0.130239,-0.0478698,0.242566,7.86691,7.90433,0,1.17764,11.0974
3.89086,0.0993374,-0.318074,1.18195,-0.00679277,0.0479383,0.397687,1.18447,0.184823,1.2,0.137626,-0.0418998,0.245642,8.2308,8.278,0,1.19614,11.6095
3.92268,0.103381,-0.31942,1.18967,-0.00703318,0.0535621,0.410408,1.19291,0.193309,1.2,0.151818,-0.0336562,0.251947,8.41185,8.46466,0,1.20419,11.8538
3.9545,0.10804,-0.320358,1.19742,-0.00726148,0.0579996,0.417037,1.21032,0.210846,1.2,0.167427,-0.0236704,0.257433,8.77175,8.83737,0,1.22361,12.3539
3.9904,0.113287,-0.320903,1.20496,-0.00784714,0.069114,0.430059,1.22847,0.229136,1.2,0.182473,-0.0124318,0.249754,9.12847,9.20925,0,1.24346,12.8504
4.02245,0.119215,-0.321037,1.21259,-0.00741717,0.0816972,0.444397,1.23781,0.238567,1.2,0.197642,-0.00207939,0.243893,9.30556,9.39492,0,1.25083,13.0888
4.05427,0.125919,-0.320633,1.22043,-0.00727811,0.0872796,0.449806,1.25703,0.257988,1.2,0.217518,0.0106128,0.247826,9.65679,9.76546,0,1.27068,13.5764
4.09024,0.13203,-0.321594,1.23004,-0.00705582,0.105441,0.464955,1.27696,0.278159,1.2,0.241103,0.0275692,0.25504,10.0037,10.1349,0,1.29285,14.0546
4.12206,0.137629,-0.321915,1.23907,-0.00611137,0.118424,0.477437,1.28718,0.288522,1.2,0.270788,0.0488705,0.287751,10.1754,10.3191,0,1.30217,14.2711
4.15387,0.144696,-0.321343,1.24973,-0.00564294,0.12656,0.48431,1.30816,0.309815,1.2,0.30354,0.0685615,0.335969,10.515,10.6868,0,1.32457,14.7355
4.18978,0.153255,-0.319836,1.2619,-0.00562,0.145614,0.498316,1.32981,0.33185,1.2,0.339642,0.0906294,0.380494,10.849,11.053,0,1.34641,15.1909
4.22166,0.163426,-0.317326,1.27606,-0.00508832,0.162088,0.512217,1.34122,0.343481,1.2,0.377703,0.114451,0.430843,11.0186,11.2408,0,1.35265,15.4017
4.25594,0.175396,-0.313674,1.29239,-0.00456308,0.17005,0.519054,1.36355,0.366292,1.2,0.423066,0.141774,0.496619,11.3383,11.5993,0,1.37208,15.8323
4.29164,0.193057,-0.307295,1.31546,-0.00497724,0.190105,0.532824,1.38688,0.390194,1.2,0.473815,0.176044,0.558707,11.6559,11.9616,0,1.38746,16.2557
4.32349,0.209495,-0.300646,1.3363,-0.00684988,0.211821,0.546445,1.39875,0.402387,1.2,0.542898,0.222514,0.632379,11.8113,12.1415,0,1.38822,16.4146
4.35572,0.228243,-0.292433,1.35953,-0.00780226,0.223481,0.553269,1.423,0.427363,1.2,0.605063,0.264223,0.700834,12.1166,12.5004,0,1.40393,16.8146
4.39164,0.249475,-0.282458,1.38577,-0.0101789,0.245926,0.56658,1.44787,0.453065,1.2,0.674782,0.312357,0.77819,12.4129,12.857,0,1.41833,17.1976
4.42343,0.273379,-0.270668,1.41617,-0.00884051,0.250966,0.579622,1.46055,0.466211,1.2,0.75076,0.366384,0.893714,12.5577,13.0347,0,1.41389,17.3403
4.4557,0.299801,-0.257062,1.44998,-0.00624201,0.247294,0.585937,1.48627,0.492969,1.2,0.82951,0.420677,1.02421,12.8387,13.3872,0,1.42574,17.7031
4.49364,0.328498,-0.243408,1.49057,-0.00272402,0.238538,0.597315,1.51257,0.520464,1.2,0.898842,0.472611,1.09489,13.109,13.7372,0,1.43874,18.062
4.52523,0.352113,-0.231968,1.52048,-0.00131766,0.228849,0.607643,1.53941,0.54866,1.2,0.955717,0.518626,1.06803,13.3673,14.084,0,1.45662,18.4176
4.55687,0.377185,-0.219434,1.54654,-0.00011063,0.22319,0.612442,1.55302,0.563024,1.2,0.984222,0.53904,0.96026,13.4917,14.2562,0,1.45428,18.5882
4.5925,0.403464,-0.205916,1.56812,0.00207486,0.210533,0.621561,1.58061,0.592272,1.2,1.00425,0.556698,0.816375,13.7303,14.5981,0,1.46911,18.9679
4.62422,0.430771,-0.191556,1.58481,0.00422076,0.195891,0.629235,1.60868,0.622207,1.2,1.02076,0.57178,0.664206,13.9546,14.9361,0,1.48248,19.3406
4.65593,0.45903,-0.176427,1.59677,0.00534421,0.188632,0.632925,1.62322,0.6378,1.2,1.03425,0.583684,0.499922,14.0635,15.1077,0,1.47504,19.5182
4.69171,0.496131,-0.156184,1.60925,0.00726366,0.177993,0.6392,1.65159,0.668386,1.2,1.05086,0.596682,0.372102,14.2617,15.4356,0,1.47732,19.8711
4.72367,0.527396,-0.138771,1.61938,0.00650035,0.172566,0.644194,1.66609,0.684113,1.2,1.08991,0.626288,0.356703,14.3557,15.5999,0,1.46617,20.008
4.75532,0.559953,-0.120378,1.62946,0.00549424,0.169342,0.646676,1.69537,0.716067,1.2,1.11971,0.650197,0.35636,14.5305,15.9251,0,1.47419,20.3297
4.79098,0.593706,-0.101316,1.63873,0.004076,0.162822,0.363011,1.72499,0.748676,1.2,1.14608,0.668739,0.341379,14.6865,16.2453,0,1.48148,20.6419
4.82282,0.62849,-0.0817638,1.64612,0.00296891,0.153533,0.365733,1.73991,0.765223,1.2,1.17121,0.67696,0.295369,14.7571,16.4034,0,1.46686,20.7842
4.85545,0.66443,-0.0619195,1.65094,0.00210022,0.148797,0.372297,1.76995,0.79879,1.2,1.19039,0.684712,0.217179,14.8826,16.7155,0,1.47185,21.0834
4.89122,0.707577,-0.0372603,1.65527,0.00331682,0.137392,0.392232,1.80023,0.832988,1.2,1.21052,0.691634,0.14211,14.9865,17.0218,0,1.46919,21.3652
4.92292,0.742331,-0.0174224,1.6532,0.00591071,0.120792,0.41366,1.81545,0.850319,1.2,1.22674,0.694101,0.0163698,15.0298,17.1727,0,1.45256,21.4958
4.95473,0.77752,0.00260234,1.64349,0.00579014,0.11102,0.424984,1.84599,0.885431,1.2,1.22635,0.695342,-0.202015,15.0986,17.4695,0,1.45523,21.7682
4.9907,0.81316,0.0228943,1.6283,0.000844683,0.0925733,0.448797,1.87664,0.921141,1.2,1.22431,0.695233,-0.435282,15.1424,17.7596,0,1.45646,22.0249
5.02266,0.849382,0.043657,1.61218,-0.0149462,0.0811268,0.476995,1.892,0.939215,1.2,1.22816,0.701379,-0.521302,15.1545,17.902,0,1.43491,22.1376
5.05433,0.886049,0.0650317,1.59586,-0.0228216,0.0793751,0.487691,1.95226,1.01149,1.2,1.23394,0.71208,-0.520384,14.564,17.7458,0,1.47962,21.6359
5.09021,0.932327,0.0927542,1.57639,-0.0435234,0.0790137,0.515135,2.01005,1.0831,1.2,1.23531,0.726876,-0.529023,13.9357,17.5782,0,1.51127,21.108
5.12217,0.969657,0.11611,1.56314,-0.0666824,0.0877049,0.543243,2.03796,1.11864,1.2,1.23578,0.752183,-0.469547,13.6079,17.4901,0,1.50937,20.8194
5.15481,1.00719,0.140848,1.55313,-0.079223,0.0965392,0.557586,2.09176,1.18918,1.2,1.23543,0.786387,-0.38257,12.926,17.3054,0,1.5492,20.2409
5.19052,1.04491,0.167119,1.54651,-0.10093,0.117894,0.586037,2.14273,1.25895,1.2,1.23434,0.827723,-0.270017,12.2105,17.1095,0,1.58662,19.6379
5.22238,1.0828,0.195008,1.54196,-0.114684,0.141169,0.614962,2.16711,1.29352,1.2,1.23305,0.872583,-0.180997,11.8409,17.0074,0,1.58095,19.3104
5.25432,1.12091,0.224533,1.53799,-0.119812,0.154557,0.629283,2.21358,1.36205,1.2,1.23392,0.920816,-0.140414,11.0786,16.7948,0,1.61311,18.6794
5.2902,1.16835,0.263751,1.53259,-0.128099,0.184956,0.656445,2.2569,1.4297,1.2,1.23631,0.969235,-0.138629,10.2875,16.5714,0,1.62942,18.038
5.322,1.20665,0.297464,1.52957,-0.130824,0.2147,0.682519,2.27735,1.46317,1.2,1.24075,1.04035,-0.119566,9.88186,16.4556,0,1.61676,17.6724
5.35392,1.24565,0.333823,1.52896,-0.130513,0.231461,0.694972,2.31574,1.52941,1.2,1.25182,1.11226,-0.0576089,9.05157,16.2161,0,1.63791,16.999
5.38999,1.28562,0.373373,1.53217,-0.130298,0.272643,0.720083,2.35071,1.59465,1.2,1.27425,1.20319,0.0331124,8.19782,15.9661,0,1.65417,16.3058
5.42204,1.32676,0.416507,1.54041,-0.128548,0.292273,0.741246,2.36689,1.62688,1.2,1.30394,1.30967,0.179448,7.76289,15.8372,0,1.63179,15.8997
5.45398,1.36911,0.463388,1.55371,-0.126591,0.295242,0.753142,2.39658,1.69056,1.2,1.33755,1.42303,0.337766,6.87803,15.5717,0,1.63913,15.1985
5.48993,1.42359,0.527044,1.57666,-0.122993,0.285962,0.776719,2.42264,1.75314,1.2,1.37345,1.54377,0.496049,5.97537,15.2961,0,1.62581,14.5103
5.52559,1.46765,0.58017,1.59381,-0.119043,0.263373,0.799814,2.44501,1.81458,1.2,1.4034,1.66007,0.598552,5.05718,15.0105,0,1.62298,13.8543
5.55715,1.51174,0.634076,1.60538,-0.116522,0.250246,0.811005,2.45479,1.84486,1.2,1.40346,1.69127,0.45598,4.59302,14.8641,0,1.58734,13.5611
5.59277,1.55578,0.688583,1.61075,-0.111224,0.222173,0.832651,2.47151,1.90451,1.2,1.40336,1.71217,0.265128,3.65616,14.564,0,1.57663,13.0505
5.62488,1.59961,0.743387,1.60876,-0.105568,0.188527,0.855689,2.48442,1.96295,1.2,1.39755,1.72578,0.0578406,2.70943,14.2544,0,1.56119,12.5973
5.65615,1.64319,0.798283,1.5986,-0.103084,0.175713,0.863863,2.48943,1.99167,1.2,1.38986,1.7306,-0.192432,2.2336,14.0962,0,1.51631,12.3959
5.69188,1.69271,0.858583,1.5726,-0.0956729,0.142534,0.884497,2.49654,2.04811,1.2,1.38293,1.73078,-0.44795,1.27866,13.7733,0,1.48322,12.0513
5.72449,1.73136,0.905908,1.54327,-0.0866315,0.109262,0.905499,2.49979,2.10335,1.2,1.36733,1.7303,-0.739959,0.318064,13.4406,0,1.46362,11.7805
5.75619,1.76989,0.953794,1.50674,-0.0817024,0.0919578,0.91583,2.49994,2.13042,1.2,1.35319,1.72618,-0.96951,-0.162001,13.2712,0,1.41828,11.6844
5.7919,1.80818,1.00225,1.46481,-0.0722482,0.0587497,0.935924,2.49734,2.18353,1.2,1.33699,1.72078,-1.19586,-1.1217,12.926,0,1.39302,11.5339
5.82374,1.84584,1.05144,1.42258,-0.0668092,0.0310376,0.955165,2.49458,2.20955,1.2,1.31556,1.72276,-1.29241,-1.60054,12.7502,0,1.34596,11.4795
5.85559,1.88262,1.10119,1.38214,-0.0658655,0.017928,0.964689,2.48615,2.26053,1.2,1.27968,1.72627,-1.24574,-2.55516,12.3924,0,1.31966,11.4028
5.89135,1.92726,1.16391,1.33435,-0.0668849,-0.00325498,0.983459,2.47387,2.31003,1.2,1.24532,1.72455,-1.20569,-3.50284,12.0266,0,1.27688,11.4075
5.92318,1.9615,1.21428,1.30078,-0.0736592,-0.0132662,1.00161,2.4663,2.33422,1.2,1.19188,1.71758,-1.09227,-3.97336,11.8408,0,1.23257,11.4172
5.95528,1.9943,1.26466,1.27155,-0.0779242,-0.0170925,1.0112,2.44829,2.38146,1.2,1.13981,1.70606,-0.947455,-4.90657,11.4634,0,1.20767,11.5179
5.99087,2.02565,1.31502,1.24539,-0.0862093,-0.0206228,1.03064,2.42653,2.42716,1.2,1.0881,1.69252,-0.835097,-5.82704,11.0786,0,1.18306,11.6882
6.02281,2.05556,1.36536,1.22144,-0.0963962,-0.020557,1.05099,2.41425,2.44942,1.2,1.03712,1.68042,-0.755972,-6.28179,10.8834,0,1.14206,11.7827
6.05472,2.08404,1.41567,1.19839,-0.101398,-0.020437,1.06186,2.38696,2.49275,1.2,0.985682,1.66913,-0.711339,-7.17878,10.4878,0,1.11887,12.0388
6.09052,2.12059,1.48347,1.1687,-0.109891,-0.0214714,1.0847,2.35606,2.53446,1.2,0.937222,1.65744,-0.69865,-8.05711,10.0855,0,1.0775,12.3458
6.12236,2.1488,1.53814,1.14432,-0.116017,-0.0272371,1.10849,2.3393,2.5547,1.2,0.882377,1.64276,-0.706549,-8.48845,9.88186,0,1.03575,12.4978
6.1565,2.17553,1.59222,1.11978,-0.117984,-0.0323054,1.12165,2.30316,2.59393,1.2,0.837753,1.63062,-0.728685,-9.33453,9.46979,0,1.01299,12.8631
6.1902,2.20056,1.64562,1.09619,-0.117814,-0.0511178,1.15315,2.26364,2.63148,1.2,0.788893,1.61713,-0.720926,-10.1564,9.05158,0,0.993306,13.251
6.22205,2.22379,1.69813,1.07446,-0.11216,-0.0746041,1.1816,2.24264,2.64961,1.2,0.73293,1.59747,-0.678508,-10.5575,8.84027,0,0.95991,13.4311
6.25406,2.24502,1.7494,1.0556,-0.107148,-0.0901729,1.19837,2.19791,2.68484,1.2,0.67443,1.56835,-0.605977,-11.3447,8.41023,0,0.947685,13.8433
6.29017,2.26854,1.8112,1.03745,-0.0955936,-0.124072,1.23383,2.15073,2.71782,1.2,0.608559,1.52803,-0.509143,-12.0912,7.98095,0,0.928585,14.2543
6.32605,2.28477,1.85833,1.02823,-0.086861,-0.156441,1.27087,2.10024,2.74929,1.2,0.521838,1.46021,-0.341996,-12.8119,7.54343,0,0.925942,14.6599
6.35378,2.29878,1.90286,1.02402,-0.0830523,-0.172269,1.29011,2.07392,2.76436,1.2,0.451426,1.39036,-0.190056,-13.16,7.32278,0,0.907591,14.8492
6.38973,2.31063,1.94451,1.02469,-0.0783341,-0.199956,1.33271,2.0192,2.79315,1.2,0.384343,1.30639,-0.0339092,-13.8301,6.87805,0,0.914253,15.2674
6.42167,2.32039,1.98322,1.02939,-0.0849061,-0.207883,1.36737,1.99083,2.80687,1.2,0.317062,1.21801,0.104738,-14.1519,6.65392,0,0.903393,15.4567
6.45386,2.32999,2.02761,1.03885,-0.0925643,-0.207935,1.39065,1.9322,2.83293,1.2,0.257002,1.1302,0.205781,-14.7675,6.2026,0,0.91255,15.859
6.48972,2.34333,2.06951,1.04501,-0.105113,-0.201113,1.42444,1.87113,2.85716,1.2,0.188754,1.02445,0.285518,-15.345,5.74714,0,0.931328,16.2383
6.52163,2.35469,2.10875,1.05115,-0.121912,-0.183917,1.45955,1.83975,2.86858,1.2,0.145362,0.959749,0.299865,-15.6189,5.51803,0,0.929868,16.4128
6.55364,2.36424,2.14589,1.05554,-0.13109,-0.171986,1.47705,1.77537,2.89001,1.2,0.105282,0.910694,0.26326,-16.136,5.05717,0,0.95987,16.7643
6.58956,2.37227,2.18129,1.05685,-0.148591,-0.144885,1.51213,1.70894,2.90958,1.2,0.0718333,0.873673,0.173545,-16.6114,4.59284,0,0.995443,17.0936
6.62204,2.37883,2.21519,1.05457,-0.163953,-0.117088,1.5485,1.67507,2.91865,1.2,0.04368,0.843599,0.0536718,-16.8328,4.35978,0,1.00563,17.2389
6.65405,2.3837,2.24755,1.04984,-0.171957,-0.104111,1.56765,1.60598,2.93538,1.2,0.00968418,0.815458,-0.052868,-17.2429,3.89129,0,1.04905,17.5247
6.69,2.38717,2.28586,1.04199,-0.187176,-0.0793481,1.60833,1.53531,2.9502,1.2,-0.0322091,0.783493,-0.118122,-17.6084,3.42021,0,1.09178,17.7732
6.72241,2.38759,2.31485,1.03497,-0.201635,-0.0584916,1.65343,1.49945,2.95689,1.2,-0.0938711,0.744531,-0.166941,-17.774,3.18386,0,1.10827,17.8484
6.75404,2.38562,2.3424,1.02844,-0.211534,-0.0456657,1.68203,1.42677,2.96884,1.2,-0.152849,0.714992,-0.174801,-18.0705,2.70963,0,1.15813,18.0292
6.78992,2.38108,2.36854,1.02328,-0.225396,-0.0259937,1.73326,1.35298,2.97886,1.2,-0.220983,0.68524,-0.147273,-18.3202,2.23357,0,1.2086,18.1659
6.82174,2.374,2.39334,1.01913,-0.23379,-0.00900784,1.78896,1.31573,2.98315,1.2,-0.290707,0.656219,-0.11166,-18.4273,1.99502,0,1.22495,18.1862
6.85378,2.36411,2.41687,1.01642,-0.237555,-0.00154701,1.81224,1.24064,2.99027,1.2,-0.364599,0.629,-0.0850026,-18.6054,1.51692,0,1.27463,18.2626
6.89041,2.35465,2.4469,1.01901,-0.245792,0.0181541,1.87267,1.16493,2.99545,1.2,-0.450142,0.602794,-0.0266541,-18.7353,1.03788,0,1.32254,18.2903
6.92159,2.3445,2.46978,1.02454,-0.248681,0.0383202,1.93675,1.12691,2.99731,1.2,-0.556862,0.564314,0.0797227,-18.782,0.798098,0,1.33851,18.2268
6.95376,2.33053,2.49123,1.03348,-0.250228,0.050282,1.96958,1.05062,2.99957,1.2,-0.647132,0.536498,0.175107,-18.8388,0.318099,0,1.3872,18.1938
6.98956,2.31261,2.51123,1.04666,-0.250733,0.0737892,2.03709,0.974212,2.99989,1.2,-0.748678,0.507307,0.30272,-18.8468,-0.162039,0,1.43304,18.113
7.02156,2.29089,2.52993,1.06363,-0.246078,0.0947955,2.10741,0.936017,2.99932,1.2,-0.849958,0.478878,0.433158,-18.8324,-0.402106,0,1.44035,18.0092
7.05371,2.26526,2.54733,1.08463,-0.244299,0.106663,2.14317,0.859786,2.99671,1.2,-0.951364,0.453383,0.549734,-18.767,-0.881958,0,1.48007,17.8741
7.09,2.22748,2.56715,1.11792,-0.240342,0.130529,2.21576,0.779469,2.99184,1.2,-1.06223,0.42398,0.69346,-18.6447,-1.38941,0,1.51124,17.6894
7.12172,2.19265,2.58153,1.15002,-0.234085,0.154094,2.28914,0.746174,2.98916,1.2,-1.20308,0.386338,0.895241,-18.5777,-1.60062,0,1.50365,17.5108
7.15362,2.1536,2.59473,1.18704,-0.23138,0.168083,2.32574,0.671211,2.98171,1.2,-1.32173,0.360407,1.04932,-18.3912,-2.07852,0,1.53212,17.2747
7.18966,2.11045,2.60672,1.22861,-0.223133,0.198531,2.40609,0.597107,2.97231,1.2,-1.44268,0.334466,1.2035,-18.1569,-2.55503,0,1.55714,17.0048
7.22168,2.06376,2.61762,1.27298,-0.205946,0.214967,2.48161,0.560432,2.96689,1.2,-1.55252,0.309393,1.32776,-18.022,-2.79271,0,1.54509,16.8116
7.25385,2.00105,2.62986,1.33005,-0.19783,0.220121,2.51191,0.487965,2.95461,1.2,-1.64605,0.289982,1.38696,-17.7173,-3.26664,0,1.553,16.5185
7.28975,1.96353,2.63901,1.37054,-0.1788,0.225384,2.58778,0.416826,2.94041,1.2,-1.75209,0.264181,1.42616,-17.3667,-3.73845,0,1.585,16.1824
7.32159,1.92356,2.64735,1.40759,-0.158615,0.223066,2.66389,0.381822,2.93259,1.2,-1.78923,0.247208,1.34268,-17.1744,-3.97341,0,1.58159,16.01
7.35359,1.88088,2.65483,1.4429,-0.148037,0.221666,2.70079,0.313024,2.91553,1.2,-1.81676,0.232235,1.22164,-16.7565,-4.44145,0,1.60784,15.7013
7.38967,1.83574,2.66141,1.47678,-0.126211,0.215653,2.77219,0.24601,2.89658,1.2,-1.86306,0.212469,1.19143,-16.2951,-4.90661,0,1.63069,15.3593
7.42158,1.78889,2.66728,1.50659,-0.102772,0.203593,2.84078,0.213222,2.8864,1.2,-1.88799,0.196017,1.08769,-16.0485,-5.13803,0,1.62011,15.1709
7.45357,1.74052,2.67252,1.53238,-0.0916393,0.196669,2.87344,0.149207,2.86463,1.2,-1.90163,0.184373,0.936854,-15.5242,-5.5983,0,1.63697,14.8287
7.48953,1.67823,2.6782,1.55841,-0.0700699,0.180727,2.93585,0.087393,2.84101,1.2,-1.91752,0.171984,0.808789,-14.9595,-6.05498,0,1.63882,14.4749
7.52151,1.62727,2.68222,1.57263,-0.0495063,0.16319,2.99441,0.0573737,2.82851,1.2,-1.92447,0.158811,0.596418,-14.6626,-6.28179,0,1.62014,14.2863
7.55354,1.5755,2.68578,1.58044,-0.0404461,0.154652,3.02219,-0.000823842,2.80212,1.2,-1.92497,0.149897,0.387617,-14.0404,-6.73243,0,1.62576,13.9391
7.58955,1.52294,2.68897,1.58276,-0.0276713,0.1383,3.07456,-0.0564271,2.77392,1.2,-1.92378,0.140694,0.190893,-13.3816,-7.17872,0,1.62731,13.5975
7.62154,1.46958,2.69166,1.5806,-0.019911,0.123117,3.12277,-0.0832087,2.75914,1.2,-1.92577,0.130423,0.0343447,-13.0391,-7.40013,0,1.60017,13.4245
7.65354,1.41546,2.69408,1.57452,-0.0164113,0.11592,-3.13781,-0.134654,2.72824,1.2,-1.92811,0.122354,-0.101211,-12.3289,-7.83938,0,1.59509,13.0987
7.68948,1.34569,2.69252,1.56873,-0.0124086,0.102272,-3.09569,-0.183136,2.69558,1.2,-1.929,0.113746,-0.21487,-11.5869,-8.27338,0,1.57267,12.7932
7.72147,1.28914,2.69035,1.56247,-0.0135479,0.0873257,-3.05302,-0.20624,2.67859,1.2,-1.92746,0.0966872,-0.304862,-11.2044,-8.48844,0,1.53873,12.6436
7.75382,1.2322,2.68807,1.55392,-0.0150084,0.0807805,-3.03514,-0.250082,2.64331,1.2,-1.92599,0.0845498,-0.368605,-10.4179,-8.91438,0,1.5246,12.3786
7.78987,1.17491,2.68565,1.54428,-0.0194997,0.0720485,-3.00516,-0.290677,2.60632,1.2,-1.92551,0.0729749,-0.414135,-9.60446,-9.33451,0,1.50757,12.1507
7.82177,1.11743,2.68293,1.53455,-0.0266958,0.0653515,-2.97481,-0.309729,2.58718,1.2,-1.92228,0.0572061,-0.416697,-9.18816,-9.54235,0,1.46897,12.0465
7.85381,1.05987,2.67993,1.52502,-0.0298047,0.0630292,-2.96068,-0.345275,2.54765,1.2,-1.91462,0.0408025,-0.403843,-8.33783,-9.95343,0,1.4483,11.8872
7.88981,0.987826,2.67562,1.51453,-0.0344235,0.0617533,-2.93458,-0.377311,2.50648,1.2,-1.90703,0.0235103,-0.379538,-7.46631,-10.3578,0,1.41108,11.7823
7.92183,0.930162,2.67174,1.50763,-0.0392031,0.0616401,-2.91028,-0.391995,2.48529,1.2,-1.89631,-0.00184831,-0.318553,-7.02312,-10.5575,0,1.37022,11.7392
7.95377,0.87256,2.66745,1.50189,-0.0419315,0.0602302,-2.89868,-0.418652,2.44168,1.2,-1.88703,-0.0207358,-0.267069,-6.12315,-10.9519,0,1.34512,11.7263
7.98984,0.815145,2.66278,1.49561,-0.0489155,0.052862,-2.87377,-0.441633,2.39647,1.2,-1.87526,-0.0407496,-0.242239,-5.207,-11.3392,0,1.31825,11.782
8.02172,0.757987,2.65793,1.48624,-0.0555583,0.0446752,-2.85385,-0.451714,2.37331,1.2,-1.85946,-0.0564522,-0.295993,-4.74414,-11.53,0,1.27527,11.8343
8.05375,0.701048,2.65292,1.4725,-0.0597372,0.0401748,-2.84281,-0.469056,2.3258,1.2,-1.84531,-0.0689199,-0.412556,-3.80897,-11.9061,0,1.24516,12.006
8.08974,0.627652,2.64603,1.44736,-0.0688033,0.0305761,-2.82082,-0.482585,2.27678,1.2,-1.8309,-0.0796023,-0.558352,-2.864,-12.2744,0,1.19589,12.2512
8.12167,0.568922,2.64033,1.42041,-0.0779344,0.0196259,-2.79889,-0.487909,2.25171,1.2,-1.81422,-0.0942697,-0.777376,-2.38851,-12.4556,0,1.14738,12.399
8.15367,0.5106,2.63452,1.38727,-0.0823204,0.0138743,-2.78786,-0.495658,2.20049,1.2,-1.80234,-0.102602,-0.969048,-1.4332,-12.8119,0,1.11176,12.7516
8.18965,0.452873,2.62848,1.34949,-0.0902838,0.00279271,-2.76511,-0.499525,2.14784,1.2,-1.78817,-0.11479,-1.1463,-0.474194,-13.1599,0,1.07723,13.1612
8.22165,0.395938,2.6221,1.30887,-0.098188,-0.00848213,-2.73854,-0.5,2.12099,1.2,-1.76615,-0.130192,-1.25376,0.0058906,-13.3307,0,1.03231,13.3778
8.25363,0.340035,2.61524,1.26685,-0.100927,-0.0128529,-2.72835,-0.49803,2.06626,1.2,-1.7388,-0.148742,-1.31911,0.965818,-13.6659,0,1.00409,13.848
8.28962,0.271938,2.60571,1.215,-0.107812,-0.0231453,-2.70065,-0.49217,2.01018,1.2,-1.70269,-0.17121,-1.34275,1.92342,-13.9922,0,0.968887,14.3517
8.32162,0.219268,2.5971,1.17651,-0.114921,-0.0317305,-2.67005,-0.487789,1.98166,1.2,-1.64816,-0.20876,-1.27178,2.40028,-14.1519,0,0.937685,14.5745
8.35363,0.168542,2.58758,1.14194,-0.119207,-0.0377237,-2.64979,-0.47613,1.92364,1.2,-1.59173,-0.241738,-1.16315,3.34936,-14.4644,0,0.927247,15.1014
8.38988,0.119995,2.57716,1.11206,-0.121991,-0.051848,-2.61232,-0.460642,1.86439,1.2,-1.52856,-0.274938,-1.02283,4.28961,-14.7676,0,0.92354,15.6504
8.42187,0.0738504,2.56584,1.08749,-0.122578,-0.0658305,-2.57541,-0.451473,1.8343,1.2,-1.45701,-0.305353,-0.863082,4.75578,-14.9156,0,0.907624,15.8998
8.45382,0.0302473,2.55372,1.06836,-0.124053,-0.0728286,-2.55411,-0.430318,1.77324,1.2,-1.38001,-0.337669,-0.692663,5.67844,-15.2043,0,0.915755,16.4717
8.48982,-0.0280815,2.53845,1.05212,-0.128745,-0.0852199,-2.50967,-0.405448,1.71102,1.2,-1.29717,-0.36295,-0.523097,6.58646,-15.4832,0,0.921359,17.0601
8.52175,-0.0726351,2.52565,1.04446,-0.137592,-0.0911479,-2.46415,-0.391643,1.6795,1.2,-1.19427,-0.390769,-0.32001,7.03413,-15.6188,0,0.917563,17.3119
8.55378,-0.114015,2.51231,1.04025,-0.143618,-0.092399,-2.44129,-0.361331,1.61564,1.2,-1.11343,-0.40971,-0.191085,7.9156,-15.8826,0,0.943773,17.9156
8.58975,-0.152479,2.49846,1.03821,-0.156745,-0.0910497,-2.39549,-0.327486,1.55073,1.2,-1.03506,-0.424721,-0.0994066,8.77651,-16.136,0,0.977236,18.5235
8.62221,-0.188302,2.48403,1.03693,-0.172518,-0.0816162,-2.35017,-0.309267,1.5179,1.2,-0.963926,-0.44381,-0.0537125,9.19856,-16.2588,0,0.987243,18.7987
8.65423,-0.221764,2.46913,1.03506,-0.181461,-0.0745206,-2.32746,-0.270284,1.45148,1.2,-0.900557,-0.459978,-0.0494292,10.0246,-16.4964,0,1.03207,19.4044
8.69016,-0.2605,2.44975,1.03094,-0.20308,-0.054473,-2.27756,-0.228012,1.38414,1.2,-0.843139,-0.477217,-0.0815644,10.8245,-16.7234,0,1.07942,20.002
8.72214,-0.288865,2.4335,1.02655,-0.221275,-0.0350898,-2.23603,-0.205676,1.35013,1.2,-0.770157,-0.499607,-0.133104,11.214,-16.8328,0,1.10032,20.2586
8.75402,-0.314657,2.41629,1.02237,-0.232228,-0.0233742,-2.21235,-0.158663,1.28145,1.2,-0.705274,-0.525621,-0.144036,11.9711,-17.0434,0,1.1592,20.8218
8.79518,-0.342699,2.3929,1.01971,-0.254555,0.00218466,-2.16399,-0.108648,1.21195,1.2,-0.629354,-0.561385,-0.117203,12.697,-17.243,0,1.21735,21.3514
8.82196,-0.357028,2.37756,1.02029,-0.27404,0.0294112,-2.11343,-0.0825524,1.17689,1.2,-0.518227,-0.622036,-0.0203411,13.0477,-17.3385,0,1.24468,21.5285
8.85397,-0.372921,2.35515,1.02469,-0.285115,0.0445922,-2.0878,-0.0282762,1.10623,1.2,-0.44309,-0.669466,0.0651492,13.7235,-17.5212,0,1.30741,22.0155
8.88996,-0.396013,2.3251,1.03708,-0.303579,0.0737,-2.03339,0.0286772,1.03484,1.2,-0.332936,-0.742916,0.205217,14.3638,-17.6926,0,1.36809,22.435
8.92349,-0.411314,2.29831,1.05157,-0.311808,0.101051,-1.97583,0.0581093,0.998887,1.2,-0.199179,-0.838391,0.370723,14.6701,-17.774,0,1.38956,22.5399
8.9556,-0.422116,2.26859,1.07007,-0.315622,0.115616,-1.94635,0.118782,0.926511,1.2,-0.0887097,-0.923818,0.496743,15.2538,-17.9281,0,1.4528,22.9082
8.99146,-0.428539,2.23598,1.09265,-0.319421,0.144818,-1.88581,0.181741,0.853533,1.2,0.0248924,-1.01513,0.627793,15.7979,-18.0706,0,1.51497,23.2394
9.02321,-0.430653,2.20045,1.1188,-0.315089,0.172718,-1.82259,0.214033,0.816828,1.2,0.136048,-1.10125,0.749812,16.0548,-18.1374,0,1.5286,23.3281
9.05514,-0.426957,2.15144,1.15732,-0.313451,0.189047,-1.79108,0.280117,0.743034,1.2,0.251136,-1.1965,0.86755,16.5369,-18.2622,0,1.57651,23.6055
9.09097,-0.418954,2.1085,1.19302,-0.309138,0.220649,-1.7268,0.348064,0.668765,1.2,0.407238,-1.32643,1.04389,16.9761,-18.3752,0,1.63132,23.7966
9.12288,-0.406442,2.06214,1.23315,-0.296346,0.244114,-1.65863,0.382696,0.63145,1.2,0.526348,-1.42755,1.17415,17.1794,-18.4273,0,1.63423,23.8263
9.15571,-0.389432,2.0123,1.2778,-0.287908,0.254622,-1.62389,0.453105,0.556556,1.2,0.652489,-1.53616,1.3209,17.5521,-18.5223,0,1.68378,23.9973
9.19159,-0.368059,1.95912,1.32657,-0.270194,0.271375,-1.5458,0.524943,0.481291,1.2,0.776707,-1.64403,1.45921,17.8793,-18.6054,0,1.73131,24.1312
9.22341,-0.342795,1.90305,1.37827,-0.255717,0.276911,-1.48089,0.561336,0.443538,1.2,0.890355,-1.74096,1.56903,18.0255,-18.6424,0,1.7261,24.1192
9.25538,-0.313559,1.84428,1.43304,-0.247491,0.278355,-1.44486,0.634962,0.367813,1.2,1.00047,-1.82673,1.66298,18.2829,-18.7073,0,1.7703,24.2157
9.29117,-0.284566,1.78247,1.49933,-0.231418,0.274306,-1.37354,0.709526,0.291858,1.2,1.11268,-1.90818,1.76227,18.4928,-18.7601,0,1.81652,24.2726
9.32308,-0.260161,1.73354,1.55054,-0.21494,0.264863,-1.30272,0.747149,0.253761,1.2,1.20698,-1.9631,1.76781,18.5798,-18.782,0,1.82408,24.2449
9.35514,-0.232485,1.68254,1.60144,-0.207097,0.259962,-1.26878,0.822727,0.177584,1.2,1.26724,-1.99107,1.72728,18.7175,-18.8165,0,1.88136,24.302
9.39106,-0.193756,1.6165,1.664,-0.192407,0.248112,-1.20362,0.898815,0.101242,1.2,1.33018,-2.01822,1.71112,18.8066,-18.8388,0,1.92484,24.3164
9.42329,-0.168807,1.57606,1.69949,-0.176917,0.231352,-1.13575,0.936963,0.0630514,1.2,1.38769,-2.03229,1.62327,18.8329,-18.8454,0,1.93943,24.2827
9.45653,-0.13382,1.52133,1.7438,-0.170732,0.225247,-1.11212,1.01337,-0.0133731,1.2,1.41406,-2.03509,1.53766,18.8488,-18.8494,0,1.99176,24.2705
9.49213,-0.0876185,1.4519,1.79333,-0.155215,0.21259,-1.05618,1.08974,-0.0897775,1.2,1.4422,-2.03635,1.40176,18.8158,-18.8411,0,2.02854,24.2117
9.52404,-0.0487917,1.39569,1.82822,-0.142397,0.20073,-1.00472,1.16588,-0.166136,1.2,1.47677,-2.03338,1.22861,18.7339,-18.8206,0,2.07591,24.1067
9.55616,-0.00857175,1.33902,1.85809,-0.134544,0.194045,-0.975348,1.20379,-0.204263,1.2,1.50044,-2.02854,1.07815,18.6748,-18.8058,0,2.06993,24.0333
9.59208,0.0328179,1.28194,1.88235,-0.121898,0.185164,-0.929397,1.27937,-0.280605,1.2,1.51697,-2.02083,0.902438,18.5197,-18.7669,0,2.11212,23.8818
9.62463,0.075234,1.22456,1.90063,-0.113181,0.179107,-0.891547,1.3549,-0.357451,1.2,1.53011,-2.01314,0.713548,18.3144,-18.7153,0,2.15203,23.6893
9.65706,0.118608,1.1669,1.91293,-0.10915,0.176618,-0.871896,1.39091,-0.394334,1.2,1.54032,-2.00517,0.517554,18.1982,-18.686,0,2.13646,23.5797
9.6931,0.177706,1.09251,1.92453,-0.103018,0.174173,-0.834814,1.46416,-0.469959,1.2,1.55375,-1.99706,0.333865,17.9244,-18.6168,0,2.1497,23.3308
9.72492,0.226678,1.03257,1.92944,-0.0996514,0.174938,-0.801174,1.53632,-0.545406,1.2,1.57585,-1.98475,0.149004,17.6035,-18.5354,0,2.17652,23.0398
9.75665,0.276682,0.972641,1.93094,-0.0982216,0.177468,-0.783053,1.57171,-0.582817,1.2,1.59977,-1.97709,0.0315209,17.4267,-18.4904,0,2.15194,22.8732
9.79245,0.327848,0.912732,1.92975,-0.0982856,0.183414,-0.758372,1.64159,-0.657585,1.2,1.62766,-1.96737,-0.0575447,17.0382,-18.3912,0,2.17356,22.5218
9.82413,0.380178,0.852859,1.92609,-0.0978924,0.190309,-0.731414,1.7098,-0.731918,1.2,1.65795,-1.96005,-0.130079,16.6056,-18.28,0,2.1924,22.1312
9.85604,0.433683,0.792994,1.91998,-0.0961738,0.19328,-0.72261,1.74323,-0.768915,1.2,1.68807,-1.95124,-0.20484,16.373,-18.2199,0,2.16168,21.9171
9.89184,0.502447,0.71807,1.90976,-0.0882863,0.203449,-0.702568,1.80872,-0.842648,1.2,1.72194,-1.94672,-0.265032,15.8753,-18.0907,0,2.15545,21.4713
9.92369,0.558885,0.658043,1.89948,-0.0770318,0.213642,-0.68479,1.84053,-0.879128,1.2,1.76785,-1.94078,-0.333441,15.6122,-18.022,0,2.12009,21.2222
9.95568,0.616555,0.597825,1.8873,-0.0703476,0.219213,-0.67691,1.90272,-0.951909,1.2,1.80273,-1.93962,-0.388208,15.054,-17.8755,0,2.12797,20.7292
9.99142,0.675379,0.537434,1.8732,-0.0557307,0.228757,-0.662684,1.96255,-1.02406,1.2,1.83708,-1.94097,-0.44749,14.4568,-17.7174,0,2.13267,20.2077
10.0233,0.735202,0.476883,1.85651,-0.0392959,0.231039,-0.650014,1.99156,-1.05991,1.2,1.86803,-1.94008,-0.508083,14.1438,-17.6339,0,2.09073,19.9311
10.0551,0.796026,0.41604,1.83725,-0.0305073,0.231931,-0.644396,2.04757,-1.13103,1.2,1.89508,-1.94318,-0.598909,13.4911,-17.4586,0,2.08947,19.3793
10.0911,0.875206,0.337675,1.81284,-0.0135332,0.232009,-0.634895,2.10089,-1.20144,1.2,1.92629,-1.95041,-0.647974,12.8032,-17.272,0,2.06076,18.801
10.1229,0.939502,0.27436,1.79016,0.00196517,0.224858,-0.627818,2.12648,-1.23636,1.2,1.95419,-1.96121,-0.737999,12.4466,-17.1744,0,2.00985,18.4953
10.1549,1.00455,0.210605,1.7662,0.0125343,0.218406,-0.624068,2.17546,-1.30558,1.2,1.9771,-1.9734,-0.806593,11.7096,-16.971,0,1.99761,17.8969
10.1909,1.07014,0.146454,1.74097,0.0227955,0.206162,-0.62123,2.22139,-1.37396,1.2,2.00202,-1.98889,-0.823449,10.9422,-16.7565,0,1.98234,17.2825
10.2227,1.13592,0.0821664,1.71194,0.0317971,0.180295,-0.619564,2.24327,-1.40796,1.2,2.01474,-1.99812,-0.892962,10.546,-16.6447,0,1.92581,16.9735
10.2547,1.20172,0.0177766,1.67822,0.0355328,0.164514,-0.619686,2.28431,-1.47483,1.2,2.01896,-2.00135,-1.03221,9.73839,-16.4145,0,1.90488,16.3827
10.2907,1.28378,-0.0627256,1.6297,0.0414157,0.129716,-0.621557,2.3221,-1.54089,1.2,2.02004,-2.00451,-1.16979,8.90389,-16.1731,0,1.85681,15.7957
10.3226,1.34911,-0.127023,1.58606,0.0449872,0.089964,-0.625529,2.33972,-1.57355,1.2,2.01389,-2.00318,-1.33988,8.47784,-16.0485,0,1.79522,15.5193
10.3545,1.41398,-0.191202,1.53894,0.0462451,0.0691763,-0.628623,2.37234,-1.6381,1.2,2.00404,-2.00125,-1.45614,7.60942,-15.7915,0,1.7683,14.9569
10.3906,1.47818,-0.255215,1.49054,0.0480526,0.0238636,-0.636853,2.4014,-1.70159,1.2,1.98819,-1.99643,-1.54325,6.72131,-15.5242,0,1.74033,14.4147
10.4235,1.55695,-0.334851,1.43347,0.0479062,-0.0063766,-0.645237,2.41457,-1.73292,1.2,1.96386,-1.99163,-1.51782,6.27056,-15.3867,0,1.65669,14.152
10.4552,1.60312,-0.382353,1.40213,0.0481967,-0.0202591,-0.650517,2.43814,-1.79473,1.2,1.91625,-1.97946,-1.37922,5.35721,-15.1044,0,1.65316,13.6384
10.4912,1.68663,-0.461983,1.36057,0.050812,-0.0384094,-0.661996,2.45799,-1.85538,1.2,1.8789,-1.96902,-1.27964,4.42989,-14.8123,0,1.60073,13.1565
10.5236,1.75245,-0.52505,1.33401,0.0543343,-0.0424936,-0.674067,2.46649,-1.88526,1.2,1.81668,-1.94775,-1.08906,3.9618,-14.6626,0,1.54207,12.9404
10.5557,1.81566,-0.587339,1.31348,0.0557623,-0.0415671,-0.681313,2.48065,-1.94409,1.2,1.76067,-1.92597,-0.890326,3.01814,-14.3561,0,1.51521,12.5253
10.5916,1.87633,-0.648906,1.29919,0.0578853,-0.0357659,-0.692484,2.49096,-2.00166,1.2,1.70188,-1.90626,-0.678399,2.06665,-14.0403,0,1.48914,12.1585
10.6243,1.93463,-0.709846,1.2908,0.0599173,-0.026961,-0.704315,2.4974,-2.05801,1.2,1.64432,-1.88764,-0.470579,1.10837,-13.7149,0,1.46373,11.8488
10.6562,1.99081,-0.770182,1.28638,0.0607585,-0.0244487,-0.710495,2.49916,-2.08557,1.2,1.59059,-1.87129,-0.294907,0.629977,-13.5495,0,1.41284,11.7214
10.692,2.05861,-0.844866,1.2811,0.0625197,-0.0252512,-0.723536,2.49977,-2.13981,1.2,1.54541,-1.85642,-0.208203,-0.330017,-13.2115,0,1.37043,11.5108
10.7238,2.11134,-0.904028,1.27298,0.0643825,-0.0355306,-0.737983,2.49861,-2.16643,1.2,1.50438,-1.83867,-0.266178,-0.810119,-13.0391,0,1.32248,11.4401
10.7557,2.16294,-0.962643,1.25961,0.0654451,-0.0446296,-0.745807,2.49335,-2.21883,1.2,1.48183,-1.82471,-0.409678,-1.77269,-12.6864,0,1.30028,11.3462
10.7916,2.21323,-1.02066,1.24133,0.0671227,-0.0718061,-0.763169,2.48428,-2.26929,1.2,1.45596,-1.80865,-0.567489,-2.72139,-12.329,0,1.27839,11.3336
10.8235,2.26205,-1.07794,1.21893,0.0674122,-0.111241,-0.782591,2.47829,-2.2941,1.2,1.42414,-1.78964,-0.697255,-3.19558,-12.1464,0,1.23537,11.3618
10.8554,2.30915,-1.13422,1.19342,0.0668828,-0.135019,-0.793611,2.46342,-2.34259,1.2,1.38669,-1.7646,-0.802803,-4.13744,-11.7753,0,1.21819,11.4619
10.8913,2.37504,-1.20579,1.15994,0.0647527,-0.190179,-0.818847,2.44475,-2.38957,1.2,1.33539,-1.7294,-0.873236,-5.06867,-11.3966,0,1.1865,11.6288
10.9232,2.42559,-1.26119,1.13519,0.0629763,-0.244669,-0.847746,2.43401,-2.41248,1.2,1.24559,-1.66659,-0.839475,-5.52949,-11.2044,0,1.15315,11.7293
10.9556,2.47184,-1.31376,1.11359,0.0624645,-0.268436,-0.863511,2.40974,-2.45712,1.2,1.15222,-1.59437,-0.74285,-6.44002,-10.8147,0,1.14831,11.9669
10.9915,2.51392,-1.36358,1.09406,0.0684635,-0.298303,-0.895689,2.38181,-2.50016,1.2,1.04855,-1.5123,-0.649847,-7.3338,-10.4179,0,1.14913,12.2473
11.0239,2.56067,-1.42187,1.07251,0.0851408,-0.297839,-0.928154,2.3665,-2.52108,1.2,0.951962,-1.43924,-0.604406,-7.77367,-10.217,0,1.12349,12.3916
11.0552,2.58535,-1.45435,1.06219,0.0928952,-0.292513,-0.944521,2.33247,-2.56253,1.2,0.813983,-1.32375,-0.485616,-8.6564,-9.80144,0,1.14499,12.7199
11.0913,2.62094,-1.50464,1.04977,0.107418,-0.273622,-0.977385,2.29649,-2.60062,1.2,0.724206,-1.25051,-0.391975,-9.48009,-9.39708,0,1.15282,13.0632
11.1232,2.64483,-1.54188,1.04321,0.125569,-0.242073,-1.00967,2.27684,-2.61946,1.2,0.583413,-1.14494,-0.251324,-9.89213,-9.18813,0,1.14942,13.2096
11.1552,2.66506,-1.57693,1.03894,0.135099,-0.224032,-1.02563,2.23512,-2.65584,1.2,0.483142,-1.07418,-0.17136,-10.6961,-8.7661,0,1.17253,13.5709
11.1911,2.68193,-1.61018,1.03635,0.154381,-0.185221,-1.05683,2.19015,-2.69053,1.2,0.391031,-1.0156,-0.105801,-11.4728,-8.3381,0,1.19824,13.9421
11.2232,2.69572,-1.64208,1.03473,0.174205,-0.140652,-1.09056,2.16651,-2.70721,1.2,0.307081,-0.970693,-0.0646423,-11.8501,-8.1221,0,1.20078,14.1047
11.2552,2.70658,-1.67298,1.03372,0.180872,-0.125334,-1.10307,2.11698,-2.73926,1.2,0.230804,-0.939378,-0.0432941,-12.5812,-7.68624,0,1.22972,14.4799
11.2909,2.73406,-1.72399,1.02866,0.194113,-0.0919293,-1.1359,2.06454,-2.76953,1.2,0.15313,-0.914659,-0.0184958,-13.2797,-7.24532,0,1.2533,14.8499
11.3233,2.75488,-1.76579,1.02631,0.201149,-0.0688559,-1.17247,2.03728,-2.78399,1.2,0.0644201,-0.899162,0.0389331,-13.6162,-7.02308,0,1.25772,14.9887
11.355,2.77146,-1.80628,1.02698,0.202658,-0.0605552,-1.19211,1.98075,-2.81156,1.2,-0.0111638,-0.89407,0.113246,-14.2623,-6.57526,0,1.29064,15.3422
11.391,2.78403,-1.84559,1.03061,0.201881,-0.0489235,-1.234,1.92168,-2.8373,1.2,-0.0876484,-0.891931,0.198936,-14.8714,-6.12316,0,1.32508,15.6833
11.4229,2.79299,-1.88386,1.03659,0.196737,-0.0469399,-1.2807,1.89124,-2.84948,1.2,-0.158466,-0.889885,0.273195,-15.1616,-5.89562,0,1.33128,15.8185
11.4551,2.79871,-1.92104,1.04376,0.192966,-0.0491444,-1.30569,1.82863,-2.87246,1.2,-0.223535,-0.885831,0.317857,-15.7123,-5.43763,0,1.36772,16.1469
11.4911,2.80181,-1.96603,1.05298,0.185006,-0.0581998,-1.35785,1.76388,-2.89357,1.2,-0.279403,-0.878808,0.329637,-16.2222,-4.97615,0,1.39973,16.4642
11.523,2.80113,-2.00075,1.06033,0.181093,-0.067929,-1.41249,1.73076,-2.90342,1.2,-0.343846,-0.867915,0.314142,-16.4614,-4.74424,0,1.40713,16.5801
11.5549,2.79763,-2.03417,1.06839,0.182062,-0.0713019,-1.44039,1.66309,-2.92172,1.2,-0.399478,-0.851518,0.315767,-16.9077,-4.27798,0,1.44645,16.8631
11.5913,2.79136,-2.06618,1.07761,0.187545,-0.0751412,-1.49777,1.5937,-2.93811,1.2,-0.455487,-0.828222,0.339655,-17.3102,-3.80892,0,1.48648,17.1196
11.6228,2.78207,-2.09662,1.08926,0.198201,-0.073395,-1.55654,1.55844,-2.94559,1.2,-0.517157,-0.800755,0.383685,-17.4945,-3.57362,0,1.49341,17.2066
11.6548,2.76951,-2.12538,1.10474,0.205306,-0.0704228,-1.58652,1.48682,-2.95912,1.2,-0.589819,-0.765999,0.47899,-17.8292,-3.10104,0,1.5328,17.4034
11.6908,2.75776,-2.16192,1.1297,0.220598,-0.0564449,-1.64653,1.41378,-2.97076,1.2,-0.672766,-0.727728,0.610819,-18.1182,-2.62545,0,1.57017,17.559
11.7226,2.74537,-2.18961,1.15527,0.236689,-0.032814,-1.70691,1.37707,-2.97582,1.2,-0.781095,-0.678414,0.80032,-18.2443,-2.38847,0,1.57872,17.5649
11.7546,2.72857,-2.21551,1.18604,0.246437,-0.0149336,-1.74298,1.30264,-2.98454,1.2,-0.87331,-0.641521,0.955342,-18.4619,-1.91139,0,1.62015,17.6602
11.7907,2.70732,-2.23982,1.22162,0.257537,0.0148602,-1.79693,1.22669,-2.99137,1.2,-0.972882,-0.607413,1.10541,-18.6331,-1.42844,0,1.66059,17.7138
11.8234,2.68169,-2.26282,1.26163,0.266913,0.0516524,-1.85708,1.1896,-2.99398,1.2,-1.07735,-0.578646,1.24461,-18.6984,-1.19367,0,1.66275,17.6756
11.8553,2.6518,-2.28482,1.30557,0.270677,0.0717194,-1.88671,1.11357,-2.99785,1.2,-1.17972,-0.557563,1.36926,-18.7954,-0.714099,0,1.69873,17.6696
11.8913,2.60854,-2.31138,1.36496,0.273887,0.115373,-1.94593,1.03725,-2.99977,1.2,-1.28465,-0.54603,1.4761,-18.8437,-0.234085,0,1.72338,17.6238
11.9232,2.56929,-2.33209,1.41531,0.272175,0.15794,-2.00549,0.999049,-3,1.2,-1.41226,-0.540552,1.57734,-18.8496,0.00597548,0,1.71992,17.517
11.9551,2.52591,-2.35262,1.46768,0.269626,0.177945,-2.03539,0.922656,-2.999,1.2,-1.51765,-0.542544,1.6463,-18.8245,0.486131,0,1.74925,17.4154
11.991,2.47859,-2.37301,1.52161,0.261271,0.211414,-2.09602,0.846479,-2.99606,1.2,-1.62361,-0.548556,1.69583,-18.7506,0.965872,0,1.77635,17.2772
12.023,2.42781,-2.39328,1.57565,0.246642,0.227827,-2.16035,0.808515,-2.99386,1.2,-1.72259,-0.554979,1.73115,-18.6953,1.2056,0,1.76746,17.1514
12.0548,2.37505,-2.41343,1.62534,0.235543,0.233317,-2.19906,0.733005,-2.988,1.2,-1.79219,-0.560874,1.67046,-18.5485,1.68432,0,1.79091,16.9884
12.091,2.32054,-2.44042,1.67413,0.215933,0.241158,-2.26307,0.658181,-2.9802,1.2,-1.81993,-0.564189,1.47529,-18.3536,2.16198,0,1.81097,16.8217
12.1235,2.27706,-2.46197,1.70642,0.198698,0.246364,-2.31904,0.621088,-2.97558,1.2,-1.84843,-0.565311,1.24898,-18.2382,2.40032,0,1.80623,16.7027
12.1555,2.23131,-2.48317,1.73373,0.189478,0.248976,-2.34919,0.547668,-2.96488,1.2,-1.87123,-0.567749,1.07315,-17.9721,2.87575,0,1.83073,16.4999
12.1915,2.18348,-2.50403,1.75629,0.170433,0.251468,-2.4136,0.475416,-2.95226,1.2,-1.89668,-0.570235,0.907759,-17.6593,3.34936,0,1.85144,16.268
12.2234,2.13399,-2.52452,1.77295,0.155748,0.248868,-2.46421,0.439797,-2.94523,1.2,-1.9153,-0.571071,0.732134,-17.4857,3.58531,0,1.83727,16.1322
12.2553,2.08276,-2.54466,1.78424,0.148588,0.247336,-2.49137,0.36952,-2.92971,1.2,-1.92766,-0.568963,0.522711,-17.1036,4.05646,0,1.85062,15.8738
12.2912,2.01465,-2.56947,1.798,0.138794,0.245505,-2.54222,0.301156,-2.91235,1.2,-1.96463,-0.569268,0.408229,-16.6788,4.52312,0,1.84695,15.5758
12.3232,1.95634,-2.589,1.81171,0.132604,0.242816,-2.58886,0.26204,-2.90134,1.2,-2.05565,-0.568979,0.462134,-16.4106,4.79442,0,1.82822,15.3312
12.3553,1.89461,-2.6082,1.82858,0.130412,0.239368,-2.61476,0.201871,-2.88273,1.2,-2.13782,-0.566333,0.550553,-15.9597,5.2188,0,1.82643,14.9939
12.3912,1.83012,-2.62695,1.84674,0.129529,0.227533,-2.65117,0.13823,-2.86063,1.2,-2.21374,-0.561048,0.636232,-15.4283,5.67845,0,1.8263,14.6274
12.4235,1.76423,-2.64523,1.8605,0.131241,0.206769,-2.68953,0.107267,-2.8489,1.2,-2.25668,-0.550697,0.588719,-15.1477,5.9067,0,1.79535,14.4299
12.4554,1.69755,-2.6631,1.86716,0.133016,0.196261,-2.70822,0.0470041,-2.82402,1.2,-2.26106,-0.543196,0.366491,-14.5564,6.36099,0,1.78753,14.1059
12.4912,1.61657,-2.68671,1.86801,0.139026,0.17505,-2.74478,-0.0107491,-2.79732,1.2,-2.27095,-0.531742,0.17239,-13.9276,6.81088,0,1.76256,13.7776
12.5241,1.55158,-2.70537,1.86127,0.144855,0.150648,-2.78121,-0.0658794,-2.7688,1.2,-2.2803,-0.51584,-0.0335291,-13.2627,7.25634,0,1.74856,13.4544
12.5561,1.48596,-2.7236,1.8461,0.147863,0.13758,-2.79951,-0.0924175,-2.75386,1.2,-2.2758,-0.510215,-0.286927,-12.9173,7.47734,0,1.70577,13.3088
12.5919,1.41989,-2.74145,1.82236,0.152282,0.110289,-2.83588,-0.143666,-2.72245,1.2,-2.26804,-0.505547,-0.563499,-12.1967,7.91845,0,1.68297,13.033
12.6238,1.35346,-2.75895,1.78989,0.156561,0.0802,-2.87251,-0.167705,-2.70639,1.2,-2.25797,-0.500333,-0.837961,-11.8315,8.13286,0,1.63238,12.9185
12.6556,1.28675,-2.77615,1.74857,0.158502,0.0642433,-2.89098,-0.214137,-2.67255,1.2,-2.2483,-0.496923,-1.11747,-11.0689,8.56334,0,1.60135,12.6941
12.6917,1.20308,-2.79692,1.68616,0.162487,0.0320158,-2.9286,-0.257422,-2.63696,1.2,-2.23763,-0.49149,-1.3951,-10.2775,8.98831,0,1.54758,12.5081
12.7236,1.13605,-2.81243,1.63101,0.16747,0.00313006,-2.96658,-0.277847,-2.61853,1.2,-2.22339,-0.469855,-1.64859,-9.87167,9.19862,0,1.4908,12.4376
12.7555,1.06917,-2.8265,1.57388,0.169892,-0.0104328,-2.98584,-0.316193,-2.58039,1.2,-2.20764,-0.433417,-1.73685,-9.04113,9.61469,0,1.45588,12.2751
12.7914,1.00268,-2.83871,1.51706,0.174366,-0.0310433,-3.02458,-0.351123,-2.54058,1.2,-2.18474,-0.388872,-1.78522,-8.18713,10.0245,0,1.42204,12.1513
12.8238,0.920723,-2.85041,1.45145,0.180479,-0.0387468,-3.06732,-0.36728,-2.52005,1.2,-2.15608,-0.322274,-1.71578,-7.75198,10.227,0,1.35326,12.0642
12.8552,0.856481,-2.85661,1.40485,0.182908,-0.0403157,-3.08334,-0.396922,-2.47777,1.2,-2.10017,-0.218448,-1.52775,-6.86691,10.627,0,1.32533,11.9449
12.8915,0.787725,-2.86403,1.37057,0.187819,-0.0395362,-3.12377,-0.422943,-2.43388,1.2,-2.05143,-0.13298,-1.36524,-5.96384,11.0202,0,1.29609,11.8981
12.9245,0.720659,-2.86827,1.34128,0.19194,-0.0332467,3.11859,-0.445495,-2.38789,1.2,-2.00945,-0.0478704,-1.198,-5.03508,11.4104,0,1.26911,11.9115
12.9562,0.655356,-2.86927,1.3175,0.192827,-0.0300925,3.09763,-0.455019,-2.36511,1.2,-1.96014,0.0408181,-1.00735,-4.58146,11.5963,0,1.22512,11.8918
12.992,0.591713,-2.86726,1.29861,0.192113,-0.0256159,3.05504,-0.4717,-2.31733,1.2,-1.91242,0.129487,-0.819201,-3.64426,11.9711,0,1.20125,11.9956
13.024,0.529549,-2.86286,1.28207,0.186312,-0.0249985,3.00683,-0.478609,-2.29287,1.2,-1.86631,0.206232,-0.680157,-3.17201,12.1556,0,1.16104,12.0397
13.0559,0.468619,-2.8568,1.26413,0.182696,-0.02553,2.9891,-0.489544,-2.24285,1.2,-1.82815,0.260117,-0.651161,-2.2217,12.5185,0,1.13979,12.282
13.0917,0.393963,-2.84753,1.23654,0.173046,-0.02847,2.94422,-0.496614,-2.19139,1.2,-1.79641,0.295619,-0.72899,-1.26589,12.8733,0,1.10679,12.61
13.1237,0.335371,-2.83898,1.20969,0.163247,-0.0356965,2.89822,-0.498695,-2.1651,1.2,-1.76051,0.328419,-0.871513,-0.78615,13.0477,0,1.07232,12.7863
13.1556,0.277841,-2.8296,1.17828,0.158258,-0.0414361,2.87439,-0.499936,-2.1115,1.2,-1.73314,0.348772,-1.00207,0.174051,13.39,0,1.05881,13.218
13.1915,0.221605,-2.81929,1.14365,0.148668,-0.0562424,2.82581,-0.497284,-2.05654,1.2,-1.70007,0.368845,-1.12297,1.13372,13.7236,0,1.04965,13.6982
13.2235,0.166906,-2.808,1.1069,0.140136,-0.075659,2.7747,-0.494405,-2.02773,1.2,-1.65821,0.39326,-1.19049,1.62657,13.8918,0,1.02704,13.9434
13.2553,0.113984,-2.79585,1.06912,0.135508,-0.0871422,2.74812,-0.485925,-1.97104,1.2,-1.61044,0.417584,-1.23226,2.57612,14.2103,0,1.02826,14.4667
13.2913,0.0427575,-2.78418,1.02545,0.127935,-0.112165,2.69357,-0.473566,-1.91283,1.2,-1.55238,0.436467,-1.24048,3.52316,14.5209,0,1.02777,15.0224
13.3233,-0.012145,-2.77464,0.993713,0.125298,-0.133604,2.63771,-0.466075,-1.88371,1.2,-1.46278,0.456851,-1.16311,3.98623,14.6705,0,1.02097,15.2667
13.3552,-0.0633426,-2.76423,0.96582,0.125732,-0.142384,2.60943,-0.448042,-1.8237,1.2,-1.3751,0.47093,-1.04834,4.91815,14.9668,0,1.0428,15.8378
13.3912,-0.110636,-2.75312,0.942078,0.133052,-0.154094,2.55179,-0.42623,-1.76243,1.2,-1.27674,0.479214,-0.903451,5.83854,15.2538,0,1.07126,16.4236
13.4232,-0.15385,-2.74147,0.922852,0.147663,-0.156284,2.49344,-0.413849,-1.73116,1.2,-1.17219,0.485588,-0.767029,6.29612,15.3946,0,1.07942,16.6925
13.4552,-0.192715,-2.72929,0.90918,0.156147,-0.155273,2.46432,-0.386595,-1.6684,1.2,-1.05695,0.488636,-0.59628,7.18984,15.6657,0,1.11699,17.2832
13.491,-0.235124,-2.71327,0.899963,0.174423,-0.149421,2.40614,-0.355661,-1.60435,1.2,-0.934381,0.494243,-0.408998,8.06781,15.9277,0,1.1551,17.8717
13.5232,-0.264053,-2.69969,0.898834,0.195942,-0.133741,2.34954,-0.338867,-1.57194,1.2,-0.781991,0.505607,-0.187403,8.49914,16.0548,0,1.16967,18.1094
13.5551,-0.288465,-2.68526,0.903931,0.206861,-0.122445,2.32187,-0.302668,-1.50631,1.2,-0.654284,0.518393,0.00843667,9.34533,16.3012,0,1.21565,18.684
13.5911,-0.308605,-2.66973,0.914917,0.227756,-0.0910236,2.26912,-0.263128,-1.43977,1.2,-0.52728,0.540079,0.207384,10.1664,16.5369,0,1.26338,19.2431
13.6233,-0.32484,-2.65289,0.93045,0.247384,-0.0469614,2.21958,-0.242108,-1.40613,1.2,-0.410674,0.570354,0.382019,10.5675,16.6508,0,1.27825,19.4742
13.6552,-0.337753,-2.63458,0.948303,0.256287,-0.0217694,2.19592,-0.197672,-1.33818,1.2,-0.308259,0.605599,0.494653,11.3486,16.8704,0,1.32802,20.0168
13.6912,-0.369269,-2.61047,0.965759,0.2703,0.0326674,2.15023,-0.150126,-1.26935,1.2,-0.223681,0.64785,0.548859,12.1004,17.0791,0,1.37895,20.5468
13.7232,-0.393903,-2.58883,0.980682,0.27726,0.0887895,2.10569,-0.125225,-1.23462,1.2,-0.140684,0.714371,0.592933,12.4646,17.1793,0,1.39791,20.7446
13.7552,-0.414558,-2.56425,0.998749,0.27947,0.117096,2.08318,-0.0732572,-1.16459,1.2,-0.074789,0.786278,0.656553,13.1684,17.3713,0,1.45466,21.2339
13.7911,-0.431405,-2.53627,1.0209,0.275562,0.168264,2.03523,-0.0184904,-1.09378,1.2,-0.00459603,0.879722,0.761388,13.8383,17.5521,0,1.51108,21.6835
13.8231,-0.444603,-2.50455,1.04749,0.262226,0.204041,1.98103,0.00989058,-1.05811,1.2,0.0633452,0.981347,0.878264,14.1598,17.6382,0,1.52382,21.8388
13.855,-0.45417,-2.46857,1.07938,0.255084,0.217785,1.95221,0.0685543,-0.986267,1.2,0.133633,1.10015,1.0215,14.775,17.8018,0,1.57639,22.2342
13.8916,-0.461307,-2.41768,1.12625,0.241739,0.23618,1.89137,0.129639,-0.913782,1.2,0.207321,1.23113,1.18009,15.3519,17.9539,0,1.61752,22.5921
13.9236,-0.463289,-2.37237,1.16943,0.227871,0.242937,1.82709,0.161042,-0.87731,1.2,0.290828,1.38348,1.35557,15.6256,18.0255,0,1.62047,22.6705
13.9555,-0.461995,-2.3231,1.21759,0.221091,0.243667,1.79429,0.225451,-0.803955,1.2,0.361808,1.5068,1.51187,16.1422,18.1601,0,1.66754,22.9921
13.9915,-0.457739,-2.27051,1.26898,0.208411,0.238362,1.72814,0.291878,-0.73007,1.2,0.431619,1.62005,1.64554,16.6169,18.2829,0,1.71454,23.2878
